comm_windows_Mediterranean.csv

sat_id,ground_station,window_start,window_end,duration_min
0,Mediterranean,2025-03-30T21:25:00,2025-03-30T21:26:00,2.00
0,Mediterranean,2025-03-31T21:25:00,2025-03-31T21:26:00,2.00
0,Mediterranean,2025-04-01T09:45:00,2025-04-01T09:46:00,2.00
0,Mediterranean,2025-04-02T09:44:00,2025-04-02T09:46:00,3.00
0,Mediterranean,2025-04-03T09:44:00,2025-04-03T09:45:00,2.00
0,Mediterranean,2025-04-04T09:43:00,2025-04-04T09:45:00,3.00
0,Mediterranean,2025-04-05T09:43:00,2025-04-05T09:44:00,2.00
0,Mediterranean,2025-04-06T09:43:00,2025-04-06T09:44:00,2.00
0,Mediterranean,2025-04-06T19:46:00,2025-04-06T19:46:00,1.00
0,Mediterranean,2025-04-07T19:45:00,2025-04-07T19:46:00,2.00
0,Mediterranean,2025-04-08T19:45:00,2025-04-08T19:46:00,2.00
0,Mediterranean,2025-04-09T19:44:00,2025-04-09T19:46:00,3.00
0,Mediterranean,2025-04-10T19:44:00,2025-04-10T19:46:00,3.00
0,Mediterranean,2025-04-11T19:44:00,2025-04-11T19:45:00,2.00
0,Mediterranean,2025-04-12T08:04:00,2025-04-12T08:05:00,2.00
0,Mediterranean,2025-04-12T19:44:00,2025-04-12T19:44:00,1.00
1,Mediterranean,2025-03-30T21:15:00,2025-03-30T21:17:00,3.00
1,Mediterranean,2025-03-31T21:15:00,2025-03-31T21:16:00,2.00
1,Mediterranean,2025-04-01T21:14:00,2025-04-01T21:16:00,3.00
1,Mediterranean,2025-04-02T09:35:00,2025-04-02T09:36:00,2.00
1,Mediterranean,2025-04-03T09:34:00,2025-04-03T09:36:00,3.00
1,Mediterranean,2025-04-04T09:34:00,2025-04-04T09:35:00,2.00
1,Mediterranean,2025-04-05T09:33:00,2025-04-05T09:35:00,3.00
1,Mediterranean,2025-04-06T09:33:00,2025-04-06T09:34:00,2.00
1,Mediterranean,2025-04-07T09:33:00,2025-04-07T09:34:00,2.00
1,Mediterranean,2025-04-07T19:36:00,2025-04-07T19:36:00,1.00
1,Mediterranean,2025-04-08T19:35:00,2025-04-08T19:36:00,2.00
1,Mediterranean,2025-04-09T19:35:00,2025-04-09T19:36:00,2.00
1,Mediterranean,2025-04-10T19:34:00,2025-04-10T19:36:00,3.00
1,Mediterranean,2025-04-11T19:34:00,2025-04-11T19:36:00,3.00
1,Mediterranean,2025-04-12T19:34:00,2025-04-12T19:35:00,2.00
2,Mediterranean,2025-03-30T21:05:00,2025-03-30T21:07:00,3.00
2,Mediterranean,2025-03-31T21:05:00,2025-03-31T21:07:00,3.00
2,Mediterranean,2025-04-01T21:05:00,2025-04-01T21:06:00,2.00
2,Mediterranean,2025-04-02T21:04:00,2025-04-02T21:06:00,3.00
2,Mediterranean,2025-04-03T09:25:00,2025-04-03T09:26:00,2.00
2,Mediterranean,2025-04-03T21:05:00,2025-04-03T21:05:00,1.00
2,Mediterranean,2025-04-04T09:24:00,2025-04-04T09:26:00,3.00
2,Mediterranean,2025-04-05T09:23:00,2025-04-05T09:25:00,3.00
2,Mediterranean,2025-04-06T09:23:00,2025-04-06T09:25:00,3.00
2,Mediterranean,2025-04-07T09:23:00,2025-04-07T09:24:00,2.00
2,Mediterranean,2025-04-08T09:23:00,2025-04-08T09:24:00,2.00
2,Mediterranean,2025-04-09T19:25:00,2025-04-09T19:26:00,2.00
2,Mediterranean,2025-04-10T19:25:00,2025-04-10T19:26:00,2.00
2,Mediterranean,2025-04-11T19:24:00,2025-04-11T19:26:00,3.00
2,Mediterranean,2025-04-12T19:24:00,2025-04-12T19:26:00,3.00
3,Mediterranean,2025-03-30T20:56:00,2025-03-30T20:57:00,2.00
3,Mediterranean,2025-03-31T20:55:00,2025-03-31T20:57:00,3.00
3,Mediterranean,2025-04-01T20:55:00,2025-04-01T20:57:00,3.00
3,Mediterranean,2025-04-02T20:54:00,2025-04-02T20:56:00,3.00
3,Mediterranean,2025-04-03T20:54:00,2025-04-03T20:56:00,3.00
3,Mediterranean,2025-04-04T09:15:00,2025-04-04T09:15:00,1.00
3,Mediterranean,2025-04-04T20:55:00,2025-04-04T20:55:00,1.00
3,Mediterranean,2025-04-05T09:14:00,2025-04-05T09:15:00,2.00
3,Mediterranean,2025-04-06T09:13:00,2025-04-06T09:15:00,3.00
3,Mediterranean,2025-04-07T09:13:00,2025-04-07T09:15:00,3.00
3,Mediterranean,2025-04-08T09:13:00,2025-04-08T09:14:00,2.00
3,Mediterranean,2025-04-09T09:13:00,2025-04-09T09:14:00,2.00
3,Mediterranean,2025-04-10T19:15:00,2025-04-10T19:16:00,2.00
3,Mediterranean,2025-04-11T19:15:00,2025-04-11T19:16:00,2.00
3,Mediterranean,2025-04-12T19:14:00,2025-04-12T19:16:00,3.00
4,Mediterranean,2025-03-30T10:44:00,2025-03-30T10:44:00,1.00
4,Mediterranean,2025-03-31T20:46:00,2025-03-31T20:47:00,2.00
4,Mediterranean,2025-04-01T20:45:00,2025-04-01T20:47:00,3.00
4,Mediterranean,2025-04-02T20:45:00,2025-04-02T20:47:00,3.00
4,Mediterranean,2025-04-03T20:44:00,2025-04-03T20:46:00,3.00
4,Mediterranean,2025-04-04T20:44:00,2025-04-04T20:46:00,3.00
4,Mediterranean,2025-04-05T09:05:00,2025-04-05T09:05:00,1.00
4,Mediterranean,2025-04-05T20:44:00,2025-04-05T20:45:00,2.00
4,Mediterranean,2025-04-06T09:04:00,2025-04-06T09:05:00,2.00
4,Mediterranean,2025-04-07T09:03:00,2025-04-07T09:05:00,3.00
4,Mediterranean,2025-04-08T09:03:00,2025-04-08T09:05:00,3.00
4,Mediterranean,2025-04-09T09:03:00,2025-04-09T09:04:00,2.00
4,Mediterranean,2025-04-10T09:03:00,2025-04-10T09:04:00,2.00
4,Mediterranean,2025-04-11T19:05:00,2025-04-11T19:06:00,2.00
4,Mediterranean,2025-04-12T19:05:00,2025-04-12T19:06:00,2.00
5,Mediterranean,2025-03-30T10:33:00,2025-03-30T10:35:00,3.00
5,Mediterranean,2025-03-31T10:33:00,2025-03-31T10:34:00,2.00
5,Mediterranean,2025-04-01T20:36:00,2025-04-01T20:37:00,2.00
5,Mediterranean,2025-04-02T20:35:00,2025-04-02T20:37:00,3.00
5,Mediterranean,2025-04-03T20:35:00,2025-04-03T20:37:00,3.00
5,Mediterranean,2025-04-04T20:34:00,2025-04-04T20:36:00,3.00
5,Mediterranean,2025-04-05T20:34:00,2025-04-05T20:36:00,3.00
5,Mediterranean,2025-04-06T08:55:00,2025-04-06T08:55:00,1.00
5,Mediterranean,2025-04-06T20:34:00,2025-04-06T20:35:00,2.00
5,Mediterranean,2025-04-07T08:54:00,2025-04-07T08:55:00,2.00
5,Mediterranean,2025-04-08T08:53:00,2025-04-08T08:55:00,3.00
5,Mediterranean,2025-04-09T08:53:00,2025-04-09T08:55:00,3.00
5,Mediterranean,2025-04-10T08:53:00,2025-04-10T08:54:00,2.00
5,Mediterranean,2025-04-11T08:53:00,2025-04-11T08:54:00,2.00
5,Mediterranean,2025-04-12T18:55:00,2025-04-12T18:56:00,2.00
6,Mediterranean,2025-03-30T10:24:00,2025-03-30T10:25:00,2.00
6,Mediterranean,2025-03-31T10:23:00,2025-03-31T10:25:00,3.00
6,Mediterranean,2025-04-01T10:23:00,2025-04-01T10:24:00,2.00
6,Mediterranean,2025-04-02T20:26:00,2025-04-02T20:27:00,2.00
6,Mediterranean,2025-04-03T20:25:00,2025-04-03T20:27:00,3.00
6,Mediterranean,2025-04-04T20:25:00,2025-04-04T20:27:00,3.00
6,Mediterranean,2025-04-05T20:24:00,2025-04-05T20:26:00,3.00
6,Mediterranean,2025-04-06T20:24:00,2025-04-06T20:26:00,3.00
6,Mediterranean,2025-04-07T08:45:00,2025-04-07T08:45:00,1.00
6,Mediterranean,2025-04-07T20:24:00,2025-04-07T20:25:00,2.00
6,Mediterranean,2025-04-08T08:44:00,2025-04-08T08:45:00,2.00
6,Mediterranean,2025-04-09T08:43:00,2025-04-09T08:45:00,3.00
6,Mediterranean,2025-04-10T08:43:00,2025-04-10T08:45:00,3.00
6,Mediterranean,2025-04-11T08:43:00,2025-04-11T08:44:00,2.00
6,Mediterranean,2025-04-12T08:43:00,2025-04-12T08:44:00,2.00
7,Mediterranean,2025-03-30T10:14:00,2025-03-30T10:16:00,3.00
7,Mediterranean,2025-03-31T10:14:00,2025-03-31T10:15:00,2.00
7,Mediterranean,2025-04-01T10:13:00,2025-04-01T10:15:00,3.00
7,Mediterranean,2025-04-02T10:13:00,2025-04-02T10:14:00,2.00
7,Mediterranean,2025-04-03T20:16:00,2025-04-03T20:17:00,2.00
7,Mediterranean,2025-04-04T20:15:00,2025-04-04T20:17:00,3.00
7,Mediterranean,2025-04-05T20:15:00,2025-04-05T20:17:00,3.00
7,Mediterranean,2025-04-06T20:14:00,2025-04-06T20:16:00,3.00
7,Mediterranean,2025-04-07T20:14:00,2025-04-07T20:16:00,3.00
7,Mediterranean,2025-04-08T08:35:00,2025-04-08T08:35:00,1.00
7,Mediterranean,2025-04-08T20:14:00,2025-04-08T20:15:00,2.00
7,Mediterranean,2025-04-09T08:34:00,2025-04-09T08:35:00,2.00
7,Mediterranean,2025-04-10T08:33:00,2025-04-10T08:35:00,3.00
7,Mediterranean,2025-04-11T08:33:00,2025-04-11T08:35:00,3.00
7,Mediterranean,2025-04-12T08:33:00,2025-04-12T08:34:00,2.00
8,Mediterranean,2025-03-30T10:05:00,2025-03-30T10:06:00,2.00
8,Mediterranean,2025-03-31T10:04:00,2025-03-31T10:06:00,3.00
8,Mediterranean,2025-04-01T10:04:00,2025-04-01T10:05:00,2.00
8,Mediterranean,2025-04-02T10:03:00,2025-04-02T10:05:00,3.00
8,Mediterranean,2025-04-03T10:03:00,2025-04-03T10:04:00,2.00
8,Mediterranean,2025-04-04T20:06:00,2025-04-04T20:06:00,1.00
8,Mediterranean,2025-04-05T20:05:00,2025-04-05T20:07:00,3.00
8,Mediterranean,2025-04-06T20:05:00,2025-04-06T20:06:00,2.00
8,Mediterranean,2025-04-07T20:04:00,2025-04-07T20:06:00,3.00
8,Mediterranean,2025-04-08T20:04:00,2025-04-08T20:06:00,3.00
8,Mediterranean,2025-04-09T08:25:00,2025-04-09T08:25:00,1.00
8,Mediterranean,2025-04-09T20:04:00,2025-04-09T20:05:00,2.00
8,Mediterranean,2025-04-10T08:24:00,2025-04-10T08:25:00,2.00
8,Mediterranean,2025-04-11T08:23:00,2025-04-11T08:25:00,3.00
8,Mediterranean,2025-04-12T08:23:00,2025-04-12T08:25:00,3.00
9,Mediterranean,2025-03-30T21:35:00,2025-03-30T21:36:00,2.00
9,Mediterranean,2025-03-31T09:55:00,2025-03-31T09:56:00,2.00
9,Mediterranean,2025-04-01T09:54:00,2025-04-01T09:56:00,3.00
9,Mediterranean,2025-04-02T09:54:00,2025-04-02T09:55:00,2.00
9,Mediterranean,2025-04-03T09:53:00,2025-04-03T09:55:00,3.00
9,Mediterranean,2025-04-04T09:53:00,2025-04-04T09:54:00,2.00
9,Mediterranean,2025-04-05T09:53:00,2025-04-05T09:54:00,2.00
9,Mediterranean,2025-04-05T19:56:00,2025-04-05T19:56:00,1.00
9,Mediterranean,2025-04-06T19:55:00,2025-04-06T19:57:00,3.00
9,Mediterranean,2025-04-07T19:55:00,2025-04-07T19:56:00,2.00
9,Mediterranean,2025-04-08T19:54:00,2025-04-08T19:56:00,3.00
9,Mediterranean,2025-04-09T19:54:00,2025-04-09T19:56:00,3.00
9,Mediterranean,2025-04-10T19:54:00,2025-04-10T19:55:00,2.00
9,Mediterranean,2025-04-11T08:14:00,2025-04-11T08:15:00,2.00
9,Mediterranean,2025-04-12T08:13:00,2025-04-12T08:15:00,3.00
10,Mediterranean,2025-03-30T11:21:00,2025-03-30T11:22:00,2.00
10,Mediterranean,2025-03-31T11:20:00,2025-03-31T11:22:00,3.00
10,Mediterranean,2025-04-01T11:20:00,2025-04-01T11:22:00,3.00
10,Mediterranean,2025-04-02T11:20:00,2025-04-02T11:21:00,2.00
10,Mediterranean,2025-04-03T11:20:00,2025-04-03T11:21:00,2.00
10,Mediterranean,2025-04-04T21:22:00,2025-04-04T21:23:00,2.00
10,Mediterranean,2025-04-05T21:21:00,2025-04-05T21:23:00,3.00
10,Mediterranean,2025-04-06T21:21:00,2025-04-06T21:23:00,3.00
10,Mediterranean,2025-04-07T21:21:00,2025-04-07T21:22:00,2.00
10,Mediterranean,2025-04-08T21:21:00,2025-04-08T21:22:00,2.00
10,Mediterranean,2025-04-09T09:41:00,2025-04-09T09:42:00,2.00
10,Mediterranean,2025-04-09T21:21:00,2025-04-09T21:21:00,1.00
10,Mediterranean,2025-04-10T09:40:00,2025-04-10T09:42:00,3.00
10,Mediterranean,2025-04-11T09:40:00,2025-04-11T09:42:00,3.00
10,Mediterranean,2025-04-12T09:39:00,2025-04-12T09:41:00,3.00
11,Mediterranean,2025-03-30T11:12:00,2025-03-30T11:12:00,1.00
11,Mediterranean,2025-03-30T22:51:00,2025-03-30T22:51:00,1.00
11,Mediterranean,2025-03-31T11:11:00,2025-03-31T11:12:00,2.00
11,Mediterranean,2025-04-01T11:10:00,2025-04-01T11:12:00,3.00
11,Mediterranean,2025-04-02T11:10:00,2025-04-02T11:12:00,3.00
11,Mediterranean,2025-04-03T11:10:00,2025-04-03T11:11:00,2.00
11,Mediterranean,2025-04-04T11:10:00,2025-04-04T11:11:00,2.00
11,Mediterranean,2025-04-05T21:12:00,2025-04-05T21:13:00,2.00
11,Mediterranean,2025-04-06T21:11:00,2025-04-06T21:13:00,3.00
11,Mediterranean,2025-04-07T21:11:00,2025-04-07T21:13:00,3.00
11,Mediterranean,2025-04-08T21:11:00,2025-04-08T21:12:00,2.00
11,Mediterranean,2025-04-09T21:11:00,2025-04-09T21:12:00,2.00
11,Mediterranean,2025-04-10T09:31:00,2025-04-10T09:32:00,2.00
11,Mediterranean,2025-04-10T21:11:00,2025-04-10T21:11:00,1.00
11,Mediterranean,2025-04-11T09:30:00,2025-04-11T09:32:00,3.00
11,Mediterranean,2025-04-12T09:30:00,2025-04-12T09:31:00,2.00
12,Mediterranean,2025-03-30T22:41:00,2025-03-30T22:42:00,2.00
12,Mediterranean,2025-03-31T11:02:00,2025-03-31T11:02:00,1.00
12,Mediterranean,2025-03-31T22:41:00,2025-03-31T22:42:00,2.00
12,Mediterranean,2025-04-01T11:01:00,2025-04-01T11:02:00,2.00
12,Mediterranean,2025-04-02T11:00:00,2025-04-02T11:02:00,3.00
12,Mediterranean,2025-04-03T11:00:00,2025-04-03T11:02:00,3.00
12,Mediterranean,2025-04-04T11:00:00,2025-04-04T11:01:00,2.00
12,Mediterranean,2025-04-05T11:00:00,2025-04-05T11:01:00,2.00
12,Mediterranean,2025-04-06T21:02:00,2025-04-06T21:03:00,2.00
12,Mediterranean,2025-04-07T21:01:00,2025-04-07T21:03:00,3.00
12,Mediterranean,2025-04-08T21:01:00,2025-04-08T21:03:00,3.00
12,Mediterranean,2025-04-09T21:01:00,2025-04-09T21:02:00,2.00
12,Mediterranean,2025-04-10T21:00:00,2025-04-10T21:02:00,3.00
12,Mediterranean,2025-04-11T09:21:00,2025-04-11T09:21:00,1.00
12,Mediterranean,2025-04-11T21:01:00,2025-04-11T21:01:00,1.00
12,Mediterranean,2025-04-12T09:20:00,2025-04-12T09:22:00,3.00
13,Mediterranean,2025-03-30T22:31:00,2025-03-30T22:33:00,3.00
13,Mediterranean,2025-03-31T22:31:00,2025-03-31T22:32:00,2.00
13,Mediterranean,2025-04-01T10:52:00,2025-04-01T10:52:00,1.00
13,Mediterranean,2025-04-01T22:31:00,2025-04-01T22:32:00,2.00
13,Mediterranean,2025-04-02T10:51:00,2025-04-02T10:52:00,2.00
13,Mediterranean,2025-04-03T10:50:00,2025-04-03T10:52:00,3.00
13,Mediterranean,2025-04-04T10:50:00,2025-04-04T10:52:00,3.00
13,Mediterranean,2025-04-05T10:50:00,2025-04-05T10:51:00,2.00
13,Mediterranean,2025-04-06T10:50:00,2025-04-06T10:51:00,2.00
13,Mediterranean,2025-04-07T20:52:00,2025-04-07T20:53:00,2.00
13,Mediterranean,2025-04-08T20:51:00,2025-04-08T20:53:00,3.00
13,Mediterranean,2025-04-09T20:51:00,2025-04-09T20:53:00,3.00
13,Mediterranean,2025-04-10T20:51:00,2025-04-10T20:52:00,2.00
13,Mediterranean,2025-04-11T20:50:00,2025-04-11T20:52:00,3.00
13,Mediterranean,2025-04-12T09:11:00,2025-04-12T09:11:00,1.00
13,Mediterranean,2025-04-12T20:50:00,2025-04-12T20:51:00,2.00
14,Mediterranean,2025-03-30T22:21:00,2025-03-30T22:23:00,3.00
14,Mediterranean,2025-03-31T22:21:00,2025-03-31T22:23:00,3.00
14,Mediterranean,2025-04-01T22:21:00,2025-04-01T22:22:00,2.00
14,Mediterranean,2025-04-02T10:42:00,2025-04-02T10:42:00,1.00
14,Mediterranean,2025-04-02T22:21:00,2025-04-02T22:22:00,2.00
14,Mediterranean,2025-04-03T10:41:00,2025-04-03T10:42:00,2.00
14,Mediterranean,2025-04-04T10:40:00,2025-04-04T10:42:00,3.00
14,Mediterranean,2025-04-05T10:40:00,2025-04-05T10:42:00,3.00
14,Mediterranean,2025-04-06T10:40:00,2025-04-06T10:41:00,2.00
14,Mediterranean,2025-04-07T10:40:00,2025-04-07T10:41:00,2.00
14,Mediterranean,2025-04-08T20:42:00,2025-04-08T20:43:00,2.00
14,Mediterranean,2025-04-09T20:41:00,2025-04-09T20:43:00,3.00
14,Mediterranean,2025-04-10T20:41:00,2025-04-10T20:43:00,3.00
14,Mediterranean,2025-04-11T20:41:00,2025-04-11T20:42:00,2.00
14,Mediterranean,2025-04-12T20:40:00,2025-04-12T20:42:00,3.00
15,Mediterranean,2025-03-30T22:12:00,2025-03-30T22:13:00,2.00
15,Mediterranean,2025-03-31T22:11:00,2025-03-31T22:13:00,3.00
15,Mediterranean,2025-04-01T22:11:00,2025-04-01T22:13:00,3.00
15,Mediterranean,2025-04-02T22:11:00,2025-04-02T22:12:00,2.00
15,Mediterranean,2025-04-03T10:32:00,2025-04-03T10:32:00,1.00
15,Mediterranean,2025-04-03T22:11:00,2025-04-03T22:12:00,2.00
15,Mediterranean,2025-04-04T10:31:00,2025-04-04T10:32:00,2.00
15,Mediterranean,2025-04-05T10:30:00,2025-04-05T10:32:00,3.00
15,Mediterranean,2025-04-06T10:30:00,2025-04-06T10:32:00,3.00
15,Mediterranean,2025-04-07T10:30:00,2025-04-07T10:31:00,2.00
15,Mediterranean,2025-04-08T10:29:00,2025-04-08T10:31:00,3.00
15,Mediterranean,2025-04-09T10:30:00,2025-04-09T10:30:00,1.00
15,Mediterranean,2025-04-09T20:32:00,2025-04-09T20:33:00,2.00
15,Mediterranean,2025-04-10T20:31:00,2025-04-10T20:33:00,3.00
15,Mediterranean,2025-04-11T20:31:00,2025-04-11T20:33:00,3.00
15,Mediterranean,2025-04-12T20:31:00,2025-04-12T20:32:00,2.00
16,Mediterranean,2025-03-30T12:00:00,2025-03-30T12:00:00,1.00
16,Mediterranean,2025-03-30T22:03:00,2025-03-30T22:03:00,1.00
16,Mediterranean,2025-03-31T22:02:00,2025-03-31T22:03:00,2.00
16,Mediterranean,2025-04-01T22:01:00,2025-04-01T22:03:00,3.00
16,Mediterranean,2025-04-02T22:01:00,2025-04-02T22:03:00,3.00
16,Mediterranean,2025-04-03T22:01:00,2025-04-03T22:02:00,2.00
16,Mediterranean,2025-04-04T22:01:00,2025-04-04T22:02:00,2.00
16,Mediterranean,2025-04-05T10:21:00,2025-04-05T10:22:00,2.00
16,Mediterranean,2025-04-06T10:20:00,2025-04-06T10:22:00,3.00
16,Mediterranean,2025-04-07T10:20:00,2025-04-07T10:22:00,3.00
16,Mediterranean,2025-04-08T10:19:00,2025-04-08T10:21:00,3.00
16,Mediterranean,2025-04-09T10:19:00,2025-04-09T10:21:00,3.00
16,Mediterranean,2025-04-10T10:20:00,2025-04-10T10:20:00,1.00
16,Mediterranean,2025-04-10T20:22:00,2025-04-10T20:23:00,2.00
16,Mediterranean,2025-04-11T20:21:00,2025-04-11T20:23:00,3.00
16,Mediterranean,2025-04-12T20:21:00,2025-04-12T20:23:00,3.00
17,Mediterranean,2025-03-30T11:50:00,2025-03-30T11:51:00,2.00
17,Mediterranean,2025-03-31T11:50:00,2025-03-31T11:50:00,1.00
17,Mediterranean,2025-03-31T21:53:00,2025-03-31T21:53:00,1.00
17,Mediterranean,2025-04-01T21:52:00,2025-04-01T21:53:00,2.00
17,Mediterranean,2025-04-02T21:51:00,2025-04-02T21:53:00,3.00
17,Mediterranean,2025-04-03T21:51:00,2025-04-03T21:53:00,3.00
17,Mediterranean,2025-04-04T21:51:00,2025-04-04T21:52:00,2.00
17,Mediterranean,2025-04-05T21:51:00,2025-04-05T21:52:00,2.00
17,Mediterranean,2025-04-06T10:11:00,2025-04-06T10:12:00,2.00
17,Mediterranean,2025-04-07T10:10:00,2025-04-07T10:12:00,3.00
17,Mediterranean,2025-04-08T10:10:00,2025-04-08T10:12:00,3.00
17,Mediterranean,2025-04-09T10:09:00,2025-04-09T10:11:00,3.00
17,Mediterranean,2025-04-10T10:09:00,2025-04-10T10:11:00,3.00
17,Mediterranean,2025-04-11T10:10:00,2025-04-11T10:10:00,1.00
17,Mediterranean,2025-04-11T20:12:00,2025-04-11T20:12:00,1.00
17,Mediterranean,2025-04-12T20:11:00,2025-04-12T20:13:00,3.00
18,Mediterranean,2025-03-30T11:40:00,2025-03-30T11:42:00,3.00
18,Mediterranean,2025-03-31T11:40:00,2025-03-31T11:41:00,2.00
18,Mediterranean,2025-04-01T11:40:00,2025-04-01T11:40:00,1.00
18,Mediterranean,2025-04-01T21:43:00,2025-04-01T21:43:00,1.00
18,Mediterranean,2025-04-02T21:42:00,2025-04-02T21:43:00,2.00
18,Mediterranean,2025-04-03T21:41:00,2025-04-03T21:43:00,3.00
18,Mediterranean,2025-04-04T21:41:00,2025-04-04T21:43:00,3.00
18,Mediterranean,2025-04-05T21:41:00,2025-04-05T21:42:00,2.00
18,Mediterranean,2025-04-06T21:41:00,2025-04-06T21:42:00,2.00
18,Mediterranean,2025-04-07T10:01:00,2025-04-07T10:02:00,2.00
18,Mediterranean,2025-04-07T21:41:00,2025-04-07T21:41:00,1.00
18,Mediterranean,2025-04-08T10:00:00,2025-04-08T10:02:00,3.00
18,Mediterranean,2025-04-09T10:00:00,2025-04-09T10:02:00,3.00
18,Mediterranean,2025-04-10T09:59:00,2025-04-10T10:01:00,3.00
18,Mediterranean,2025-04-11T09:59:00,2025-04-11T10:01:00,3.00
18,Mediterranean,2025-04-12T09:59:00,2025-04-12T10:00:00,2.00
19,Mediterranean,2025-03-30T11:30:00,2025-03-30T11:32:00,3.00
19,Mediterranean,2025-03-31T11:30:00,2025-03-31T11:32:00,3.00
19,Mediterranean,2025-04-01T11:30:00,2025-04-01T11:31:00,2.00
19,Mediterranean,2025-04-02T11:30:00,2025-04-02T11:30:00,1.00
19,Mediterranean,2025-04-02T21:33:00,2025-04-02T21:33:00,1.00
19,Mediterranean,2025-04-03T21:32:00,2025-04-03T21:33:00,2.00
19,Mediterranean,2025-04-04T21:31:00,2025-04-04T21:33:00,3.00
19,Mediterranean,2025-04-05T21:31:00,2025-04-05T21:33:00,3.00
19,Mediterranean,2025-04-06T21:31:00,2025-04-06T21:32:00,2.00
19,Mediterranean,2025-04-07T21:31:00,2025-04-07T21:32:00,2.00
19,Mediterranean,2025-04-08T09:51:00,2025-04-08T09:52:00,2.00
19,Mediterranean,2025-04-08T21:31:00,2025-04-08T21:31:00,1.00
19,Mediterranean,2025-04-09T09:50:00,2025-04-09T09:52:00,3.00
19,Mediterranean,2025-04-10T09:50:00,2025-04-10T09:52:00,3.00
19,Mediterranean,2025-04-11T09:49:00,2025-04-11T09:51:00,3.00
19,Mediterranean,2025-04-12T09:49:00,2025-04-12T09:51:00,3.00
20,Mediterranean,2025-03-30T12:57:00,2025-03-30T12:58:00,2.00
20,Mediterranean,2025-03-30T22:58:00,2025-03-30T23:00:00,3.00
20,Mediterranean,2025-03-31T12:56:00,2025-03-31T12:57:00,2.00
20,Mediterranean,2025-03-31T22:58:00,2025-03-31T23:00:00,3.00
20,Mediterranean,2025-04-01T12:55:00,2025-04-01T12:57:00,3.00
20,Mediterranean,2025-04-01T22:58:00,2025-04-01T22:58:00,1.00
20,Mediterranean,2025-04-02T12:55:00,2025-04-02T12:56:00,2.00
20,Mediterranean,2025-04-05T21:17:00,2025-04-05T21:19:00,3.00
20,Mediterranean,2025-04-06T11:15:00,2025-04-06T11:15:00,1.00
20,Mediterranean,2025-04-06T21:16:00,2025-04-06T21:18:00,3.00
20,Mediterranean,2025-04-07T11:14:00,2025-04-07T11:15:00,2.00
20,Mediterranean,2025-04-07T21:16:00,2025-04-07T21:18:00,3.00
20,Mediterranean,2025-04-08T11:13:00,2025-04-08T11:15:00,3.00
20,Mediterranean,2025-04-08T21:16:00,2025-04-08T21:17:00,2.00
20,Mediterranean,2025-04-09T11:13:00,2025-04-09T11:14:00,2.00
20,Mediterranean,2025-04-10T11:13:00,2025-04-10T11:13:00,1.00
20,Mediterranean,2025-04-12T19:36:00,2025-04-12T19:36:00,1.00
21,Mediterranean,2025-03-30T22:49:00,2025-03-30T22:50:00,2.00
21,Mediterranean,2025-03-31T12:46:00,2025-03-31T12:47:00,2.00
21,Mediterranean,2025-03-31T22:48:00,2025-03-31T22:50:00,3.00
21,Mediterranean,2025-04-01T12:45:00,2025-04-01T12:47:00,3.00
21,Mediterranean,2025-04-01T22:48:00,2025-04-01T22:49:00,2.00
21,Mediterranean,2025-04-02T12:45:00,2025-04-02T12:46:00,2.00
21,Mediterranean,2025-04-03T12:45:00,2025-04-03T12:45:00,1.00
21,Mediterranean,2025-04-05T21:08:00,2025-04-05T21:08:00,1.00
21,Mediterranean,2025-04-06T21:07:00,2025-04-06T21:08:00,2.00
21,Mediterranean,2025-04-07T11:04:00,2025-04-07T11:05:00,2.00
21,Mediterranean,2025-04-07T21:06:00,2025-04-07T21:08:00,3.00
21,Mediterranean,2025-04-08T11:03:00,2025-04-08T11:05:00,3.00
21,Mediterranean,2025-04-08T21:06:00,2025-04-08T21:07:00,2.00
21,Mediterranean,2025-04-09T11:03:00,2025-04-09T11:05:00,3.00
21,Mediterranean,2025-04-09T21:06:00,2025-04-09T21:06:00,1.00
21,Mediterranean,2025-04-10T11:03:00,2025-04-10T11:04:00,2.00
22,Mediterranean,2025-03-30T22:39:00,2025-03-30T22:40:00,2.00
22,Mediterranean,2025-03-31T12:37:00,2025-03-31T12:37:00,1.00
22,Mediterranean,2025-03-31T22:38:00,2025-03-31T22:40:00,3.00
22,Mediterranean,2025-04-01T12:36:00,2025-04-01T12:37:00,2.00
22,Mediterranean,2025-04-01T22:38:00,2025-04-01T22:40:00,3.00
22,Mediterranean,2025-04-02T12:35:00,2025-04-02T12:37:00,3.00
22,Mediterranean,2025-04-02T22:37:00,2025-04-02T22:39:00,3.00
22,Mediterranean,2025-04-03T12:34:00,2025-04-03T12:36:00,3.00
22,Mediterranean,2025-04-04T12:35:00,2025-04-04T12:35:00,1.00
22,Mediterranean,2025-04-06T20:57:00,2025-04-06T20:58:00,2.00
22,Mediterranean,2025-04-07T20:56:00,2025-04-07T20:58:00,3.00
22,Mediterranean,2025-04-08T10:54:00,2025-04-08T10:55:00,2.00
22,Mediterranean,2025-04-08T20:56:00,2025-04-08T20:58:00,3.00
22,Mediterranean,2025-04-09T10:53:00,2025-04-09T10:55:00,3.00
22,Mediterranean,2025-04-09T20:55:00,2025-04-09T20:57:00,3.00
22,Mediterranean,2025-04-10T10:52:00,2025-04-10T10:54:00,3.00
22,Mediterranean,2025-04-11T10:52:00,2025-04-11T10:53:00,2.00
23,Mediterranean,2025-03-30T22:30:00,2025-03-30T22:30:00,1.00
23,Mediterranean,2025-03-31T22:29:00,2025-03-31T22:30:00,2.00
23,Mediterranean,2025-04-01T12:26:00,2025-04-01T12:27:00,2.00
23,Mediterranean,2025-04-01T22:28:00,2025-04-01T22:30:00,3.00
23,Mediterranean,2025-04-02T12:25:00,2025-04-02T12:27:00,3.00
23,Mediterranean,2025-04-02T22:27:00,2025-04-02T22:29:00,3.00
23,Mediterranean,2025-04-03T12:24:00,2025-04-03T12:26:00,3.00
23,Mediterranean,2025-04-03T22:27:00,2025-04-03T22:28:00,2.00
23,Mediterranean,2025-04-04T12:24:00,2025-04-04T12:26:00,3.00
23,Mediterranean,2025-04-07T20:47:00,2025-04-07T20:48:00,2.00
23,Mediterranean,2025-04-08T10:45:00,2025-04-08T10:45:00,1.00
23,Mediterranean,2025-04-08T20:46:00,2025-04-08T20:48:00,3.00
23,Mediterranean,2025-04-09T10:43:00,2025-04-09T10:45:00,3.00
23,Mediterranean,2025-04-09T20:45:00,2025-04-09T20:47:00,3.00
23,Mediterranean,2025-04-10T10:43:00,2025-04-10T10:44:00,2.00
23,Mediterranean,2025-04-10T20:45:00,2025-04-10T20:46:00,2.00
23,Mediterranean,2025-04-11T10:42:00,2025-04-11T10:44:00,3.00
23,Mediterranean,2025-04-12T10:42:00,2025-04-12T10:43:00,2.00
24,Mediterranean,2025-03-31T22:19:00,2025-03-31T22:20:00,2.00
24,Mediterranean,2025-04-01T22:18:00,2025-04-01T22:20:00,3.00
24,Mediterranean,2025-04-02T12:16:00,2025-04-02T12:17:00,2.00
24,Mediterranean,2025-04-02T22:18:00,2025-04-02T22:19:00,2.00
24,Mediterranean,2025-04-03T12:15:00,2025-04-03T12:17:00,3.00
24,Mediterranean,2025-04-03T22:17:00,2025-04-03T22:19:00,3.00
24,Mediterranean,2025-04-04T12:14:00,2025-04-04T12:16:00,3.00
24,Mediterranean,2025-04-04T22:17:00,2025-04-04T22:17:00,1.00
24,Mediterranean,2025-04-05T12:14:00,2025-04-05T12:15:00,2.00
24,Mediterranean,2025-04-08T20:36:00,2025-04-08T20:38:00,3.00
24,Mediterranean,2025-04-09T10:34:00,2025-04-09T10:35:00,2.00
24,Mediterranean,2025-04-09T20:36:00,2025-04-09T20:37:00,2.00
24,Mediterranean,2025-04-10T10:33:00,2025-04-10T10:35:00,3.00
24,Mediterranean,2025-04-10T20:35:00,2025-04-10T20:37:00,3.00
24,Mediterranean,2025-04-11T10:32:00,2025-04-11T10:34:00,3.00
24,Mediterranean,2025-04-11T20:35:00,2025-04-11T20:36:00,2.00
24,Mediterranean,2025-04-12T10:32:00,2025-04-12T10:33:00,2.00
25,Mediterranean,2025-03-30T13:46:00,2025-03-30T13:46:00,1.00
25,Mediterranean,2025-04-01T22:09:00,2025-04-01T22:10:00,2.00
25,Mediterranean,2025-04-02T22:08:00,2025-04-02T22:10:00,3.00
25,Mediterranean,2025-04-03T12:05:00,2025-04-03T12:07:00,3.00
25,Mediterranean,2025-04-03T22:07:00,2025-04-03T22:09:00,3.00
25,Mediterranean,2025-04-04T12:04:00,2025-04-04T12:06:00,3.00
25,Mediterranean,2025-04-04T22:07:00,2025-04-04T22:08:00,2.00
25,Mediterranean,2025-04-05T12:04:00,2025-04-05T12:06:00,3.00
25,Mediterranean,2025-04-06T12:04:00,2025-04-06T12:04:00,1.00
25,Mediterranean,2025-04-08T20:27:00,2025-04-08T20:27:00,1.00
25,Mediterranean,2025-04-09T20:26:00,2025-04-09T20:28:00,3.00
25,Mediterranean,2025-04-10T10:23:00,2025-04-10T10:24:00,2.00
25,Mediterranean,2025-04-10T20:25:00,2025-04-10T20:27:00,3.00
25,Mediterranean,2025-04-11T10:22:00,2025-04-11T10:24:00,3.00
25,Mediterranean,2025-04-11T20:25:00,2025-04-11T20:26:00,2.00
25,Mediterranean,2025-04-12T10:22:00,2025-04-12T10:24:00,3.00
25,Mediterranean,2025-04-12T20:25:00,2025-04-12T20:25:00,1.00
26,Mediterranean,2025-03-30T13:36:00,2025-03-30T13:37:00,2.00
26,Mediterranean,2025-04-02T21:58:00,2025-04-02T21:59:00,2.00
26,Mediterranean,2025-04-03T11:56:00,2025-04-03T11:56:00,1.00
26,Mediterranean,2025-04-03T21:57:00,2025-04-03T21:59:00,3.00
26,Mediterranean,2025-04-04T11:55:00,2025-04-04T11:56:00,2.00
26,Mediterranean,2025-04-04T21:57:00,2025-04-04T21:59:00,3.00
26,Mediterranean,2025-04-05T11:54:00,2025-04-05T11:56:00,3.00
26,Mediterranean,2025-04-05T21:57:00,2025-04-05T21:58:00,2.00
26,Mediterranean,2025-04-06T11:54:00,2025-04-06T11:55:00,2.00
26,Mediterranean,2025-04-07T11:54:00,2025-04-07T11:54:00,1.00
26,Mediterranean,2025-04-09T20:16:00,2025-04-09T20:17:00,2.00
26,Mediterranean,2025-04-10T20:15:00,2025-04-10T20:17:00,3.00
26,Mediterranean,2025-04-11T10:13:00,2025-04-11T10:14:00,2.00
26,Mediterranean,2025-04-11T20:15:00,2025-04-11T20:17:00,3.00
26,Mediterranean,2025-04-12T10:12:00,2025-04-12T10:14:00,3.00
26,Mediterranean,2025-04-12T20:15:00,2025-04-12T20:16:00,2.00
27,Mediterranean,2025-03-30T13:26:00,2025-03-30T13:27:00,2.00
27,Mediterranean,2025-03-31T13:26:00,2025-03-31T13:26:00,1.00
27,Mediterranean,2025-04-02T21:49:00,2025-04-02T21:49:00,1.00
27,Mediterranean,2025-04-03T21:48:00,2025-04-03T21:49:00,2.00
27,Mediterranean,2025-04-04T11:45:00,2025-04-04T11:46:00,2.00
27,Mediterranean,2025-04-04T21:47:00,2025-04-04T21:49:00,3.00
27,Mediterranean,2025-04-05T11:44:00,2025-04-05T11:46:00,3.00
27,Mediterranean,2025-04-05T21:47:00,2025-04-05T21:48:00,2.00
27,Mediterranean,2025-04-06T11:44:00,2025-04-06T11:45:00,2.00
27,Mediterranean,2025-04-06T21:47:00,2025-04-06T21:47:00,1.00
27,Mediterranean,2025-04-07T11:43:00,2025-04-07T11:45:00,3.00
27,Mediterranean,2025-04-10T20:06:00,2025-04-10T20:07:00,2.00
27,Mediterranean,2025-04-11T10:04:00,2025-04-11T10:04:00,1.00
27,Mediterranean,2025-04-11T20:05:00,2025-04-11T20:07:00,3.00
27,Mediterranean,2025-04-12T10:02:00,2025-04-12T10:04:00,3.00
27,Mediterranean,2025-04-12T20:05:00,2025-04-12T20:06:00,2.00
28,Mediterranean,2025-03-30T13:16:00,2025-03-30T13:18:00,3.00
28,Mediterranean,2025-03-30T23:18:00,2025-03-30T23:19:00,2.00
28,Mediterranean,2025-03-31T13:15:00,2025-03-31T13:17:00,3.00
28,Mediterranean,2025-04-01T13:15:00,2025-04-01T13:16:00,2.00
28,Mediterranean,2025-04-03T21:38:00,2025-04-03T21:39:00,2.00
28,Mediterranean,2025-04-04T21:37:00,2025-04-04T21:39:00,3.00
28,Mediterranean,2025-04-05T11:35:00,2025-04-05T11:36:00,2.00
28,Mediterranean,2025-04-05T21:37:00,2025-04-05T21:39:00,3.00
28,Mediterranean,2025-04-06T11:34:00,2025-04-06T11:36:00,3.00
28,Mediterranean,2025-04-06T21:36:00,2025-04-06T21:38:00,3.00
28,Mediterranean,2025-04-07T11:33:00,2025-04-07T11:35:00,3.00
28,Mediterranean,2025-04-08T11:33:00,2025-04-08T11:34:00,2.00
28,Mediterranean,2025-04-10T19:57:00,2025-04-10T19:57:00,1.00
28,Mediterranean,2025-04-11T19:55:00,2025-04-11T19:57:00,3.00
28,Mediterranean,2025-04-12T09:53:00,2025-04-12T09:54:00,2.00
28,Mediterranean,2025-04-12T19:55:00,2025-04-12T19:57:00,3.00
29,Mediterranean,2025-03-30T13:06:00,2025-03-30T13:08:00,3.00
29,Mediterranean,2025-03-30T23:08:00,2025-03-30T23:10:00,3.00
29,Mediterranean,2025-03-31T13:05:00,2025-03-31T13:07:00,3.00
29,Mediterranean,2025-03-31T23:08:00,2025-03-31T23:09:00,2.00
29,Mediterranean,2025-04-01T13:05:00,2025-04-01T13:06:00,2.00
29,Mediterranean,2025-04-04T21:28:00,2025-04-04T21:29:00,2.00
29,Mediterranean,2025-04-05T11:26:00,2025-04-05T11:26:00,1.00
29,Mediterranean,2025-04-05T21:27:00,2025-04-05T21:29:00,3.00
29,Mediterranean,2025-04-06T11:24:00,2025-04-06T11:26:00,3.00
29,Mediterranean,2025-04-06T21:26:00,2025-04-06T21:28:00,3.00
29,Mediterranean,2025-04-07T11:23:00,2025-04-07T11:25:00,3.00
29,Mediterranean,2025-04-07T21:26:00,2025-04-07T21:27:00,2.00
29,Mediterranean,2025-04-08T11:23:00,2025-04-08T11:25:00,3.00
29,Mediterranean,2025-04-09T11:23:00,2025-04-09T11:23:00,1.00
29,Mediterranean,2025-04-11T19:46:00,2025-04-11T19:47:00,2.00
29,Mediterranean,2025-04-12T19:45:00,2025-04-12T19:47:00,3.00
30,Mediterranean,2025-03-30T00:35:00,2025-03-30T00:37:00,3.00
30,Mediterranean,2025-03-30T14:32:00,2025-03-30T14:34:00,3.00
30,Mediterranean,2025-03-31T00:35:00,2025-03-31T00:36:00,2.00
30,Mediterranean,2025-03-31T14:32:00,2025-03-31T14:33:00,2.00
30,Mediterranean,2025-04-03T22:54:00,2025-04-03T22:56:00,3.00
30,Mediterranean,2025-04-04T12:52:00,2025-04-04T12:52:00,1.00
30,Mediterranean,2025-04-04T22:54:00,2025-04-04T22:55:00,2.00
30,Mediterranean,2025-04-05T12:51:00,2025-04-05T12:52:00,2.00
30,Mediterranean,2025-04-05T22:53:00,2025-04-05T22:55:00,3.00
30,Mediterranean,2025-04-06T12:50:00,2025-04-06T12:52:00,3.00
30,Mediterranean,2025-04-06T22:53:00,2025-04-06T22:54:00,2.00
30,Mediterranean,2025-04-07T12:50:00,2025-04-07T12:51:00,2.00
30,Mediterranean,2025-04-08T12:50:00,2025-04-08T12:50:00,1.00
30,Mediterranean,2025-04-10T21:13:00,2025-04-10T21:13:00,1.00
30,Mediterranean,2025-04-11T21:12:00,2025-04-11T21:13:00,2.00
30,Mediterranean,2025-04-12T11:09:00,2025-04-12T11:10:00,2.00
30,Mediterranean,2025-04-12T21:11:00,2025-04-12T21:13:00,3.00
31,Mediterranean,2025-03-30T00:25:00,2025-03-30T00:27:00,3.00
31,Mediterranean,2025-03-30T14:22:00,2025-03-30T14:24:00,3.00
31,Mediterranean,2025-03-31T00:25:00,2025-03-31T00:26:00,2.00
31,Mediterranean,2025-03-31T14:22:00,2025-03-31T14:24:00,3.00
31,Mediterranean,2025-04-01T00:25:00,2025-04-01T00:25:00,1.00
31,Mediterranean,2025-04-01T14:22:00,2025-04-01T14:23:00,2.00
31,Mediterranean,2025-04-03T22:45:00,2025-04-03T22:45:00,1.00
31,Mediterranean,2025-04-04T22:44:00,2025-04-04T22:45:00,2.00
31,Mediterranean,2025-04-05T12:41:00,2025-04-05T12:42:00,2.00
31,Mediterranean,2025-04-05T22:43:00,2025-04-05T22:45:00,3.00
31,Mediterranean,2025-04-06T12:40:00,2025-04-06T12:42:00,3.00
31,Mediterranean,2025-04-06T22:43:00,2025-04-06T22:44:00,2.00
31,Mediterranean,2025-04-07T12:40:00,2025-04-07T12:42:00,3.00
31,Mediterranean,2025-04-07T22:43:00,2025-04-07T22:43:00,1.00
31,Mediterranean,2025-04-08T12:40:00,2025-04-08T12:41:00,2.00
31,Mediterranean,2025-04-11T21:02:00,2025-04-11T21:03:00,2.00
31,Mediterranean,2025-04-12T11:00:00,2025-04-12T11:00:00,1.00
31,Mediterranean,2025-04-12T21:01:00,2025-04-12T21:03:00,3.00
32,Mediterranean,2025-03-30T00:15:00,2025-03-30T00:17:00,3.00
32,Mediterranean,2025-03-30T14:13:00,2025-03-30T14:14:00,2.00
32,Mediterranean,2025-03-31T00:15:00,2025-03-31T00:17:00,3.00
32,Mediterranean,2025-03-31T14:12:00,2025-03-31T14:14:00,3.00
32,Mediterranean,2025-04-01T00:15:00,2025-04-01T00:16:00,2.00
32,Mediterranean,2025-04-01T14:12:00,2025-04-01T14:13:00,2.00
32,Mediterranean,2025-04-02T14:12:00,2025-04-02T14:12:00,1.00
32,Mediterranean,2025-04-04T22:35:00,2025-04-04T22:35:00,1.00
32,Mediterranean,2025-04-05T22:34:00,2025-04-05T22:35:00,2.00
32,Mediterranean,2025-04-06T12:31:00,2025-04-06T12:32:00,2.00
32,Mediterranean,2025-04-06T22:33:00,2025-04-06T22:35:00,3.00
32,Mediterranean,2025-04-07T12:30:00,2025-04-07T12:32:00,3.00
32,Mediterranean,2025-04-07T22:32:00,2025-04-07T22:34:00,3.00
32,Mediterranean,2025-04-08T12:29:00,2025-04-08T12:31:00,3.00
32,Mediterranean,2025-04-08T22:33:00,2025-04-08T22:33:00,1.00
32,Mediterranean,2025-04-09T12:29:00,2025-04-09T12:30:00,2.00
32,Mediterranean,2025-04-12T20:52:00,2025-04-12T20:53:00,2.00
33,Mediterranean,2025-03-30T00:06:00,2025-03-30T00:07:00,2.00
33,Mediterranean,2025-03-30T14:03:00,2025-03-30T14:04:00,2.00
33,Mediterranean,2025-03-31T00:05:00,2025-03-31T00:07:00,3.00
33,Mediterranean,2025-03-31T14:02:00,2025-03-31T14:04:00,3.00
33,Mediterranean,2025-04-01T00:04:00,2025-04-01T00:06:00,3.00
33,Mediterranean,2025-04-01T14:02:00,2025-04-01T14:03:00,2.00
33,Mediterranean,2025-04-02T00:04:00,2025-04-02T00:05:00,2.00
33,Mediterranean,2025-04-02T14:01:00,2025-04-02T14:03:00,3.00
33,Mediterranean,2025-04-05T22:24:00,2025-04-05T22:25:00,2.00
33,Mediterranean,2025-04-06T12:22:00,2025-04-06T12:22:00,1.00
33,Mediterranean,2025-04-06T22:23:00,2025-04-06T22:25:00,3.00
33,Mediterranean,2025-04-07T12:20:00,2025-04-07T12:22:00,3.00
33,Mediterranean,2025-04-07T22:22:00,2025-04-07T22:24:00,3.00
33,Mediterranean,2025-04-08T12:20:00,2025-04-08T12:22:00,3.00
33,Mediterranean,2025-04-08T22:22:00,2025-04-08T22:23:00,2.00
33,Mediterranean,2025-04-09T12:19:00,2025-04-09T12:21:00,3.00
33,Mediterranean,2025-04-10T12:19:00,2025-04-10T12:20:00,2.00
33,Mediterranean,2025-04-12T20:42:00,2025-04-12T20:43:00,2.00
34,Mediterranean,2025-03-30T23:55:00,2025-03-30T23:57:00,3.00
34,Mediterranean,2025-03-31T13:53:00,2025-03-31T13:54:00,2.00
34,Mediterranean,2025-03-31T23:55:00,2025-03-31T23:57:00,3.00
34,Mediterranean,2025-04-01T13:52:00,2025-04-01T13:54:00,3.00
34,Mediterranean,2025-04-01T23:54:00,2025-04-01T23:56:00,3.00
34,Mediterranean,2025-04-02T13:51:00,2025-04-02T13:53:00,3.00
34,Mediterranean,2025-04-02T23:54:00,2025-04-02T23:55:00,2.00
34,Mediterranean,2025-04-03T13:51:00,2025-04-03T13:52:00,2.00
34,Mediterranean,2025-04-06T22:14:00,2025-04-06T22:15:00,2.00
34,Mediterranean,2025-04-07T12:11:00,2025-04-07T12:12:00,2.00
34,Mediterranean,2025-04-07T22:13:00,2025-04-07T22:15:00,3.00
34,Mediterranean,2025-04-08T12:10:00,2025-04-08T12:12:00,3.00
34,Mediterranean,2025-04-08T22:12:00,2025-04-08T22:14:00,3.00
34,Mediterranean,2025-04-09T12:09:00,2025-04-09T12:11:00,3.00
34,Mediterranean,2025-04-09T22:12:00,2025-04-09T22:13:00,2.00
34,Mediterranean,2025-04-10T12:09:00,2025-04-10T12:10:00,2.00
34,Mediterranean,2025-04-11T12:09:00,2025-04-11T12:09:00,1.00
35,Mediterranean,2025-03-30T23:46:00,2025-03-30T23:47:00,2.00
35,Mediterranean,2025-03-31T23:45:00,2025-03-31T23:47:00,3.00
35,Mediterranean,2025-04-01T13:42:00,2025-04-01T13:44:00,3.00
35,Mediterranean,2025-04-01T23:44:00,2025-04-01T23:46:00,3.00
35,Mediterranean,2025-04-02T13:41:00,2025-04-02T13:43:00,3.00
35,Mediterranean,2025-04-02T23:44:00,2025-04-02T23:45:00,2.00
35,Mediterranean,2025-04-03T13:41:00,2025-04-03T13:43:00,3.00
35,Mediterranean,2025-04-04T13:41:00,2025-04-04T13:42:00,2.00
35,Mediterranean,2025-04-06T22:04:00,2025-04-06T22:04:00,1.00
35,Mediterranean,2025-04-07T22:03:00,2025-04-07T22:05:00,3.00
35,Mediterranean,2025-04-08T12:01:00,2025-04-08T12:01:00,1.00
35,Mediterranean,2025-04-08T22:02:00,2025-04-08T22:04:00,3.00
35,Mediterranean,2025-04-09T12:00:00,2025-04-09T12:01:00,2.00
35,Mediterranean,2025-04-09T22:02:00,2025-04-09T22:04:00,3.00
35,Mediterranean,2025-04-10T11:59:00,2025-04-10T12:01:00,3.00
35,Mediterranean,2025-04-10T22:02:00,2025-04-10T22:02:00,1.00
35,Mediterranean,2025-04-11T11:59:00,2025-04-11T12:00:00,2.00
36,Mediterranean,2025-03-31T23:35:00,2025-03-31T23:36:00,2.00
36,Mediterranean,2025-04-01T13:33:00,2025-04-01T13:33:00,1.00
36,Mediterranean,2025-04-01T23:35:00,2025-04-01T23:36:00,2.00
36,Mediterranean,2025-04-02T13:32:00,2025-04-02T13:33:00,2.00
36,Mediterranean,2025-04-02T23:34:00,2025-04-02T23:36:00,3.00
36,Mediterranean,2025-04-03T13:31:00,2025-04-03T13:33:00,3.00
36,Mediterranean,2025-04-03T23:34:00,2025-04-03T23:35:00,2.00
36,Mediterranean,2025-04-04T13:31:00,2025-04-04T13:32:00,2.00
36,Mediterranean,2025-04-05T13:31:00,2025-04-05T13:31:00,1.00
36,Mediterranean,2025-04-07T21:54:00,2025-04-07T21:54:00,1.00
36,Mediterranean,2025-04-08T21:53:00,2025-04-08T21:54:00,2.00
36,Mediterranean,2025-04-09T11:50:00,2025-04-09T11:51:00,2.00
36,Mediterranean,2025-04-09T21:52:00,2025-04-09T21:54:00,3.00
36,Mediterranean,2025-04-10T11:49:00,2025-04-10T11:51:00,3.00
36,Mediterranean,2025-04-10T21:52:00,2025-04-10T21:53:00,2.00
36,Mediterranean,2025-04-11T11:49:00,2025-04-11T11:50:00,2.00
36,Mediterranean,2025-04-11T21:52:00,2025-04-11T21:52:00,1.00
36,Mediterranean,2025-04-12T11:48:00,2025-04-12T11:49:00,2.00
37,Mediterranean,2025-04-01T23:25:00,2025-04-01T23:26:00,2.00
37,Mediterranean,2025-04-02T13:22:00,2025-04-02T13:23:00,2.00
37,Mediterranean,2025-04-02T23:24:00,2025-04-02T23:26:00,3.00
37,Mediterranean,2025-04-03T13:21:00,2025-04-03T13:23:00,3.00
37,Mediterranean,2025-04-03T23:24:00,2025-04-03T23:25:00,2.00
37,Mediterranean,2025-04-04T13:21:00,2025-04-04T13:23:00,3.00
37,Mediterranean,2025-04-04T23:23:00,2025-04-04T23:24:00,2.00
37,Mediterranean,2025-04-05T13:20:00,2025-04-05T13:22:00,3.00
37,Mediterranean,2025-04-08T21:43:00,2025-04-08T21:44:00,2.00
37,Mediterranean,2025-04-09T11:41:00,2025-04-09T11:41:00,1.00
37,Mediterranean,2025-04-09T21:42:00,2025-04-09T21:44:00,3.00
37,Mediterranean,2025-04-10T11:40:00,2025-04-10T11:41:00,2.00
37,Mediterranean,2025-04-10T21:42:00,2025-04-10T21:43:00,2.00
37,Mediterranean,2025-04-11T11:39:00,2025-04-11T11:41:00,3.00
37,Mediterranean,2025-04-11T21:41:00,2025-04-11T21:43:00,3.00
37,Mediterranean,2025-04-12T11:38:00,2025-04-12T11:40:00,3.00
38,Mediterranean,2025-03-30T14:52:00,2025-03-30T14:53:00,2.00
38,Mediterranean,2025-04-01T23:16:00,2025-04-01T23:16:00,1.00
38,Mediterranean,2025-04-02T23:14:00,2025-04-02T23:16:00,3.00
38,Mediterranean,2025-04-03T13:12:00,2025-04-03T13:13:00,2.00
38,Mediterranean,2025-04-03T23:14:00,2025-04-03T23:16:00,3.00
38,Mediterranean,2025-04-04T13:11:00,2025-04-04T13:13:00,3.00
38,Mediterranean,2025-04-04T23:13:00,2025-04-04T23:15:00,3.00
38,Mediterranean,2025-04-05T13:10:00,2025-04-05T13:12:00,3.00
38,Mediterranean,2025-04-05T23:13:00,2025-04-05T23:14:00,2.00
38,Mediterranean,2025-04-06T13:10:00,2025-04-06T13:11:00,2.00
38,Mediterranean,2025-04-09T21:33:00,2025-04-09T21:34:00,2.00
38,Mediterranean,2025-04-10T11:30:00,2025-04-10T11:31:00,2.00
38,Mediterranean,2025-04-10T21:32:00,2025-04-10T21:34:00,3.00
38,Mediterranean,2025-04-11T11:29:00,2025-04-11T11:31:00,3.00
38,Mediterranean,2025-04-11T21:31:00,2025-04-11T21:33:00,3.00
38,Mediterranean,2025-04-12T11:28:00,2025-04-12T11:30:00,3.00
38,Mediterranean,2025-04-12T21:31:00,2025-04-12T21:32:00,2.00
39,Mediterranean,2025-03-30T00:45:00,2025-03-30T00:46:00,2.00
39,Mediterranean,2025-03-30T14:42:00,2025-03-30T14:44:00,3.00
39,Mediterranean,2025-03-31T14:42:00,2025-03-31T14:42:00,1.00
39,Mediterranean,2025-04-02T23:05:00,2025-04-02T23:06:00,2.00
39,Mediterranean,2025-04-03T23:04:00,2025-04-03T23:06:00,3.00
39,Mediterranean,2025-04-04T13:01:00,2025-04-04T13:03:00,3.00
39,Mediterranean,2025-04-04T23:03:00,2025-04-04T23:05:00,3.00
39,Mediterranean,2025-04-05T13:01:00,2025-04-05T13:02:00,2.00
39,Mediterranean,2025-04-05T23:03:00,2025-04-05T23:04:00,2.00
39,Mediterranean,2025-04-06T13:00:00,2025-04-06T13:02:00,3.00
39,Mediterranean,2025-04-07T13:00:00,2025-04-07T13:01:00,2.00
39,Mediterranean,2025-04-09T21:23:00,2025-04-09T21:23:00,1.00
39,Mediterranean,2025-04-10T21:22:00,2025-04-10T21:24:00,3.00
39,Mediterranean,2025-04-11T11:20:00,2025-04-11T11:21:00,2.00
39,Mediterranean,2025-04-11T21:21:00,2025-04-11T21:23:00,3.00
39,Mediterranean,2025-04-12T11:19:00,2025-04-12T11:20:00,2.00
39,Mediterranean,2025-04-12T21:21:00,2025-04-12T21:23:00,3.00
40,Mediterranean,2025-03-30T16:09:00,2025-03-30T16:09:00,1.00
40,Mediterranean,2025-04-02T00:32:00,2025-04-02T00:33:00,2.00
40,Mediterranean,2025-04-03T00:31:00,2025-04-03T00:33:00,3.00
40,Mediterranean,2025-04-03T14:28:00,2025-04-03T14:30:00,3.00
40,Mediterranean,2025-04-04T00:30:00,2025-04-04T00:32:00,3.00
40,Mediterranean,2025-04-04T14:27:00,2025-04-04T14:29:00,3.00
40,Mediterranean,2025-04-05T00:30:00,2025-04-05T00:31:00,2.00
40,Mediterranean,2025-04-05T14:27:00,2025-04-05T14:28:00,2.00
40,Mediterranean,2025-04-06T14:27:00,2025-04-06T14:27:00,1.00
40,Mediterranean,2025-04-08T22:50:00,2025-04-08T22:50:00,1.00
40,Mediterranean,2025-04-09T22:49:00,2025-04-09T22:50:00,2.00
40,Mediterranean,2025-04-10T12:46:00,2025-04-10T12:47:00,2.00
40,Mediterranean,2025-04-10T22:48:00,2025-04-10T22:50:00,3.00
40,Mediterranean,2025-04-11T12:45:00,2025-04-11T12:47:00,3.00
40,Mediterranean,2025-04-11T22:48:00,2025-04-11T22:49:00,2.00
40,Mediterranean,2025-04-12T12:45:00,2025-04-12T12:47:00,3.00
40,Mediterranean,2025-04-12T22:48:00,2025-04-12T22:48:00,1.00
41,Mediterranean,2025-03-30T02:02:00,2025-03-30T02:02:00,1.00
41,Mediterranean,2025-03-30T15:59:00,2025-03-30T16:00:00,2.00
41,Mediterranean,2025-04-03T00:21:00,2025-04-03T00:22:00,2.00
41,Mediterranean,2025-04-03T14:19:00,2025-04-03T14:19:00,1.00
41,Mediterranean,2025-04-04T00:20:00,2025-04-04T00:22:00,3.00
41,Mediterranean,2025-04-04T14:18:00,2025-04-04T14:19:00,2.00
41,Mediterranean,2025-04-05T00:20:00,2025-04-05T00:22:00,3.00
41,Mediterranean,2025-04-05T14:17:00,2025-04-05T14:19:00,3.00
41,Mediterranean,2025-04-06T00:20:00,2025-04-06T00:21:00,2.00
41,Mediterranean,2025-04-06T14:17:00,2025-04-06T14:18:00,2.00
41,Mediterranean,2025-04-07T14:17:00,2025-04-07T14:17:00,1.00
41,Mediterranean,2025-04-09T22:39:00,2025-04-09T22:40:00,2.00
41,Mediterranean,2025-04-10T12:37:00,2025-04-10T12:37:00,1.00
41,Mediterranean,2025-04-10T22:38:00,2025-04-10T22:40:00,3.00
41,Mediterranean,2025-04-11T12:36:00,2025-04-11T12:37:00,2.00
41,Mediterranean,2025-04-11T22:38:00,2025-04-11T22:40:00,3.00
41,Mediterranean,2025-04-12T12:35:00,2025-04-12T12:37:00,3.00
41,Mediterranean,2025-04-12T22:38:00,2025-04-12T22:39:00,2.00
42,Mediterranean,2025-03-30T01:52:00,2025-03-30T01:53:00,2.00
42,Mediterranean,2025-03-30T15:49:00,2025-03-30T15:50:00,2.00
42,Mediterranean,2025-03-31T15:49:00,2025-03-31T15:49:00,1.00
42,Mediterranean,2025-04-03T00:12:00,2025-04-03T00:12:00,1.00
42,Mediterranean,2025-04-04T00:11:00,2025-04-04T00:12:00,2.00
42,Mediterranean,2025-04-04T14:08:00,2025-04-04T14:09:00,2.00
42,Mediterranean,2025-04-05T00:10:00,2025-04-05T00:12:00,3.00
42,Mediterranean,2025-04-05T14:07:00,2025-04-05T14:09:00,3.00
42,Mediterranean,2025-04-06T00:10:00,2025-04-06T00:11:00,2.00
42,Mediterranean,2025-04-06T14:07:00,2025-04-06T14:08:00,2.00
42,Mediterranean,2025-04-07T00:10:00,2025-04-07T00:10:00,1.00
42,Mediterranean,2025-04-07T14:06:00,2025-04-07T14:08:00,3.00
42,Mediterranean,2025-04-10T22:29:00,2025-04-10T22:30:00,2.00
42,Mediterranean,2025-04-11T12:27:00,2025-04-11T12:27:00,1.00
42,Mediterranean,2025-04-11T22:28:00,2025-04-11T22:30:00,3.00
42,Mediterranean,2025-04-12T12:25:00,2025-04-12T12:27:00,3.00
42,Mediterranean,2025-04-12T22:27:00,2025-04-12T22:29:00,3.00
43,Mediterranean,2025-03-30T01:42:00,2025-03-30T01:43:00,2.00
43,Mediterranean,2025-03-30T15:39:00,2025-03-30T15:41:00,3.00
43,Mediterranean,2025-03-31T01:41:00,2025-03-31T01:42:00,2.00
43,Mediterranean,2025-03-31T15:38:00,2025-03-31T15:40:00,3.00
43,Mediterranean,2025-04-01T15:38:00,2025-04-01T15:39:00,2.00
43,Mediterranean,2025-04-04T00:01:00,2025-04-04T00:02:00,2.00
43,Mediterranean,2025-04-05T00:00:00,2025-04-05T00:02:00,3.00
43,Mediterranean,2025-04-05T13:58:00,2025-04-05T13:59:00,2.00
43,Mediterranean,2025-04-06T00:00:00,2025-04-06T00:01:00,2.00
43,Mediterranean,2025-04-06T13:57:00,2025-04-06T13:59:00,3.00
43,Mediterranean,2025-04-06T23:59:00,2025-04-07T00:01:00,3.00
43,Mediterranean,2025-04-07T13:56:00,2025-04-07T13:58:00,3.00
43,Mediterranean,2025-04-08T13:56:00,2025-04-08T13:57:00,2.00
43,Mediterranean,2025-04-10T22:20:00,2025-04-10T22:20:00,1.00
43,Mediterranean,2025-04-11T22:18:00,2025-04-11T22:20:00,3.00
43,Mediterranean,2025-04-12T12:16:00,2025-04-12T12:17:00,2.00
43,Mediterranean,2025-04-12T22:18:00,2025-04-12T22:20:00,3.00
44,Mediterranean,2025-03-30T01:32:00,2025-03-30T01:34:00,3.00
44,Mediterranean,2025-03-30T15:29:00,2025-03-30T15:31:00,3.00
44,Mediterranean,2025-03-31T01:31:00,2025-03-31T01:33:00,3.00
44,Mediterranean,2025-03-31T15:28:00,2025-03-31T15:30:00,3.00
44,Mediterranean,2025-04-01T01:31:00,2025-04-01T01:32:00,2.00
44,Mediterranean,2025-04-01T15:28:00,2025-04-01T15:29:00,2.00
44,Mediterranean,2025-04-04T23:51:00,2025-04-04T23:52:00,2.00
44,Mediterranean,2025-04-05T13:48:00,2025-04-05T13:49:00,2.00
44,Mediterranean,2025-04-05T23:50:00,2025-04-05T23:52:00,3.00
44,Mediterranean,2025-04-06T13:47:00,2025-04-06T13:49:00,3.00
44,Mediterranean,2025-04-06T23:49:00,2025-04-06T23:51:00,3.00
44,Mediterranean,2025-04-07T13:46:00,2025-04-07T13:48:00,3.00
44,Mediterranean,2025-04-07T23:49:00,2025-04-07T23:50:00,2.00
44,Mediterranean,2025-04-08T13:46:00,2025-04-08T13:48:00,3.00
44,Mediterranean,2025-04-09T13:46:00,2025-04-09T13:46:00,1.00
44,Mediterranean,2025-04-11T22:09:00,2025-04-11T22:10:00,2.00
44,Mediterranean,2025-04-12T22:08:00,2025-04-12T22:10:00,3.00
45,Mediterranean,2025-03-30T01:22:00,2025-03-30T01:24:00,3.00
45,Mediterranean,2025-03-30T15:19:00,2025-03-30T15:21:00,3.00
45,Mediterranean,2025-03-31T01:21:00,2025-03-31T01:23:00,3.00
45,Mediterranean,2025-03-31T15:19:00,2025-03-31T15:20:00,2.00
45,Mediterranean,2025-04-01T01:21:00,2025-04-01T01:23:00,3.00
45,Mediterranean,2025-04-01T15:18:00,2025-04-01T15:20:00,3.00
45,Mediterranean,2025-04-02T01:21:00,2025-04-02T01:21:00,1.00
45,Mediterranean,2025-04-02T15:18:00,2025-04-02T15:19:00,2.00
45,Mediterranean,2025-04-05T23:40:00,2025-04-05T23:42:00,3.00
45,Mediterranean,2025-04-06T13:38:00,2025-04-06T13:38:00,1.00
45,Mediterranean,2025-04-06T23:39:00,2025-04-06T23:41:00,3.00
45,Mediterranean,2025-04-07T13:37:00,2025-04-07T13:38:00,2.00
45,Mediterranean,2025-04-07T23:39:00,2025-04-07T23:41:00,3.00
45,Mediterranean,2025-04-08T13:36:00,2025-04-08T13:38:00,3.00
45,Mediterranean,2025-04-08T23:39:00,2025-04-08T23:40:00,2.00
45,Mediterranean,2025-04-09T13:36:00,2025-04-09T13:37:00,2.00
45,Mediterranean,2025-04-12T21:58:00,2025-04-12T21:59:00,2.00
46,Mediterranean,2025-03-30T01:13:00,2025-03-30T01:13:00,1.00
46,Mediterranean,2025-03-31T01:12:00,2025-03-31T01:13:00,2.00
46,Mediterranean,2025-03-31T15:09:00,2025-03-31T15:10:00,2.00
46,Mediterranean,2025-04-01T01:11:00,2025-04-01T01:13:00,3.00
46,Mediterranean,2025-04-01T15:08:00,2025-04-01T15:10:00,3.00
46,Mediterranean,2025-04-02T01:11:00,2025-04-02T01:12:00,2.00
46,Mediterranean,2025-04-02T15:08:00,2025-04-02T15:09:00,2.00
46,Mediterranean,2025-04-03T15:08:00,2025-04-03T15:08:00,1.00
46,Mediterranean,2025-04-05T23:31:00,2025-04-05T23:31:00,1.00
46,Mediterranean,2025-04-06T23:30:00,2025-04-06T23:31:00,2.00
46,Mediterranean,2025-04-07T13:27:00,2025-04-07T13:28:00,2.00
46,Mediterranean,2025-04-07T23:29:00,2025-04-07T23:31:00,3.00
46,Mediterranean,2025-04-08T13:26:00,2025-04-08T13:28:00,3.00
46,Mediterranean,2025-04-08T23:29:00,2025-04-08T23:30:00,2.00
46,Mediterranean,2025-04-09T13:26:00,2025-04-09T13:28:00,3.00
46,Mediterranean,2025-04-09T23:29:00,2025-04-09T23:29:00,1.00
46,Mediterranean,2025-04-10T13:25:00,2025-04-10T13:27:00,3.00
47,Mediterranean,2025-03-31T01:02:00,2025-03-31T01:03:00,2.00
47,Mediterranean,2025-03-31T15:00:00,2025-03-31T15:00:00,1.00
47,Mediterranean,2025-04-01T01:01:00,2025-04-01T01:03:00,3.00
47,Mediterranean,2025-04-01T14:58:00,2025-04-01T15:00:00,3.00
47,Mediterranean,2025-04-02T01:01:00,2025-04-02T01:02:00,2.00
47,Mediterranean,2025-04-02T14:58:00,2025-04-02T15:00:00,3.00
47,Mediterranean,2025-04-03T01:00:00,2025-04-03T01:01:00,2.00
47,Mediterranean,2025-04-03T14:57:00,2025-04-03T14:59:00,3.00
47,Mediterranean,2025-04-04T14:58:00,2025-04-04T14:58:00,1.00
47,Mediterranean,2025-04-06T23:20:00,2025-04-06T23:21:00,2.00
47,Mediterranean,2025-04-07T23:19:00,2025-04-07T23:21:00,3.00
47,Mediterranean,2025-04-08T13:17:00,2025-04-08T13:18:00,2.00
47,Mediterranean,2025-04-08T23:19:00,2025-04-08T23:21:00,3.00
47,Mediterranean,2025-04-09T13:16:00,2025-04-09T13:18:00,3.00
47,Mediterranean,2025-04-09T23:18:00,2025-04-09T23:20:00,3.00
47,Mediterranean,2025-04-10T13:15:00,2025-04-10T13:17:00,3.00
47,Mediterranean,2025-04-11T13:15:00,2025-04-11T13:16:00,2.00
48,Mediterranean,2025-03-31T00:53:00,2025-03-31T00:53:00,1.00
48,Mediterranean,2025-04-01T00:52:00,2025-04-01T00:53:00,2.00
48,Mediterranean,2025-04-01T14:49:00,2025-04-01T14:50:00,2.00
48,Mediterranean,2025-04-02T00:51:00,2025-04-02T00:53:00,3.00
48,Mediterranean,2025-04-02T14:48:00,2025-04-02T14:50:00,3.00
48,Mediterranean,2025-04-03T00:50:00,2025-04-03T00:52:00,3.00
48,Mediterranean,2025-04-03T14:47:00,2025-04-03T14:49:00,3.00
48,Mediterranean,2025-04-04T00:50:00,2025-04-04T00:51:00,2.00
48,Mediterranean,2025-04-04T14:47:00,2025-04-04T14:48:00,2.00
48,Mediterranean,2025-04-07T23:10:00,2025-04-07T23:11:00,2.00
48,Mediterranean,2025-04-08T13:07:00,2025-04-08T13:08:00,2.00
48,Mediterranean,2025-04-08T23:09:00,2025-04-08T23:11:00,3.00
48,Mediterranean,2025-04-09T13:06:00,2025-04-09T13:08:00,3.00
48,Mediterranean,2025-04-09T23:08:00,2025-04-09T23:10:00,3.00
48,Mediterranean,2025-04-10T13:05:00,2025-04-10T13:07:00,3.00
48,Mediterranean,2025-04-10T23:08:00,2025-04-10T23:09:00,2.00
48,Mediterranean,2025-04-11T13:05:00,2025-04-11T13:07:00,3.00
48,Mediterranean,2025-04-12T13:05:00,2025-04-12T13:05:00,1.00
49,Mediterranean,2025-04-01T00:42:00,2025-04-01T00:43:00,2.00
49,Mediterranean,2025-04-02T00:41:00,2025-04-02T00:43:00,3.00
49,Mediterranean,2025-04-02T14:39:00,2025-04-02T14:40:00,2.00
49,Mediterranean,2025-04-03T00:40:00,2025-04-03T00:42:00,3.00
49,Mediterranean,2025-04-03T14:38:00,2025-04-03T14:39:00,2.00
49,Mediterranean,2025-04-04T00:40:00,2025-04-04T00:42:00,3.00
49,Mediterranean,2025-04-04T14:37:00,2025-04-04T14:39:00,3.00
49,Mediterranean,2025-04-05T00:40:00,2025-04-05T00:40:00,1.00
49,Mediterranean,2025-04-05T14:37:00,2025-04-05T14:38:00,2.00
49,Mediterranean,2025-04-08T22:59:00,2025-04-08T23:01:00,3.00
49,Mediterranean,2025-04-09T12:57:00,2025-04-09T12:58:00,2.00
49,Mediterranean,2025-04-09T22:59:00,2025-04-09T23:00:00,2.00
49,Mediterranean,2025-04-10T12:56:00,2025-04-10T12:58:00,3.00
49,Mediterranean,2025-04-10T22:58:00,2025-04-10T23:00:00,3.00
49,Mediterranean,2025-04-11T12:55:00,2025-04-11T12:57:00,3.00
49,Mediterranean,2025-04-11T22:58:00,2025-04-11T22:59:00,2.00
49,Mediterranean,2025-04-12T12:55:00,2025-04-12T12:56:00,2.00
50,Mediterranean,2025-03-31T02:09:00,2025-03-31T02:10:00,2.00
50,Mediterranean,2025-04-01T02:08:00,2025-04-01T02:10:00,3.00
50,Mediterranean,2025-04-01T16:05:00,2025-04-01T16:07:00,3.00
50,Mediterranean,2025-04-02T02:07:00,2025-04-02T02:09:00,3.00
50,Mediterranean,2025-04-02T16:04:00,2025-04-02T16:06:00,3.00
50,Mediterranean,2025-04-03T02:07:00,2025-04-03T02:08:00,2.00
50,Mediterranean,2025-04-03T16:04:00,2025-04-03T16:06:00,3.00
50,Mediterranean,2025-04-04T16:04:00,2025-04-04T16:05:00,2.00
50,Mediterranean,2025-04-07T00:27:00,2025-04-07T00:27:00,1.00
50,Mediterranean,2025-04-08T00:26:00,2025-04-08T00:28:00,3.00
50,Mediterranean,2025-04-08T14:23:00,2025-04-08T14:24:00,2.00
50,Mediterranean,2025-04-09T00:25:00,2025-04-09T00:27:00,3.00
50,Mediterranean,2025-04-09T14:22:00,2025-04-09T14:24:00,3.00
50,Mediterranean,2025-04-10T00:25:00,2025-04-10T00:26:00,2.00
50,Mediterranean,2025-04-10T14:22:00,2025-04-10T14:24:00,3.00
50,Mediterranean,2025-04-11T00:25:00,2025-04-11T00:25:00,1.00
50,Mediterranean,2025-04-11T14:22:00,2025-04-11T14:23:00,2.00
51,Mediterranean,2025-04-01T01:58:00,2025-04-01T01:59:00,2.00
51,Mediterranean,2025-04-01T15:56:00,2025-04-01T15:56:00,1.00
51,Mediterranean,2025-04-02T01:57:00,2025-04-02T01:59:00,3.00
51,Mediterranean,2025-04-02T15:55:00,2025-04-02T15:56:00,2.00
51,Mediterranean,2025-04-03T01:57:00,2025-04-03T01:59:00,3.00
51,Mediterranean,2025-04-03T15:54:00,2025-04-03T15:56:00,3.00
51,Mediterranean,2025-04-04T01:57:00,2025-04-04T01:58:00,2.00
51,Mediterranean,2025-04-04T15:54:00,2025-04-04T15:55:00,2.00
51,Mediterranean,2025-04-05T15:54:00,2025-04-05T15:54:00,1.00
51,Mediterranean,2025-04-08T00:17:00,2025-04-08T00:17:00,1.00
51,Mediterranean,2025-04-09T00:16:00,2025-04-09T00:17:00,2.00
51,Mediterranean,2025-04-09T14:13:00,2025-04-09T14:14:00,2.00
51,Mediterranean,2025-04-10T00:15:00,2025-04-10T00:17:00,3.00
51,Mediterranean,2025-04-10T14:12:00,2025-04-10T14:14:00,3.00
51,Mediterranean,2025-04-11T00:15:00,2025-04-11T00:16:00,2.00
51,Mediterranean,2025-04-11T14:12:00,2025-04-11T14:13:00,2.00
51,Mediterranean,2025-04-12T14:11:00,2025-04-12T14:12:00,2.00
52,Mediterranean,2025-04-02T01:48:00,2025-04-02T01:49:00,2.00
52,Mediterranean,2025-04-02T15:45:00,2025-04-02T15:46:00,2.00
52,Mediterranean,2025-04-03T01:47:00,2025-04-03T01:49:00,3.00
52,Mediterranean,2025-04-03T15:44:00,2025-04-03T15:46:00,3.00
52,Mediterranean,2025-04-04T01:47:00,2025-04-04T01:48:00,2.00
52,Mediterranean,2025-04-04T15:44:00,2025-04-04T15:46:00,3.00
52,Mediterranean,2025-04-05T01:46:00,2025-04-05T01:47:00,2.00
52,Mediterranean,2025-04-05T15:43:00,2025-04-05T15:45:00,3.00
52,Mediterranean,2025-04-09T00:06:00,2025-04-09T00:07:00,2.00
52,Mediterranean,2025-04-09T14:04:00,2025-04-09T14:04:00,1.00
52,Mediterranean,2025-04-10T00:05:00,2025-04-10T00:07:00,3.00
52,Mediterranean,2025-04-10T14:02:00,2025-04-10T14:04:00,3.00
52,Mediterranean,2025-04-11T00:05:00,2025-04-11T00:06:00,2.00
52,Mediterranean,2025-04-11T14:02:00,2025-04-11T14:04:00,3.00
52,Mediterranean,2025-04-12T00:04:00,2025-04-12T00:06:00,3.00
52,Mediterranean,2025-04-12T14:01:00,2025-04-12T14:03:00,3.00
53,Mediterranean,2025-03-30T17:15:00,2025-03-30T17:16:00,2.00
53,Mediterranean,2025-04-02T01:39:00,2025-04-02T01:39:00,1.00
53,Mediterranean,2025-04-03T01:37:00,2025-04-03T01:39:00,3.00
53,Mediterranean,2025-04-03T15:35:00,2025-04-03T15:36:00,2.00
53,Mediterranean,2025-04-04T01:37:00,2025-04-04T01:39:00,3.00
53,Mediterranean,2025-04-04T15:34:00,2025-04-04T15:36:00,3.00
53,Mediterranean,2025-04-05T01:36:00,2025-04-05T01:38:00,3.00
53,Mediterranean,2025-04-05T15:33:00,2025-04-05T15:35:00,3.00
53,Mediterranean,2025-04-06T01:36:00,2025-04-06T01:37:00,2.00
53,Mediterranean,2025-04-06T15:33:00,2025-04-06T15:34:00,2.00
53,Mediterranean,2025-04-09T23:56:00,2025-04-09T23:57:00,2.00
53,Mediterranean,2025-04-10T13:53:00,2025-04-10T13:54:00,2.00
53,Mediterranean,2025-04-10T23:55:00,2025-04-10T23:57:00,3.00
53,Mediterranean,2025-04-11T13:52:00,2025-04-11T13:54:00,3.00
53,Mediterranean,2025-04-11T23:54:00,2025-04-11T23:56:00,3.00
53,Mediterranean,2025-04-12T13:51:00,2025-04-12T13:53:00,3.00
53,Mediterranean,2025-04-12T23:54:00,2025-04-12T23:55:00,2.00
54,Mediterranean,2025-03-30T03:08:00,2025-03-30T03:09:00,2.00
54,Mediterranean,2025-03-30T17:05:00,2025-03-30T17:07:00,3.00
54,Mediterranean,2025-03-31T17:05:00,2025-03-31T17:05:00,1.00
54,Mediterranean,2025-04-03T01:28:00,2025-04-03T01:29:00,2.00
54,Mediterranean,2025-04-04T01:27:00,2025-04-04T01:29:00,3.00
54,Mediterranean,2025-04-04T15:24:00,2025-04-04T15:26:00,3.00
54,Mediterranean,2025-04-05T01:26:00,2025-04-05T01:28:00,3.00
54,Mediterranean,2025-04-05T15:23:00,2025-04-05T15:25:00,3.00
54,Mediterranean,2025-04-06T01:26:00,2025-04-06T01:27:00,2.00
54,Mediterranean,2025-04-06T15:23:00,2025-04-06T15:25:00,3.00
54,Mediterranean,2025-04-07T15:23:00,2025-04-07T15:24:00,2.00
54,Mediterranean,2025-04-09T23:46:00,2025-04-09T23:46:00,1.00
54,Mediterranean,2025-04-10T23:45:00,2025-04-10T23:47:00,3.00
54,Mediterranean,2025-04-11T13:43:00,2025-04-11T13:44:00,2.00
54,Mediterranean,2025-04-11T23:44:00,2025-04-11T23:46:00,3.00
54,Mediterranean,2025-04-12T13:42:00,2025-04-12T13:43:00,2.00
54,Mediterranean,2025-04-12T23:44:00,2025-04-12T23:46:00,3.00
55,Mediterranean,2025-03-30T02:58:00,2025-03-30T03:00:00,3.00
55,Mediterranean,2025-03-30T16:55:00,2025-03-30T16:57:00,3.00
55,Mediterranean,2025-03-31T02:58:00,2025-03-31T02:58:00,1.00
55,Mediterranean,2025-03-31T16:55:00,2025-03-31T16:56:00,2.00
55,Mediterranean,2025-04-04T01:17:00,2025-04-04T01:19:00,3.00
55,Mediterranean,2025-04-04T15:15:00,2025-04-04T15:15:00,1.00
55,Mediterranean,2025-04-05T01:17:00,2025-04-05T01:18:00,2.00
55,Mediterranean,2025-04-05T15:14:00,2025-04-05T15:15:00,2.00
55,Mediterranean,2025-04-06T01:16:00,2025-04-06T01:18:00,3.00
55,Mediterranean,2025-04-06T15:13:00,2025-04-06T15:15:00,3.00
55,Mediterranean,2025-04-07T01:16:00,2025-04-07T01:17:00,2.00
55,Mediterranean,2025-04-07T15:13:00,2025-04-07T15:14:00,2.00
55,Mediterranean,2025-04-08T15:13:00,2025-04-08T15:13:00,1.00
55,Mediterranean,2025-04-10T23:36:00,2025-04-10T23:36:00,1.00
55,Mediterranean,2025-04-11T23:35:00,2025-04-11T23:36:00,2.00
55,Mediterranean,2025-04-12T13:32:00,2025-04-12T13:33:00,2.00
55,Mediterranean,2025-04-12T23:34:00,2025-04-12T23:36:00,3.00
56,Mediterranean,2025-03-30T02:48:00,2025-03-30T02:50:00,3.00
56,Mediterranean,2025-03-30T16:45:00,2025-03-30T16:47:00,3.00
56,Mediterranean,2025-03-31T02:48:00,2025-03-31T02:49:00,2.00
56,Mediterranean,2025-03-31T16:45:00,2025-03-31T16:47:00,3.00
56,Mediterranean,2025-04-01T02:48:00,2025-04-01T02:48:00,1.00
56,Mediterranean,2025-04-01T16:45:00,2025-04-01T16:46:00,2.00
56,Mediterranean,2025-04-04T01:08:00,2025-04-04T01:08:00,1.00
56,Mediterranean,2025-04-05T01:07:00,2025-04-05T01:08:00,2.00
56,Mediterranean,2025-04-05T15:04:00,2025-04-05T15:05:00,2.00
56,Mediterranean,2025-04-06T01:06:00,2025-04-06T01:08:00,3.00
56,Mediterranean,2025-04-06T15:03:00,2025-04-06T15:05:00,3.00
56,Mediterranean,2025-04-07T01:06:00,2025-04-07T01:07:00,2.00
56,Mediterranean,2025-04-07T15:03:00,2025-04-07T15:05:00,3.00
56,Mediterranean,2025-04-08T01:06:00,2025-04-08T01:06:00,1.00
56,Mediterranean,2025-04-08T15:03:00,2025-04-08T15:04:00,2.00
56,Mediterranean,2025-04-11T23:25:00,2025-04-11T23:26:00,2.00
56,Mediterranean,2025-04-12T13:23:00,2025-04-12T13:23:00,1.00
56,Mediterranean,2025-04-12T23:24:00,2025-04-12T23:26:00,3.00
57,Mediterranean,2025-03-30T02:38:00,2025-03-30T02:40:00,3.00
57,Mediterranean,2025-03-30T16:36:00,2025-03-30T16:37:00,2.00
57,Mediterranean,2025-03-31T02:38:00,2025-03-31T02:40:00,3.00
57,Mediterranean,2025-03-31T16:35:00,2025-03-31T16:37:00,3.00
57,Mediterranean,2025-04-01T02:37:00,2025-04-01T02:39:00,3.00
57,Mediterranean,2025-04-01T16:34:00,2025-04-01T16:36:00,3.00
57,Mediterranean,2025-04-02T16:35:00,2025-04-02T16:35:00,1.00
57,Mediterranean,2025-04-05T00:58:00,2025-04-05T00:58:00,1.00
57,Mediterranean,2025-04-06T00:56:00,2025-04-06T00:58:00,3.00
57,Mediterranean,2025-04-06T14:54:00,2025-04-06T14:55:00,2.00
57,Mediterranean,2025-04-07T00:56:00,2025-04-07T00:58:00,3.00
57,Mediterranean,2025-04-07T14:53:00,2025-04-07T14:55:00,3.00
57,Mediterranean,2025-04-08T00:55:00,2025-04-08T00:57:00,3.00
57,Mediterranean,2025-04-08T14:52:00,2025-04-08T14:54:00,3.00
57,Mediterranean,2025-04-09T14:52:00,2025-04-09T14:53:00,2.00
