comm_windows_Patagonia.csv

sat_id,ground_station,window_start,window_end,duration_min
0,Patagonia,2025-03-30T18:10:00,2025-03-30T18:10:00,1.00
0,Patagonia,2025-04-01T06:36:00,2025-04-01T06:37:00,2.00
0,Patagonia,2025-04-02T06:36:00,2025-04-02T06:37:00,2.00
0,Patagonia,2025-04-03T06:35:00,2025-04-03T06:37:00,3.00
0,Patagonia,2025-04-03T16:32:00,2025-04-03T16:32:00,1.00
0,Patagonia,2025-04-04T06:35:00,2025-04-04T06:37:00,3.00
0,Patagonia,2025-04-04T16:31:00,2025-04-04T16:32:00,2.00
0,Patagonia,2025-04-05T06:34:00,2025-04-05T06:36:00,3.00
0,Patagonia,2025-04-05T16:30:00,2025-04-05T16:32:00,3.00
0,Patagonia,2025-04-06T06:34:00,2025-04-06T06:36:00,3.00
0,Patagonia,2025-04-06T16:30:00,2025-04-06T16:32:00,3.00
0,Patagonia,2025-04-07T06:34:00,2025-04-07T06:35:00,2.00
0,Patagonia,2025-04-07T16:30:00,2025-04-07T16:31:00,2.00
0,Patagonia,2025-04-08T06:34:00,2025-04-08T06:35:00,2.00
0,Patagonia,2025-04-08T16:29:00,2025-04-08T16:31:00,3.00
0,Patagonia,2025-04-09T16:29:00,2025-04-09T16:31:00,3.00
0,Patagonia,2025-04-10T16:29:00,2025-04-10T16:30:00,2.00
0,Patagonia,2025-04-12T04:56:00,2025-04-12T04:56:00,1.00
1,Patagonia,2025-03-30T18:00:00,2025-03-30T18:01:00,2.00
1,Patagonia,2025-03-31T18:00:00,2025-03-31T18:00:00,1.00
1,Patagonia,2025-04-02T06:27:00,2025-04-02T06:27:00,1.00
1,Patagonia,2025-04-03T06:26:00,2025-04-03T06:27:00,2.00
1,Patagonia,2025-04-04T06:25:00,2025-04-04T06:27:00,3.00
1,Patagonia,2025-04-04T16:22:00,2025-04-04T16:22:00,1.00
1,Patagonia,2025-04-05T06:25:00,2025-04-05T06:27:00,3.00
1,Patagonia,2025-04-05T16:21:00,2025-04-05T16:22:00,2.00
1,Patagonia,2025-04-06T06:24:00,2025-04-06T06:26:00,3.00
1,Patagonia,2025-04-06T16:20:00,2025-04-06T16:22:00,3.00
1,Patagonia,2025-04-07T06:24:00,2025-04-07T06:26:00,3.00
1,Patagonia,2025-04-07T16:20:00,2025-04-07T16:22:00,3.00
1,Patagonia,2025-04-08T06:24:00,2025-04-08T06:25:00,2.00
1,Patagonia,2025-04-08T16:20:00,2025-04-08T16:21:00,2.00
1,Patagonia,2025-04-09T06:24:00,2025-04-09T06:25:00,2.00
1,Patagonia,2025-04-09T16:19:00,2025-04-09T16:21:00,3.00
1,Patagonia,2025-04-10T16:19:00,2025-04-10T16:21:00,3.00
1,Patagonia,2025-04-11T16:19:00,2025-04-11T16:20:00,2.00
2,Patagonia,2025-03-30T07:55:00,2025-03-30T07:55:00,1.00
2,Patagonia,2025-03-30T17:50:00,2025-03-30T17:52:00,3.00
2,Patagonia,2025-03-31T17:50:00,2025-03-31T17:51:00,2.00
2,Patagonia,2025-04-01T17:50:00,2025-04-01T17:50:00,1.00
2,Patagonia,2025-04-03T06:17:00,2025-04-03T06:17:00,1.00
2,Patagonia,2025-04-04T06:16:00,2025-04-04T06:17:00,2.00
2,Patagonia,2025-04-05T06:15:00,2025-04-05T06:17:00,3.00
2,Patagonia,2025-04-05T16:12:00,2025-04-05T16:12:00,1.00
2,Patagonia,2025-04-06T06:15:00,2025-04-06T06:17:00,3.00
2,Patagonia,2025-04-06T16:11:00,2025-04-06T16:12:00,2.00
2,Patagonia,2025-04-07T06:14:00,2025-04-07T06:16:00,3.00
2,Patagonia,2025-04-07T16:10:00,2025-04-07T16:12:00,3.00
2,Patagonia,2025-04-08T06:14:00,2025-04-08T06:16:00,3.00
2,Patagonia,2025-04-08T16:10:00,2025-04-08T16:12:00,3.00
2,Patagonia,2025-04-09T06:14:00,2025-04-09T06:15:00,2.00
2,Patagonia,2025-04-09T16:10:00,2025-04-09T16:11:00,2.00
2,Patagonia,2025-04-10T06:14:00,2025-04-10T06:15:00,2.00
2,Patagonia,2025-04-10T16:09:00,2025-04-10T16:11:00,3.00
2,Patagonia,2025-04-11T16:09:00,2025-04-11T16:11:00,3.00
2,Patagonia,2025-04-12T16:09:00,2025-04-12T16:10:00,2.00
3,Patagonia,2025-03-30T07:44:00,2025-03-30T07:46:00,3.00
3,Patagonia,2025-03-30T17:40:00,2025-03-30T17:42:00,3.00
3,Patagonia,2025-03-31T07:45:00,2025-03-31T07:45:00,1.00
3,Patagonia,2025-03-31T17:40:00,2025-03-31T17:42:00,3.00
3,Patagonia,2025-04-01T17:40:00,2025-04-01T17:41:00,2.00
3,Patagonia,2025-04-02T17:40:00,2025-04-02T17:40:00,1.00
3,Patagonia,2025-04-04T06:07:00,2025-04-04T06:07:00,1.00
3,Patagonia,2025-04-05T06:06:00,2025-04-05T06:07:00,2.00
3,Patagonia,2025-04-06T06:05:00,2025-04-06T06:07:00,3.00
3,Patagonia,2025-04-07T06:05:00,2025-04-07T06:06:00,2.00
3,Patagonia,2025-04-07T16:01:00,2025-04-07T16:02:00,2.00
3,Patagonia,2025-04-08T06:04:00,2025-04-08T06:06:00,3.00
3,Patagonia,2025-04-08T16:00:00,2025-04-08T16:02:00,3.00
3,Patagonia,2025-04-09T06:04:00,2025-04-09T06:06:00,3.00
3,Patagonia,2025-04-09T16:00:00,2025-04-09T16:02:00,3.00
3,Patagonia,2025-04-10T06:04:00,2025-04-10T06:05:00,2.00
3,Patagonia,2025-04-10T16:00:00,2025-04-10T16:01:00,2.00
3,Patagonia,2025-04-11T06:04:00,2025-04-11T06:05:00,2.00
3,Patagonia,2025-04-11T15:59:00,2025-04-11T16:01:00,3.00
3,Patagonia,2025-04-12T15:59:00,2025-04-12T16:01:00,3.00
4,Patagonia,2025-03-30T07:35:00,2025-03-30T07:36:00,2.00
4,Patagonia,2025-03-30T17:30:00,2025-03-30T17:32:00,3.00
4,Patagonia,2025-03-31T07:34:00,2025-03-31T07:36:00,3.00
4,Patagonia,2025-03-31T17:30:00,2025-03-31T17:32:00,3.00
4,Patagonia,2025-04-01T07:34:00,2025-04-01T07:35:00,2.00
4,Patagonia,2025-04-01T17:30:00,2025-04-01T17:32:00,3.00
4,Patagonia,2025-04-02T17:30:00,2025-04-02T17:31:00,2.00
4,Patagonia,2025-04-03T17:30:00,2025-04-03T17:30:00,1.00
4,Patagonia,2025-04-06T05:56:00,2025-04-06T05:57:00,2.00
4,Patagonia,2025-04-07T05:55:00,2025-04-07T05:57:00,3.00
4,Patagonia,2025-04-08T05:55:00,2025-04-08T05:56:00,2.00
4,Patagonia,2025-04-08T15:51:00,2025-04-08T15:52:00,2.00
4,Patagonia,2025-04-09T05:54:00,2025-04-09T05:56:00,3.00
4,Patagonia,2025-04-09T15:50:00,2025-04-09T15:52:00,3.00
4,Patagonia,2025-04-10T05:54:00,2025-04-10T05:56:00,3.00
4,Patagonia,2025-04-10T15:50:00,2025-04-10T15:52:00,3.00
4,Patagonia,2025-04-11T05:54:00,2025-04-11T05:55:00,2.00
4,Patagonia,2025-04-11T15:50:00,2025-04-11T15:51:00,2.00
4,Patagonia,2025-04-12T05:54:00,2025-04-12T05:55:00,2.00
4,Patagonia,2025-04-12T15:49:00,2025-04-12T15:51:00,3.00
5,Patagonia,2025-03-30T07:25:00,2025-03-30T07:27:00,3.00
5,Patagonia,2025-03-30T17:21:00,2025-03-30T17:22:00,2.00
5,Patagonia,2025-03-31T07:25:00,2025-03-31T07:26:00,2.00
5,Patagonia,2025-03-31T17:20:00,2025-03-31T17:22:00,3.00
5,Patagonia,2025-04-01T07:24:00,2025-04-01T07:26:00,3.00
5,Patagonia,2025-04-01T17:20:00,2025-04-01T17:22:00,3.00
5,Patagonia,2025-04-02T07:24:00,2025-04-02T07:25:00,2.00
5,Patagonia,2025-04-02T17:20:00,2025-04-02T17:22:00,3.00
5,Patagonia,2025-04-03T17:20:00,2025-04-03T17:21:00,2.00
5,Patagonia,2025-04-04T17:19:00,2025-04-04T17:20:00,2.00
5,Patagonia,2025-04-07T05:46:00,2025-04-07T05:47:00,2.00
5,Patagonia,2025-04-08T05:45:00,2025-04-08T05:47:00,3.00
5,Patagonia,2025-04-09T05:45:00,2025-04-09T05:46:00,2.00
5,Patagonia,2025-04-09T15:41:00,2025-04-09T15:42:00,2.00
5,Patagonia,2025-04-10T05:44:00,2025-04-10T05:46:00,3.00
5,Patagonia,2025-04-10T15:40:00,2025-04-10T15:42:00,3.00
5,Patagonia,2025-04-11T05:44:00,2025-04-11T05:46:00,3.00
5,Patagonia,2025-04-11T15:40:00,2025-04-11T15:42:00,3.00
5,Patagonia,2025-04-12T05:44:00,2025-04-12T05:45:00,2.00
5,Patagonia,2025-04-12T15:39:00,2025-04-12T15:41:00,3.00
6,Patagonia,2025-03-30T07:15:00,2025-03-30T07:17:00,3.00
6,Patagonia,2025-03-30T17:12:00,2025-03-30T17:12:00,1.00
6,Patagonia,2025-03-31T07:15:00,2025-03-31T07:17:00,3.00
6,Patagonia,2025-03-31T17:11:00,2025-03-31T17:12:00,2.00
6,Patagonia,2025-04-01T07:15:00,2025-04-01T07:16:00,2.00
6,Patagonia,2025-04-01T17:10:00,2025-04-01T17:12:00,3.00
6,Patagonia,2025-04-02T07:14:00,2025-04-02T07:16:00,3.00
6,Patagonia,2025-04-02T17:10:00,2025-04-02T17:12:00,3.00
6,Patagonia,2025-04-03T07:14:00,2025-04-03T07:15:00,2.00
6,Patagonia,2025-04-03T17:10:00,2025-04-03T17:12:00,3.00
6,Patagonia,2025-04-04T17:09:00,2025-04-04T17:11:00,3.00
6,Patagonia,2025-04-05T17:09:00,2025-04-05T17:10:00,2.00
6,Patagonia,2025-04-06T17:10:00,2025-04-06T17:10:00,1.00
6,Patagonia,2025-04-08T05:36:00,2025-04-08T05:37:00,2.00
6,Patagonia,2025-04-09T05:35:00,2025-04-09T05:37:00,3.00
6,Patagonia,2025-04-10T05:35:00,2025-04-10T05:36:00,2.00
6,Patagonia,2025-04-10T15:31:00,2025-04-10T15:32:00,2.00
6,Patagonia,2025-04-11T05:34:00,2025-04-11T05:36:00,3.00
6,Patagonia,2025-04-11T15:30:00,2025-04-11T15:32:00,3.00
6,Patagonia,2025-04-12T05:34:00,2025-04-12T05:36:00,3.00
6,Patagonia,2025-04-12T15:30:00,2025-04-12T15:32:00,3.00
7,Patagonia,2025-03-30T07:06:00,2025-03-30T07:07:00,2.00
7,Patagonia,2025-03-31T07:05:00,2025-03-31T07:07:00,3.00
7,Patagonia,2025-03-31T17:02:00,2025-03-31T17:02:00,1.00
7,Patagonia,2025-04-01T07:05:00,2025-04-01T07:07:00,3.00
7,Patagonia,2025-04-01T17:01:00,2025-04-01T17:02:00,2.00
7,Patagonia,2025-04-02T07:04:00,2025-04-02T07:06:00,3.00
7,Patagonia,2025-04-02T17:00:00,2025-04-02T17:02:00,3.00
7,Patagonia,2025-04-03T07:04:00,2025-04-03T07:06:00,3.00
7,Patagonia,2025-04-03T17:00:00,2025-04-03T17:02:00,3.00
7,Patagonia,2025-04-04T07:04:00,2025-04-04T07:05:00,2.00
7,Patagonia,2025-04-04T17:00:00,2025-04-04T17:02:00,3.00
7,Patagonia,2025-04-05T16:59:00,2025-04-05T17:01:00,3.00
7,Patagonia,2025-04-06T16:59:00,2025-04-06T17:00:00,2.00
7,Patagonia,2025-04-07T16:59:00,2025-04-07T17:00:00,2.00
7,Patagonia,2025-04-09T05:26:00,2025-04-09T05:27:00,2.00
7,Patagonia,2025-04-10T05:25:00,2025-04-10T05:27:00,3.00
7,Patagonia,2025-04-11T05:25:00,2025-04-11T05:26:00,2.00
7,Patagonia,2025-04-11T15:21:00,2025-04-11T15:21:00,1.00
7,Patagonia,2025-04-12T05:24:00,2025-04-12T05:26:00,3.00
7,Patagonia,2025-04-12T15:20:00,2025-04-12T15:22:00,3.00
8,Patagonia,2025-03-30T06:56:00,2025-03-30T06:57:00,2.00
8,Patagonia,2025-03-31T06:56:00,2025-03-31T06:57:00,2.00
8,Patagonia,2025-04-01T06:55:00,2025-04-01T06:57:00,3.00
8,Patagonia,2025-04-01T16:52:00,2025-04-01T16:52:00,1.00
8,Patagonia,2025-04-02T06:55:00,2025-04-02T06:57:00,3.00
8,Patagonia,2025-04-02T16:51:00,2025-04-02T16:52:00,2.00
8,Patagonia,2025-04-03T06:54:00,2025-04-03T06:56:00,3.00
8,Patagonia,2025-04-03T16:50:00,2025-04-03T16:52:00,3.00
8,Patagonia,2025-04-04T06:54:00,2025-04-04T06:56:00,3.00
8,Patagonia,2025-04-04T16:50:00,2025-04-04T16:52:00,3.00
8,Patagonia,2025-04-05T06:54:00,2025-04-05T06:55:00,2.00
8,Patagonia,2025-04-05T16:50:00,2025-04-05T16:52:00,3.00
8,Patagonia,2025-04-06T06:54:00,2025-04-06T06:54:00,1.00
8,Patagonia,2025-04-06T16:49:00,2025-04-06T16:51:00,3.00
8,Patagonia,2025-04-07T16:49:00,2025-04-07T16:51:00,3.00
8,Patagonia,2025-04-08T16:49:00,2025-04-08T16:50:00,2.00
8,Patagonia,2025-04-10T05:16:00,2025-04-10T05:16:00,1.00
8,Patagonia,2025-04-11T05:15:00,2025-04-11T05:16:00,2.00
8,Patagonia,2025-04-12T05:15:00,2025-04-12T05:16:00,2.00
8,Patagonia,2025-04-12T15:11:00,2025-04-12T15:11:00,1.00
9,Patagonia,2025-03-31T06:46:00,2025-03-31T06:47:00,2.00
9,Patagonia,2025-04-01T06:46:00,2025-04-01T06:47:00,2.00
9,Patagonia,2025-04-02T06:45:00,2025-04-02T06:47:00,3.00
9,Patagonia,2025-04-02T16:42:00,2025-04-02T16:42:00,1.00
9,Patagonia,2025-04-03T06:45:00,2025-04-03T06:47:00,3.00
9,Patagonia,2025-04-03T16:41:00,2025-04-03T16:42:00,2.00
9,Patagonia,2025-04-04T06:44:00,2025-04-04T06:46:00,3.00
9,Patagonia,2025-04-04T16:40:00,2025-04-04T16:42:00,3.00
9,Patagonia,2025-04-05T06:44:00,2025-04-05T06:46:00,3.00
9,Patagonia,2025-04-05T16:40:00,2025-04-05T16:42:00,3.00
9,Patagonia,2025-04-06T06:44:00,2025-04-06T06:45:00,2.00
9,Patagonia,2025-04-06T16:40:00,2025-04-06T16:41:00,2.00
9,Patagonia,2025-04-07T06:44:00,2025-04-07T06:45:00,2.00
9,Patagonia,2025-04-07T16:39:00,2025-04-07T16:41:00,3.00
9,Patagonia,2025-04-08T16:39:00,2025-04-08T16:41:00,3.00
9,Patagonia,2025-04-09T16:39:00,2025-04-09T16:40:00,2.00
9,Patagonia,2025-04-11T05:06:00,2025-04-11T05:06:00,1.00
9,Patagonia,2025-04-12T05:05:00,2025-04-12T05:06:00,2.00
10,Patagonia,2025-03-30T08:12:00,2025-03-30T08:14:00,3.00
10,Patagonia,2025-03-31T08:12:00,2025-03-31T08:13:00,2.00
10,Patagonia,2025-04-01T08:11:00,2025-04-01T08:13:00,3.00
10,Patagonia,2025-04-01T18:08:00,2025-04-01T18:09:00,2.00
10,Patagonia,2025-04-02T08:11:00,2025-04-02T08:13:00,3.00
10,Patagonia,2025-04-02T18:07:00,2025-04-02T18:09:00,3.00
10,Patagonia,2025-04-03T08:11:00,2025-04-03T08:13:00,3.00
10,Patagonia,2025-04-03T18:07:00,2025-04-03T18:08:00,2.00
10,Patagonia,2025-04-04T08:11:00,2025-04-04T08:12:00,2.00
10,Patagonia,2025-04-04T18:06:00,2025-04-04T18:08:00,3.00
10,Patagonia,2025-04-05T08:11:00,2025-04-05T08:11:00,1.00
10,Patagonia,2025-04-05T18:06:00,2025-04-05T18:08:00,3.00
10,Patagonia,2025-04-06T18:06:00,2025-04-06T18:07:00,2.00
10,Patagonia,2025-04-07T18:06:00,2025-04-07T18:07:00,2.00
10,Patagonia,2025-04-09T06:33:00,2025-04-09T06:33:00,1.00
10,Patagonia,2025-04-10T06:32:00,2025-04-10T06:33:00,2.00
10,Patagonia,2025-04-11T06:31:00,2025-04-11T06:33:00,3.00
10,Patagonia,2025-04-12T06:31:00,2025-04-12T06:33:00,3.00
10,Patagonia,2025-04-12T16:27:00,2025-04-12T16:28:00,2.00
11,Patagonia,2025-03-30T08:03:00,2025-03-30T08:03:00,1.00
11,Patagonia,2025-03-31T08:03:00,2025-03-31T08:04:00,2.00
11,Patagonia,2025-04-01T08:02:00,2025-04-01T08:03:00,2.00
11,Patagonia,2025-04-02T08:01:00,2025-04-02T08:03:00,3.00
11,Patagonia,2025-04-02T17:58:00,2025-04-02T17:59:00,2.00
11,Patagonia,2025-04-03T08:01:00,2025-04-03T08:03:00,3.00
11,Patagonia,2025-04-03T17:57:00,2025-04-03T17:59:00,3.00
11,Patagonia,2025-04-04T08:01:00,2025-04-04T08:03:00,3.00
11,Patagonia,2025-04-04T17:57:00,2025-04-04T17:58:00,2.00
11,Patagonia,2025-04-05T08:01:00,2025-04-05T08:02:00,2.00
11,Patagonia,2025-04-05T17:56:00,2025-04-05T17:58:00,3.00
11,Patagonia,2025-04-06T08:01:00,2025-04-06T08:01:00,1.00
11,Patagonia,2025-04-06T17:56:00,2025-04-06T17:58:00,3.00
11,Patagonia,2025-04-07T17:56:00,2025-04-07T17:57:00,2.00
11,Patagonia,2025-04-08T17:56:00,2025-04-08T17:57:00,2.00
11,Patagonia,2025-04-09T17:56:00,2025-04-09T17:56:00,1.00
11,Patagonia,2025-04-10T06:23:00,2025-04-10T06:23:00,1.00
11,Patagonia,2025-04-11T06:22:00,2025-04-11T06:23:00,2.00
11,Patagonia,2025-04-12T06:21:00,2025-04-12T06:23:00,3.00
12,Patagonia,2025-04-01T07:53:00,2025-04-01T07:53:00,1.00
12,Patagonia,2025-04-02T07:52:00,2025-04-02T07:53:00,2.00
12,Patagonia,2025-04-03T07:51:00,2025-04-03T07:53:00,3.00
12,Patagonia,2025-04-03T17:48:00,2025-04-03T17:49:00,2.00
12,Patagonia,2025-04-04T07:51:00,2025-04-04T07:53:00,3.00
12,Patagonia,2025-04-04T17:47:00,2025-04-04T17:49:00,3.00
12,Patagonia,2025-04-05T07:51:00,2025-04-05T07:53:00,3.00
12,Patagonia,2025-04-05T17:47:00,2025-04-05T17:48:00,2.00
12,Patagonia,2025-04-06T07:51:00,2025-04-06T07:52:00,2.00
12,Patagonia,2025-04-06T17:46:00,2025-04-06T17:48:00,3.00
12,Patagonia,2025-04-07T07:51:00,2025-04-07T07:51:00,1.00
12,Patagonia,2025-04-07T17:46:00,2025-04-07T17:48:00,3.00
12,Patagonia,2025-04-08T17:46:00,2025-04-08T17:47:00,2.00
12,Patagonia,2025-04-09T17:46:00,2025-04-09T17:47:00,2.00
12,Patagonia,2025-04-10T17:46:00,2025-04-10T17:46:00,1.00
12,Patagonia,2025-04-12T06:12:00,2025-04-12T06:13:00,2.00
13,Patagonia,2025-03-30T19:16:00,2025-03-30T19:17:00,2.00
13,Patagonia,2025-03-31T19:16:00,2025-03-31T19:16:00,1.00
13,Patagonia,2025-04-02T07:43:00,2025-04-02T07:43:00,1.00
13,Patagonia,2025-04-03T07:42:00,2025-04-03T07:43:00,2.00
13,Patagonia,2025-04-04T07:41:00,2025-04-04T07:43:00,3.00
13,Patagonia,2025-04-04T17:38:00,2025-04-04T17:38:00,1.00
13,Patagonia,2025-04-05T07:41:00,2025-04-05T07:43:00,3.00
13,Patagonia,2025-04-05T17:37:00,2025-04-05T17:38:00,2.00
13,Patagonia,2025-04-06T07:41:00,2025-04-06T07:43:00,3.00
13,Patagonia,2025-04-06T17:37:00,2025-04-06T17:38:00,2.00
13,Patagonia,2025-04-07T07:41:00,2025-04-07T07:42:00,2.00
13,Patagonia,2025-04-07T17:36:00,2025-04-07T17:38:00,3.00
13,Patagonia,2025-04-08T07:41:00,2025-04-08T07:41:00,1.00
13,Patagonia,2025-04-08T17:36:00,2025-04-08T17:38:00,3.00
13,Patagonia,2025-04-09T07:41:00,2025-04-09T07:41:00,1.00
13,Patagonia,2025-04-09T17:36:00,2025-04-09T17:37:00,2.00
13,Patagonia,2025-04-10T17:36:00,2025-04-10T17:37:00,2.00
13,Patagonia,2025-04-11T17:36:00,2025-04-11T17:36:00,1.00
14,Patagonia,2025-03-30T19:06:00,2025-03-30T19:08:00,3.00
14,Patagonia,2025-03-31T19:06:00,2025-03-31T19:07:00,2.00
14,Patagonia,2025-04-01T19:06:00,2025-04-01T19:06:00,1.00
14,Patagonia,2025-04-03T07:33:00,2025-04-03T07:33:00,1.00
14,Patagonia,2025-04-04T07:32:00,2025-04-04T07:33:00,2.00
14,Patagonia,2025-04-05T07:31:00,2025-04-05T07:33:00,3.00
14,Patagonia,2025-04-05T17:28:00,2025-04-05T17:28:00,1.00
14,Patagonia,2025-04-06T07:31:00,2025-04-06T07:33:00,3.00
14,Patagonia,2025-04-06T17:27:00,2025-04-06T17:28:00,2.00
14,Patagonia,2025-04-07T07:31:00,2025-04-07T07:33:00,3.00
14,Patagonia,2025-04-07T17:27:00,2025-04-07T17:28:00,2.00
14,Patagonia,2025-04-08T07:31:00,2025-04-08T07:32:00,2.00
14,Patagonia,2025-04-08T17:26:00,2025-04-08T17:28:00,3.00
14,Patagonia,2025-04-09T07:30:00,2025-04-09T07:32:00,3.00
14,Patagonia,2025-04-09T17:26:00,2025-04-09T17:28:00,3.00
14,Patagonia,2025-04-10T07:31:00,2025-04-10T07:31:00,1.00
14,Patagonia,2025-04-10T17:26:00,2025-04-10T17:27:00,2.00
14,Patagonia,2025-04-11T17:26:00,2025-04-11T17:27:00,2.00
14,Patagonia,2025-04-12T17:26:00,2025-04-12T17:26:00,1.00
15,Patagonia,2025-03-30T09:01:00,2025-03-30T09:02:00,2.00
15,Patagonia,2025-03-30T18:56:00,2025-03-30T18:58:00,3.00
15,Patagonia,2025-03-31T09:01:00,2025-03-31T09:01:00,1.00
15,Patagonia,2025-03-31T18:56:00,2025-03-31T18:58:00,3.00
15,Patagonia,2025-04-01T18:56:00,2025-04-01T18:57:00,2.00
15,Patagonia,2025-04-02T18:56:00,2025-04-02T18:56:00,1.00
15,Patagonia,2025-04-04T07:23:00,2025-04-04T07:23:00,1.00
15,Patagonia,2025-04-05T07:22:00,2025-04-05T07:23:00,2.00
15,Patagonia,2025-04-06T07:21:00,2025-04-06T07:23:00,3.00
15,Patagonia,2025-04-06T17:18:00,2025-04-06T17:18:00,1.00
15,Patagonia,2025-04-07T07:21:00,2025-04-07T07:23:00,3.00
15,Patagonia,2025-04-07T17:17:00,2025-04-07T17:18:00,2.00
15,Patagonia,2025-04-08T07:21:00,2025-04-08T07:22:00,2.00
15,Patagonia,2025-04-08T17:17:00,2025-04-08T17:18:00,2.00
15,Patagonia,2025-04-09T07:20:00,2025-04-09T07:22:00,3.00
15,Patagonia,2025-04-09T17:16:00,2025-04-09T17:18:00,3.00
15,Patagonia,2025-04-10T07:20:00,2025-04-10T07:22:00,3.00
15,Patagonia,2025-04-10T17:16:00,2025-04-10T17:18:00,3.00
15,Patagonia,2025-04-11T07:21:00,2025-04-11T07:21:00,1.00
15,Patagonia,2025-04-11T17:16:00,2025-04-11T17:17:00,2.00
15,Patagonia,2025-04-12T17:15:00,2025-04-12T17:17:00,3.00
16,Patagonia,2025-03-30T08:51:00,2025-03-30T08:53:00,3.00
16,Patagonia,2025-03-30T18:47:00,2025-03-30T18:49:00,3.00
16,Patagonia,2025-03-31T08:51:00,2025-03-31T08:52:00,2.00
16,Patagonia,2025-03-31T18:46:00,2025-03-31T18:48:00,3.00
16,Patagonia,2025-04-01T08:51:00,2025-04-01T08:51:00,1.00
16,Patagonia,2025-04-01T18:46:00,2025-04-01T18:48:00,3.00
16,Patagonia,2025-04-02T18:46:00,2025-04-02T18:47:00,2.00
16,Patagonia,2025-04-03T18:46:00,2025-04-03T18:46:00,1.00
16,Patagonia,2025-04-05T07:13:00,2025-04-05T07:13:00,1.00
16,Patagonia,2025-04-06T07:12:00,2025-04-06T07:13:00,2.00
16,Patagonia,2025-04-07T07:11:00,2025-04-07T07:13:00,3.00
16,Patagonia,2025-04-07T17:08:00,2025-04-07T17:08:00,1.00
16,Patagonia,2025-04-08T07:11:00,2025-04-08T07:13:00,3.00
16,Patagonia,2025-04-08T17:07:00,2025-04-08T17:08:00,2.00
16,Patagonia,2025-04-09T07:11:00,2025-04-09T07:12:00,2.00
16,Patagonia,2025-04-09T17:07:00,2025-04-09T17:08:00,2.00
16,Patagonia,2025-04-10T07:10:00,2025-04-10T07:12:00,3.00
16,Patagonia,2025-04-10T17:06:00,2025-04-10T17:08:00,3.00
16,Patagonia,2025-04-11T07:10:00,2025-04-11T07:12:00,3.00
16,Patagonia,2025-04-11T17:06:00,2025-04-11T17:08:00,3.00
16,Patagonia,2025-04-12T07:10:00,2025-04-12T07:11:00,2.00
16,Patagonia,2025-04-12T17:06:00,2025-04-12T17:07:00,2.00
17,Patagonia,2025-03-30T08:41:00,2025-03-30T08:43:00,3.00
17,Patagonia,2025-03-30T18:37:00,2025-03-30T18:39:00,3.00
17,Patagonia,2025-03-31T08:41:00,2025-03-31T08:43:00,3.00
17,Patagonia,2025-03-31T18:37:00,2025-03-31T18:39:00,3.00
17,Patagonia,2025-04-01T08:41:00,2025-04-01T08:42:00,2.00
17,Patagonia,2025-04-01T18:36:00,2025-04-01T18:38:00,3.00
17,Patagonia,2025-04-02T08:41:00,2025-04-02T08:41:00,1.00
17,Patagonia,2025-04-02T18:36:00,2025-04-02T18:38:00,3.00
17,Patagonia,2025-04-03T18:36:00,2025-04-03T18:37:00,2.00
17,Patagonia,2025-04-04T18:36:00,2025-04-04T18:37:00,2.00
17,Patagonia,2025-04-06T07:03:00,2025-04-06T07:03:00,1.00
17,Patagonia,2025-04-07T07:02:00,2025-04-07T07:03:00,2.00
17,Patagonia,2025-04-08T07:01:00,2025-04-08T07:03:00,3.00
17,Patagonia,2025-04-08T16:58:00,2025-04-08T16:58:00,1.00
17,Patagonia,2025-04-09T07:01:00,2025-04-09T07:03:00,3.00
17,Patagonia,2025-04-09T16:57:00,2025-04-09T16:58:00,2.00
17,Patagonia,2025-04-10T07:01:00,2025-04-10T07:02:00,2.00
17,Patagonia,2025-04-10T16:57:00,2025-04-10T16:58:00,2.00
17,Patagonia,2025-04-11T07:00:00,2025-04-11T07:02:00,3.00
17,Patagonia,2025-04-11T16:56:00,2025-04-11T16:58:00,3.00
17,Patagonia,2025-04-12T07:00:00,2025-04-12T07:02:00,3.00
17,Patagonia,2025-04-12T16:56:00,2025-04-12T16:58:00,3.00
18,Patagonia,2025-03-30T08:31:00,2025-03-30T08:33:00,3.00
18,Patagonia,2025-03-30T18:28:00,2025-03-30T18:29:00,2.00
18,Patagonia,2025-03-31T08:31:00,2025-03-31T08:33:00,3.00
18,Patagonia,2025-03-31T18:27:00,2025-03-31T18:29:00,3.00
18,Patagonia,2025-04-01T08:31:00,2025-04-01T08:33:00,3.00
18,Patagonia,2025-04-01T18:27:00,2025-04-01T18:29:00,3.00
18,Patagonia,2025-04-02T08:31:00,2025-04-02T08:32:00,2.00
18,Patagonia,2025-04-02T18:26:00,2025-04-02T18:28:00,3.00
18,Patagonia,2025-04-03T08:31:00,2025-04-03T08:31:00,1.00
18,Patagonia,2025-04-03T18:26:00,2025-04-03T18:28:00,3.00
18,Patagonia,2025-04-04T18:26:00,2025-04-04T18:27:00,2.00
18,Patagonia,2025-04-05T18:26:00,2025-04-05T18:27:00,2.00
18,Patagonia,2025-04-07T06:53:00,2025-04-07T06:53:00,1.00
18,Patagonia,2025-04-08T06:52:00,2025-04-08T06:53:00,2.00
18,Patagonia,2025-04-09T06:51:00,2025-04-09T06:53:00,3.00
18,Patagonia,2025-04-09T16:48:00,2025-04-09T16:48:00,1.00
18,Patagonia,2025-04-10T06:51:00,2025-04-10T06:53:00,3.00
18,Patagonia,2025-04-10T16:47:00,2025-04-10T16:48:00,2.00
18,Patagonia,2025-04-11T06:51:00,2025-04-11T06:52:00,2.00
18,Patagonia,2025-04-11T16:47:00,2025-04-11T16:48:00,2.00
18,Patagonia,2025-04-12T06:50:00,2025-04-12T06:52:00,3.00
18,Patagonia,2025-04-12T16:46:00,2025-04-12T16:48:00,3.00
19,Patagonia,2025-03-30T08:22:00,2025-03-30T08:24:00,3.00
19,Patagonia,2025-03-31T08:21:00,2025-03-31T08:23:00,3.00
19,Patagonia,2025-03-31T18:18:00,2025-03-31T18:19:00,2.00
19,Patagonia,2025-04-01T08:21:00,2025-04-01T08:23:00,3.00
19,Patagonia,2025-04-01T18:17:00,2025-04-01T18:19:00,3.00
19,Patagonia,2025-04-02T08:21:00,2025-04-02T08:23:00,3.00
19,Patagonia,2025-04-02T18:17:00,2025-04-02T18:19:00,3.00
19,Patagonia,2025-04-03T08:21:00,2025-04-03T08:22:00,2.00
19,Patagonia,2025-04-03T18:16:00,2025-04-03T18:18:00,3.00
19,Patagonia,2025-04-04T08:21:00,2025-04-04T08:21:00,1.00
19,Patagonia,2025-04-04T18:16:00,2025-04-04T18:18:00,3.00
19,Patagonia,2025-04-05T18:16:00,2025-04-05T18:17:00,2.00
19,Patagonia,2025-04-06T18:16:00,2025-04-06T18:17:00,2.00
19,Patagonia,2025-04-08T06:43:00,2025-04-08T06:43:00,1.00
19,Patagonia,2025-04-09T06:42:00,2025-04-09T06:43:00,2.00
19,Patagonia,2025-04-10T06:41:00,2025-04-10T06:43:00,3.00
19,Patagonia,2025-04-10T16:38:00,2025-04-10T16:38:00,1.00
19,Patagonia,2025-04-11T06:41:00,2025-04-11T06:43:00,3.00
19,Patagonia,2025-04-11T16:37:00,2025-04-11T16:38:00,2.00
19,Patagonia,2025-04-12T06:41:00,2025-04-12T06:42:00,2.00
19,Patagonia,2025-04-12T16:37:00,2025-04-12T16:38:00,2.00
20,Patagonia,2025-04-01T09:47:00,2025-04-01T09:48:00,2.00
20,Patagonia,2025-04-01T18:05:00,2025-04-01T18:06:00,2.00
20,Patagonia,2025-04-02T09:46:00,2025-04-02T09:48:00,3.00
20,Patagonia,2025-04-02T18:04:00,2025-04-02T18:05:00,2.00
20,Patagonia,2025-04-03T09:45:00,2025-04-03T09:47:00,3.00
20,Patagonia,2025-04-03T18:03:00,2025-04-03T18:05:00,3.00
20,Patagonia,2025-04-04T09:45:00,2025-04-04T09:46:00,2.00
20,Patagonia,2025-04-04T18:03:00,2025-04-04T18:04:00,2.00
20,Patagonia,2025-04-05T09:45:00,2025-04-05T09:46:00,2.00
20,Patagonia,2025-04-05T18:02:00,2025-04-05T18:04:00,3.00
20,Patagonia,2025-04-06T18:02:00,2025-04-06T18:02:00,1.00
20,Patagonia,2025-04-08T08:05:00,2025-04-08T08:06:00,2.00
20,Patagonia,2025-04-08T16:23:00,2025-04-08T16:23:00,1.00
20,Patagonia,2025-04-09T08:04:00,2025-04-09T08:06:00,3.00
20,Patagonia,2025-04-09T16:22:00,2025-04-09T16:23:00,2.00
20,Patagonia,2025-04-10T08:03:00,2025-04-10T08:05:00,3.00
20,Patagonia,2025-04-10T16:21:00,2025-04-10T16:23:00,3.00
20,Patagonia,2025-04-11T08:03:00,2025-04-11T08:05:00,3.00
20,Patagonia,2025-04-11T16:21:00,2025-04-11T16:23:00,3.00
20,Patagonia,2025-04-12T08:02:00,2025-04-12T08:04:00,3.00
20,Patagonia,2025-04-12T16:20:00,2025-04-12T16:22:00,3.00
21,Patagonia,2025-03-30T11:16:00,2025-03-30T11:17:00,2.00
21,Patagonia,2025-03-30T19:34:00,2025-03-30T19:35:00,2.00
21,Patagonia,2025-04-01T09:38:00,2025-04-01T09:38:00,1.00
21,Patagonia,2025-04-01T17:55:00,2025-04-01T17:55:00,1.00
21,Patagonia,2025-04-02T09:36:00,2025-04-02T09:38:00,3.00
21,Patagonia,2025-04-02T17:54:00,2025-04-02T17:55:00,2.00
21,Patagonia,2025-04-03T09:35:00,2025-04-03T09:37:00,3.00
21,Patagonia,2025-04-03T17:53:00,2025-04-03T17:55:00,3.00
21,Patagonia,2025-04-04T09:35:00,2025-04-04T09:37:00,3.00
21,Patagonia,2025-04-04T17:53:00,2025-04-04T17:55:00,3.00
21,Patagonia,2025-04-05T09:34:00,2025-04-05T09:36:00,3.00
21,Patagonia,2025-04-05T17:52:00,2025-04-05T17:54:00,3.00
21,Patagonia,2025-04-06T09:34:00,2025-04-06T09:35:00,2.00
21,Patagonia,2025-04-06T17:52:00,2025-04-06T17:53:00,2.00
21,Patagonia,2025-04-09T07:54:00,2025-04-09T07:56:00,3.00
21,Patagonia,2025-04-09T16:12:00,2025-04-09T16:13:00,2.00
21,Patagonia,2025-04-10T07:54:00,2025-04-10T07:55:00,2.00
21,Patagonia,2025-04-10T16:12:00,2025-04-10T16:13:00,2.00
21,Patagonia,2025-04-11T07:53:00,2025-04-11T07:55:00,3.00
21,Patagonia,2025-04-11T16:11:00,2025-04-11T16:13:00,3.00
21,Patagonia,2025-04-12T07:52:00,2025-04-12T07:54:00,3.00
21,Patagonia,2025-04-12T16:10:00,2025-04-12T16:12:00,3.00
22,Patagonia,2025-03-30T11:06:00,2025-03-30T11:08:00,3.00
22,Patagonia,2025-03-30T19:24:00,2025-03-30T19:25:00,2.00
22,Patagonia,2025-03-31T11:06:00,2025-03-31T11:06:00,1.00
22,Patagonia,2025-03-31T19:24:00,2025-03-31T19:24:00,1.00
22,Patagonia,2025-04-02T09:27:00,2025-04-02T09:27:00,1.00
22,Patagonia,2025-04-02T17:45:00,2025-04-02T17:45:00,1.00
22,Patagonia,2025-04-03T09:26:00,2025-04-03T09:27:00,2.00
22,Patagonia,2025-04-03T17:44:00,2025-04-03T17:45:00,2.00
22,Patagonia,2025-04-04T09:25:00,2025-04-04T09:27:00,3.00
22,Patagonia,2025-04-04T17:43:00,2025-04-04T17:45:00,3.00
22,Patagonia,2025-04-05T09:25:00,2025-04-05T09:26:00,2.00
22,Patagonia,2025-04-05T17:42:00,2025-04-05T17:44:00,3.00
22,Patagonia,2025-04-06T09:24:00,2025-04-06T09:26:00,3.00
22,Patagonia,2025-04-06T17:42:00,2025-04-06T17:44:00,3.00
22,Patagonia,2025-04-07T09:24:00,2025-04-07T09:25:00,2.00
22,Patagonia,2025-04-07T17:42:00,2025-04-07T17:43:00,2.00
22,Patagonia,2025-04-09T07:45:00,2025-04-09T07:45:00,1.00
22,Patagonia,2025-04-09T16:03:00,2025-04-09T16:03:00,1.00
22,Patagonia,2025-04-10T07:44:00,2025-04-10T07:45:00,2.00
22,Patagonia,2025-04-10T16:02:00,2025-04-10T16:03:00,2.00
22,Patagonia,2025-04-11T07:43:00,2025-04-11T07:45:00,3.00
22,Patagonia,2025-04-11T16:01:00,2025-04-11T16:03:00,3.00
22,Patagonia,2025-04-12T07:43:00,2025-04-12T07:44:00,2.00
22,Patagonia,2025-04-12T16:00:00,2025-04-12T16:02:00,3.00
23,Patagonia,2025-03-30T10:56:00,2025-03-30T10:58:00,3.00
23,Patagonia,2025-03-30T19:14:00,2025-03-30T19:16:00,3.00
23,Patagonia,2025-03-31T10:56:00,2025-03-31T10:57:00,2.00
23,Patagonia,2025-03-31T19:14:00,2025-03-31T19:15:00,2.00
23,Patagonia,2025-04-01T19:14:00,2025-04-01T19:14:00,1.00
23,Patagonia,2025-04-03T09:16:00,2025-04-03T09:17:00,2.00
23,Patagonia,2025-04-03T17:34:00,2025-04-03T17:35:00,2.00
23,Patagonia,2025-04-04T09:15:00,2025-04-04T09:17:00,3.00
23,Patagonia,2025-04-04T17:33:00,2025-04-04T17:35:00,3.00
23,Patagonia,2025-04-05T09:15:00,2025-04-05T09:17:00,3.00
23,Patagonia,2025-04-05T17:33:00,2025-04-05T17:34:00,2.00
23,Patagonia,2025-04-06T09:14:00,2025-04-06T09:16:00,3.00
23,Patagonia,2025-04-06T17:32:00,2025-04-06T17:34:00,3.00
23,Patagonia,2025-04-07T09:14:00,2025-04-07T09:15:00,2.00
23,Patagonia,2025-04-07T17:32:00,2025-04-07T17:33:00,2.00
23,Patagonia,2025-04-08T09:14:00,2025-04-08T09:14:00,1.00
23,Patagonia,2025-04-08T17:32:00,2025-04-08T17:32:00,1.00
23,Patagonia,2025-04-10T07:35:00,2025-04-10T07:35:00,1.00
23,Patagonia,2025-04-10T15:53:00,2025-04-10T15:53:00,1.00
23,Patagonia,2025-04-11T07:34:00,2025-04-11T07:35:00,2.00
23,Patagonia,2025-04-11T15:51:00,2025-04-11T15:53:00,3.00
23,Patagonia,2025-04-12T07:33:00,2025-04-12T07:35:00,3.00
23,Patagonia,2025-04-12T15:51:00,2025-04-12T15:53:00,3.00
24,Patagonia,2025-03-30T10:46:00,2025-03-30T10:48:00,3.00
24,Patagonia,2025-03-30T19:04:00,2025-03-30T19:06:00,3.00
24,Patagonia,2025-03-31T10:46:00,2025-03-31T10:47:00,2.00
24,Patagonia,2025-03-31T19:04:00,2025-03-31T19:05:00,2.00
24,Patagonia,2025-04-01T10:46:00,2025-04-01T10:47:00,2.00
24,Patagonia,2025-04-01T19:03:00,2025-04-01T19:04:00,2.00
24,Patagonia,2025-04-04T09:06:00,2025-04-04T09:07:00,2.00
24,Patagonia,2025-04-04T17:24:00,2025-04-04T17:25:00,2.00
24,Patagonia,2025-04-05T09:05:00,2025-04-05T09:07:00,3.00
24,Patagonia,2025-04-05T17:23:00,2025-04-05T17:25:00,3.00
24,Patagonia,2025-04-06T09:04:00,2025-04-06T09:06:00,3.00
24,Patagonia,2025-04-06T17:22:00,2025-04-06T17:24:00,3.00
24,Patagonia,2025-04-07T09:04:00,2025-04-07T09:06:00,3.00
24,Patagonia,2025-04-07T17:22:00,2025-04-07T17:24:00,3.00
24,Patagonia,2025-04-08T09:04:00,2025-04-08T09:05:00,2.00
24,Patagonia,2025-04-08T17:21:00,2025-04-08T17:23:00,3.00
24,Patagonia,2025-04-11T07:24:00,2025-04-11T07:25:00,2.00
24,Patagonia,2025-04-11T15:42:00,2025-04-11T15:43:00,2.00
24,Patagonia,2025-04-12T07:23:00,2025-04-12T07:25:00,3.00
24,Patagonia,2025-04-12T15:41:00,2025-04-12T15:43:00,3.00
25,Patagonia,2025-03-30T10:36:00,2025-03-30T10:38:00,3.00
25,Patagonia,2025-03-30T18:54:00,2025-03-30T18:56:00,3.00
25,Patagonia,2025-03-31T10:36:00,2025-03-31T10:38:00,3.00
25,Patagonia,2025-03-31T18:54:00,2025-03-31T18:56:00,3.00
25,Patagonia,2025-04-01T10:36:00,2025-04-01T10:37:00,2.00
25,Patagonia,2025-04-01T18:53:00,2025-04-01T18:55:00,3.00
25,Patagonia,2025-04-02T10:36:00,2025-04-02T10:36:00,1.00
25,Patagonia,2025-04-02T18:53:00,2025-04-02T18:54:00,2.00
25,Patagonia,2025-04-04T08:57:00,2025-04-04T08:57:00,1.00
25,Patagonia,2025-04-04T17:14:00,2025-04-04T17:14:00,1.00
25,Patagonia,2025-04-05T08:55:00,2025-04-05T08:57:00,3.00
25,Patagonia,2025-04-05T17:13:00,2025-04-05T17:15:00,3.00
25,Patagonia,2025-04-06T08:55:00,2025-04-06T08:56:00,2.00
25,Patagonia,2025-04-06T17:13:00,2025-04-06T17:14:00,2.00
25,Patagonia,2025-04-07T08:54:00,2025-04-07T08:56:00,3.00
25,Patagonia,2025-04-07T17:12:00,2025-04-07T17:14:00,3.00
25,Patagonia,2025-04-08T08:54:00,2025-04-08T08:55:00,2.00
25,Patagonia,2025-04-08T17:11:00,2025-04-08T17:13:00,3.00
25,Patagonia,2025-04-09T08:53:00,2025-04-09T08:54:00,2.00
25,Patagonia,2025-04-09T17:11:00,2025-04-09T17:12:00,2.00
25,Patagonia,2025-04-12T07:14:00,2025-04-12T07:15:00,2.00
25,Patagonia,2025-04-12T15:31:00,2025-04-12T15:32:00,2.00
26,Patagonia,2025-03-30T10:27:00,2025-03-30T10:28:00,2.00
26,Patagonia,2025-03-30T18:45:00,2025-03-30T18:46:00,2.00
26,Patagonia,2025-03-31T10:26:00,2025-03-31T10:28:00,3.00
26,Patagonia,2025-03-31T18:44:00,2025-03-31T18:46:00,3.00
26,Patagonia,2025-04-01T10:26:00,2025-04-01T10:27:00,2.00
26,Patagonia,2025-04-01T18:44:00,2025-04-01T18:45:00,2.00
26,Patagonia,2025-04-02T10:25:00,2025-04-02T10:27:00,3.00
26,Patagonia,2025-04-02T18:43:00,2025-04-02T18:45:00,3.00
26,Patagonia,2025-04-03T18:43:00,2025-04-03T18:43:00,1.00
26,Patagonia,2025-04-05T08:46:00,2025-04-05T08:47:00,2.00
26,Patagonia,2025-04-05T17:04:00,2025-04-05T17:04:00,1.00
26,Patagonia,2025-04-06T08:45:00,2025-04-06T08:46:00,2.00
26,Patagonia,2025-04-06T17:03:00,2025-04-06T17:04:00,2.00
26,Patagonia,2025-04-07T08:44:00,2025-04-07T08:46:00,3.00
26,Patagonia,2025-04-07T17:02:00,2025-04-07T17:04:00,3.00
26,Patagonia,2025-04-08T08:44:00,2025-04-08T08:45:00,2.00
26,Patagonia,2025-04-08T17:02:00,2025-04-08T17:03:00,2.00
26,Patagonia,2025-04-09T08:43:00,2025-04-09T08:45:00,3.00
26,Patagonia,2025-04-09T17:01:00,2025-04-09T17:03:00,3.00
26,Patagonia,2025-04-10T08:43:00,2025-04-10T08:44:00,2.00
26,Patagonia,2025-04-10T17:01:00,2025-04-10T17:02:00,2.00
26,Patagonia,2025-04-12T07:04:00,2025-04-12T07:04:00,1.00
26,Patagonia,2025-04-12T15:22:00,2025-04-12T15:22:00,1.00
27,Patagonia,2025-03-30T10:17:00,2025-03-30T10:18:00,2.00
27,Patagonia,2025-03-30T18:35:00,2025-03-30T18:36:00,2.00
27,Patagonia,2025-03-31T10:16:00,2025-03-31T10:18:00,3.00
27,Patagonia,2025-03-31T18:34:00,2025-03-31T18:36:00,3.00
27,Patagonia,2025-04-01T10:16:00,2025-04-01T10:18:00,3.00
27,Patagonia,2025-04-01T18:34:00,2025-04-01T18:36:00,3.00
27,Patagonia,2025-04-02T10:15:00,2025-04-02T10:17:00,3.00
27,Patagonia,2025-04-02T18:33:00,2025-04-02T18:35:00,3.00
27,Patagonia,2025-04-03T10:15:00,2025-04-03T10:16:00,2.00
27,Patagonia,2025-04-03T18:33:00,2025-04-03T18:34:00,2.00
27,Patagonia,2025-04-06T08:35:00,2025-04-06T08:36:00,2.00
27,Patagonia,2025-04-06T16:53:00,2025-04-06T16:54:00,2.00
27,Patagonia,2025-04-07T08:34:00,2025-04-07T08:36:00,3.00
27,Patagonia,2025-04-07T16:52:00,2025-04-07T16:54:00,3.00
27,Patagonia,2025-04-08T08:34:00,2025-04-08T08:36:00,3.00
27,Patagonia,2025-04-08T16:52:00,2025-04-08T16:54:00,3.00
27,Patagonia,2025-04-09T08:33:00,2025-04-09T08:35:00,3.00
27,Patagonia,2025-04-09T16:51:00,2025-04-09T16:53:00,3.00
27,Patagonia,2025-04-10T08:33:00,2025-04-10T08:34:00,2.00
27,Patagonia,2025-04-10T16:51:00,2025-04-10T16:52:00,2.00
27,Patagonia,2025-04-11T08:33:00,2025-04-11T08:33:00,1.00
27,Patagonia,2025-04-11T16:51:00,2025-04-11T16:51:00,1.00
28,Patagonia,2025-03-30T10:08:00,2025-03-30T10:08:00,1.00
28,Patagonia,2025-03-30T18:26:00,2025-03-30T18:26:00,1.00
28,Patagonia,2025-03-31T10:07:00,2025-03-31T10:08:00,2.00
28,Patagonia,2025-03-31T18:25:00,2025-03-31T18:26:00,2.00
28,Patagonia,2025-04-01T10:06:00,2025-04-01T10:08:00,3.00
28,Patagonia,2025-04-01T18:24:00,2025-04-01T18:26:00,3.00
28,Patagonia,2025-04-02T10:05:00,2025-04-02T10:07:00,3.00
28,Patagonia,2025-04-02T18:23:00,2025-04-02T18:25:00,3.00
28,Patagonia,2025-04-03T10:05:00,2025-04-03T10:07:00,3.00
28,Patagonia,2025-04-03T18:23:00,2025-04-03T18:25:00,3.00
28,Patagonia,2025-04-04T10:05:00,2025-04-04T10:06:00,2.00
28,Patagonia,2025-04-04T18:23:00,2025-04-04T18:24:00,2.00
28,Patagonia,2025-04-06T08:26:00,2025-04-06T08:26:00,1.00
28,Patagonia,2025-04-07T08:25:00,2025-04-07T08:26:00,2.00
28,Patagonia,2025-04-07T16:43:00,2025-04-07T16:44:00,2.00
28,Patagonia,2025-04-08T08:24:00,2025-04-08T08:26:00,3.00
28,Patagonia,2025-04-08T16:42:00,2025-04-08T16:44:00,3.00
28,Patagonia,2025-04-09T08:23:00,2025-04-09T08:25:00,3.00
28,Patagonia,2025-04-09T16:41:00,2025-04-09T16:43:00,3.00
28,Patagonia,2025-04-10T08:23:00,2025-04-10T08:25:00,3.00
28,Patagonia,2025-04-10T16:41:00,2025-04-10T16:43:00,3.00
28,Patagonia,2025-04-11T08:23:00,2025-04-11T08:24:00,2.00
28,Patagonia,2025-04-11T16:41:00,2025-04-11T16:42:00,2.00
29,Patagonia,2025-03-31T09:57:00,2025-03-31T09:58:00,2.00
29,Patagonia,2025-03-31T18:15:00,2025-03-31T18:16:00,2.00
29,Patagonia,2025-04-01T09:56:00,2025-04-01T09:58:00,3.00
29,Patagonia,2025-04-01T18:14:00,2025-04-01T18:16:00,3.00
29,Patagonia,2025-04-02T09:56:00,2025-04-02T09:57:00,2.00
29,Patagonia,2025-04-02T18:14:00,2025-04-02T18:15:00,2.00
29,Patagonia,2025-04-03T09:55:00,2025-04-03T09:57:00,3.00
29,Patagonia,2025-04-03T18:13:00,2025-04-03T18:15:00,3.00
29,Patagonia,2025-04-04T09:55:00,2025-04-04T09:56:00,2.00
29,Patagonia,2025-04-04T18:13:00,2025-04-04T18:14:00,2.00
29,Patagonia,2025-04-05T09:55:00,2025-04-05T09:55:00,1.00
29,Patagonia,2025-04-05T18:12:00,2025-04-05T18:13:00,2.00
29,Patagonia,2025-04-07T08:16:00,2025-04-07T08:16:00,1.00
29,Patagonia,2025-04-07T16:34:00,2025-04-07T16:34:00,1.00
29,Patagonia,2025-04-08T08:14:00,2025-04-08T08:16:00,3.00
29,Patagonia,2025-04-08T16:32:00,2025-04-08T16:34:00,3.00
29,Patagonia,2025-04-09T08:14:00,2025-04-09T08:16:00,3.00
29,Patagonia,2025-04-09T16:32:00,2025-04-09T16:33:00,2.00
29,Patagonia,2025-04-10T08:13:00,2025-04-10T08:15:00,3.00
29,Patagonia,2025-04-10T16:31:00,2025-04-10T16:33:00,3.00
29,Patagonia,2025-04-11T08:13:00,2025-04-11T08:14:00,2.00
29,Patagonia,2025-04-11T16:31:00,2025-04-11T16:32:00,2.00
29,Patagonia,2025-04-12T08:13:00,2025-04-12T08:13:00,1.00
29,Patagonia,2025-04-12T16:30:00,2025-04-12T16:31:00,2.00
30,Patagonia,2025-03-30T11:24:00,2025-03-30T11:25:00,2.00
30,Patagonia,2025-03-30T19:42:00,2025-03-30T19:43:00,2.00
30,Patagonia,2025-03-31T11:23:00,2025-03-31T11:25:00,3.00
30,Patagonia,2025-03-31T19:41:00,2025-03-31T19:42:00,2.00
30,Patagonia,2025-04-01T11:22:00,2025-04-01T11:24:00,3.00
30,Patagonia,2025-04-01T19:40:00,2025-04-01T19:42:00,3.00
30,Patagonia,2025-04-02T11:22:00,2025-04-02T11:24:00,3.00
30,Patagonia,2025-04-02T19:40:00,2025-04-02T19:42:00,3.00
30,Patagonia,2025-04-03T11:22:00,2025-04-03T11:23:00,2.00
30,Patagonia,2025-04-03T19:39:00,2025-04-03T19:41:00,3.00
30,Patagonia,2025-04-04T11:22:00,2025-04-04T11:22:00,1.00
30,Patagonia,2025-04-04T19:39:00,2025-04-04T19:40:00,2.00
30,Patagonia,2025-04-06T09:42:00,2025-04-06T09:43:00,2.00
30,Patagonia,2025-04-06T18:00:00,2025-04-06T18:00:00,1.00
30,Patagonia,2025-04-07T09:41:00,2025-04-07T09:43:00,3.00
30,Patagonia,2025-04-07T17:59:00,2025-04-07T18:00:00,2.00
30,Patagonia,2025-04-08T09:40:00,2025-04-08T09:42:00,3.00
30,Patagonia,2025-04-08T17:58:00,2025-04-08T18:00:00,3.00
30,Patagonia,2025-04-09T09:40:00,2025-04-09T09:42:00,3.00
30,Patagonia,2025-04-09T17:58:00,2025-04-09T18:00:00,3.00
30,Patagonia,2025-04-10T09:40:00,2025-04-10T09:41:00,2.00
30,Patagonia,2025-04-10T17:57:00,2025-04-10T17:59:00,3.00
30,Patagonia,2025-04-11T09:39:00,2025-04-11T09:40:00,2.00
30,Patagonia,2025-04-11T17:57:00,2025-04-11T17:58:00,2.00
31,Patagonia,2025-03-31T11:13:00,2025-03-31T11:15:00,3.00
31,Patagonia,2025-03-31T19:31:00,2025-03-31T19:32:00,2.00
31,Patagonia,2025-04-01T11:13:00,2025-04-01T11:14:00,2.00
31,Patagonia,2025-04-01T19:31:00,2025-04-01T19:32:00,2.00
31,Patagonia,2025-04-02T11:12:00,2025-04-02T11:14:00,3.00
31,Patagonia,2025-04-02T19:30:00,2025-04-02T19:32:00,3.00
31,Patagonia,2025-04-03T11:12:00,2025-04-03T11:13:00,2.00
31,Patagonia,2025-04-03T19:29:00,2025-04-03T19:31:00,3.00
31,Patagonia,2025-04-04T11:11:00,2025-04-04T11:12:00,2.00
31,Patagonia,2025-04-04T19:29:00,2025-04-04T19:30:00,2.00
31,Patagonia,2025-04-05T19:29:00,2025-04-05T19:29:00,1.00
31,Patagonia,2025-04-07T09:32:00,2025-04-07T09:33:00,2.00
31,Patagonia,2025-04-07T17:50:00,2025-04-07T17:50:00,1.00
31,Patagonia,2025-04-08T09:31:00,2025-04-08T09:32:00,2.00
31,Patagonia,2025-04-08T17:49:00,2025-04-08T17:50:00,2.00
31,Patagonia,2025-04-09T09:30:00,2025-04-09T09:32:00,3.00
31,Patagonia,2025-04-09T17:48:00,2025-04-09T17:50:00,3.00
31,Patagonia,2025-04-10T09:30:00,2025-04-10T09:31:00,2.00
31,Patagonia,2025-04-10T17:47:00,2025-04-10T17:49:00,3.00
31,Patagonia,2025-04-11T09:29:00,2025-04-11T09:31:00,3.00
31,Patagonia,2025-04-11T17:47:00,2025-04-11T17:49:00,3.00
31,Patagonia,2025-04-12T09:29:00,2025-04-12T09:30:00,2.00
31,Patagonia,2025-04-12T17:47:00,2025-04-12T17:47:00,1.00
32,Patagonia,2025-03-31T11:04:00,2025-03-31T11:04:00,1.00
32,Patagonia,2025-03-31T19:22:00,2025-03-31T19:22:00,1.00
32,Patagonia,2025-04-01T11:03:00,2025-04-01T11:04:00,2.00
32,Patagonia,2025-04-01T19:21:00,2025-04-01T19:22:00,2.00
32,Patagonia,2025-04-02T11:02:00,2025-04-02T11:04:00,3.00
32,Patagonia,2025-04-02T19:20:00,2025-04-02T19:22:00,3.00
32,Patagonia,2025-04-03T11:02:00,2025-04-03T11:03:00,2.00
32,Patagonia,2025-04-03T19:20:00,2025-04-03T19:21:00,2.00
32,Patagonia,2025-04-04T11:01:00,2025-04-04T11:03:00,3.00
32,Patagonia,2025-04-04T19:19:00,2025-04-04T19:21:00,3.00
32,Patagonia,2025-04-05T11:01:00,2025-04-05T11:02:00,2.00
32,Patagonia,2025-04-05T19:19:00,2025-04-05T19:20:00,2.00
32,Patagonia,2025-04-08T09:21:00,2025-04-08T09:22:00,2.00
32,Patagonia,2025-04-08T17:39:00,2025-04-08T17:40:00,2.00
32,Patagonia,2025-04-09T09:20:00,2025-04-09T09:22:00,3.00
32,Patagonia,2025-04-09T17:38:00,2025-04-09T17:40:00,3.00
32,Patagonia,2025-04-10T09:20:00,2025-04-10T09:22:00,3.00
32,Patagonia,2025-04-10T17:38:00,2025-04-10T17:39:00,2.00
32,Patagonia,2025-04-11T09:19:00,2025-04-11T09:21:00,3.00
32,Patagonia,2025-04-11T17:37:00,2025-04-11T17:39:00,3.00
32,Patagonia,2025-04-12T09:19:00,2025-04-12T09:20:00,2.00
32,Patagonia,2025-04-12T17:37:00,2025-04-12T17:38:00,2.00
33,Patagonia,2025-03-30T12:33:00,2025-03-30T12:33:00,1.00
33,Patagonia,2025-03-30T20:51:00,2025-03-30T20:51:00,1.00
33,Patagonia,2025-04-01T10:54:00,2025-04-01T10:54:00,1.00
33,Patagonia,2025-04-01T19:11:00,2025-04-01T19:12:00,2.00
33,Patagonia,2025-04-02T10:53:00,2025-04-02T10:54:00,2.00
33,Patagonia,2025-04-02T19:10:00,2025-04-02T19:12:00,3.00
33,Patagonia,2025-04-03T10:52:00,2025-04-03T10:54:00,3.00
33,Patagonia,2025-04-03T19:10:00,2025-04-03T19:12:00,3.00
33,Patagonia,2025-04-04T10:51:00,2025-04-04T10:53:00,3.00
33,Patagonia,2025-04-04T19:09:00,2025-04-04T19:11:00,3.00
33,Patagonia,2025-04-05T10:51:00,2025-04-05T10:52:00,2.00
33,Patagonia,2025-04-05T19:09:00,2025-04-05T19:10:00,2.00
33,Patagonia,2025-04-06T10:51:00,2025-04-06T10:51:00,1.00
33,Patagonia,2025-04-06T19:09:00,2025-04-06T19:09:00,1.00
33,Patagonia,2025-04-08T09:12:00,2025-04-08T09:12:00,1.00
33,Patagonia,2025-04-08T17:30:00,2025-04-08T17:30:00,1.00
33,Patagonia,2025-04-09T09:11:00,2025-04-09T09:12:00,2.00
33,Patagonia,2025-04-09T17:29:00,2025-04-09T17:30:00,2.00
33,Patagonia,2025-04-10T09:10:00,2025-04-10T09:12:00,3.00
33,Patagonia,2025-04-10T17:28:00,2025-04-10T17:30:00,3.00
33,Patagonia,2025-04-11T09:09:00,2025-04-11T09:11:00,3.00
33,Patagonia,2025-04-11T17:27:00,2025-04-11T17:29:00,3.00
33,Patagonia,2025-04-12T09:09:00,2025-04-12T09:11:00,3.00
33,Patagonia,2025-04-12T17:27:00,2025-04-12T17:28:00,2.00
34,Patagonia,2025-03-30T12:23:00,2025-03-30T12:24:00,2.00
34,Patagonia,2025-03-30T20:41:00,2025-03-30T20:42:00,2.00
34,Patagonia,2025-04-02T10:43:00,2025-04-02T10:44:00,2.00
34,Patagonia,2025-04-02T19:01:00,2025-04-02T19:02:00,2.00
34,Patagonia,2025-04-03T10:42:00,2025-04-03T10:44:00,3.00
34,Patagonia,2025-04-03T19:00:00,2025-04-03T19:02:00,3.00
34,Patagonia,2025-04-04T10:41:00,2025-04-04T10:43:00,3.00
34,Patagonia,2025-04-04T18:59:00,2025-04-04T19:01:00,3.00
34,Patagonia,2025-04-05T10:41:00,2025-04-05T10:43:00,3.00
34,Patagonia,2025-04-05T18:59:00,2025-04-05T19:01:00,3.00
34,Patagonia,2025-04-06T10:41:00,2025-04-06T10:42:00,2.00
34,Patagonia,2025-04-06T18:58:00,2025-04-06T19:00:00,3.00
34,Patagonia,2025-04-07T10:41:00,2025-04-07T10:41:00,1.00
34,Patagonia,2025-04-07T18:58:00,2025-04-07T18:59:00,2.00
34,Patagonia,2025-04-09T09:01:00,2025-04-09T09:02:00,2.00
34,Patagonia,2025-04-09T17:19:00,2025-04-09T17:20:00,2.00
34,Patagonia,2025-04-10T09:00:00,2025-04-10T09:02:00,3.00
34,Patagonia,2025-04-10T17:18:00,2025-04-10T17:20:00,3.00
34,Patagonia,2025-04-11T09:00:00,2025-04-11T09:01:00,2.00
34,Patagonia,2025-04-11T17:17:00,2025-04-11T17:19:00,3.00
34,Patagonia,2025-04-12T08:59:00,2025-04-12T09:01:00,3.00
34,Patagonia,2025-04-12T17:17:00,2025-04-12T17:19:00,3.00
35,Patagonia,2025-03-30T12:13:00,2025-03-30T12:14:00,2.00
35,Patagonia,2025-03-30T20:31:00,2025-03-30T20:32:00,2.00
35,Patagonia,2025-03-31T12:13:00,2025-03-31T12:13:00,1.00
35,Patagonia,2025-03-31T20:30:00,2025-03-31T20:31:00,2.00
35,Patagonia,2025-04-02T10:34:00,2025-04-02T10:34:00,1.00
35,Patagonia,2025-04-03T10:33:00,2025-04-03T10:34:00,2.00
35,Patagonia,2025-04-03T18:50:00,2025-04-03T18:52:00,3.00
35,Patagonia,2025-04-04T10:32:00,2025-04-04T10:33:00,2.00
35,Patagonia,2025-04-04T18:50:00,2025-04-04T18:51:00,2.00
35,Patagonia,2025-04-05T10:31:00,2025-04-05T10:33:00,3.00
35,Patagonia,2025-04-05T18:49:00,2025-04-05T18:51:00,3.00
35,Patagonia,2025-04-06T10:31:00,2025-04-06T10:32:00,2.00
35,Patagonia,2025-04-06T18:49:00,2025-04-06T18:50:00,2.00
35,Patagonia,2025-04-07T10:30:00,2025-04-07T10:31:00,2.00
35,Patagonia,2025-04-07T18:48:00,2025-04-07T18:49:00,2.00
35,Patagonia,2025-04-10T08:51:00,2025-04-10T08:52:00,2.00
35,Patagonia,2025-04-10T17:09:00,2025-04-10T17:09:00,1.00
35,Patagonia,2025-04-11T08:50:00,2025-04-11T08:51:00,2.00
35,Patagonia,2025-04-11T17:08:00,2025-04-11T17:09:00,2.00
35,Patagonia,2025-04-12T08:49:00,2025-04-12T08:51:00,3.00
35,Patagonia,2025-04-12T17:07:00,2025-04-12T17:09:00,3.00
36,Patagonia,2025-03-30T12:03:00,2025-03-30T12:05:00,3.00
36,Patagonia,2025-03-30T20:21:00,2025-03-30T20:22:00,2.00
36,Patagonia,2025-03-31T12:02:00,2025-03-31T12:04:00,3.00
36,Patagonia,2025-03-31T20:20:00,2025-03-31T20:22:00,3.00
36,Patagonia,2025-04-01T12:02:00,2025-04-01T12:03:00,2.00
36,Patagonia,2025-04-01T20:20:00,2025-04-01T20:21:00,2.00
36,Patagonia,2025-04-03T10:23:00,2025-04-03T10:24:00,2.00
36,Patagonia,2025-04-03T18:41:00,2025-04-03T18:41:00,1.00
36,Patagonia,2025-04-04T10:22:00,2025-04-04T10:24:00,3.00
36,Patagonia,2025-04-04T18:40:00,2025-04-04T18:41:00,2.00
36,Patagonia,2025-04-05T10:21:00,2025-04-05T10:23:00,3.00
36,Patagonia,2025-04-05T18:39:00,2025-04-05T18:41:00,3.00
36,Patagonia,2025-04-06T10:21:00,2025-04-06T10:23:00,3.00
36,Patagonia,2025-04-06T18:39:00,2025-04-06T18:41:00,3.00
36,Patagonia,2025-04-07T10:20:00,2025-04-07T10:22:00,3.00
36,Patagonia,2025-04-07T18:38:00,2025-04-07T18:40:00,3.00
36,Patagonia,2025-04-08T10:20:00,2025-04-08T10:21:00,2.00
36,Patagonia,2025-04-08T18:38:00,2025-04-08T18:39:00,2.00
36,Patagonia,2025-04-11T08:40:00,2025-04-11T08:41:00,2.00
36,Patagonia,2025-04-11T16:58:00,2025-04-11T16:59:00,2.00
36,Patagonia,2025-04-12T08:39:00,2025-04-12T08:41:00,3.00
36,Patagonia,2025-04-12T16:57:00,2025-04-12T16:59:00,3.00
37,Patagonia,2025-03-30T11:53:00,2025-03-30T11:55:00,3.00
37,Patagonia,2025-03-30T20:11:00,2025-03-30T20:13:00,3.00
37,Patagonia,2025-03-31T11:52:00,2025-03-31T11:54:00,3.00
37,Patagonia,2025-03-31T20:10:00,2025-03-31T20:12:00,3.00
37,Patagonia,2025-04-01T11:52:00,2025-04-01T11:53:00,2.00
37,Patagonia,2025-04-01T20:10:00,2025-04-01T20:11:00,2.00
37,Patagonia,2025-04-02T20:10:00,2025-04-02T20:10:00,1.00
37,Patagonia,2025-04-04T10:13:00,2025-04-04T10:13:00,1.00
37,Patagonia,2025-04-04T18:31:00,2025-04-04T18:31:00,1.00
37,Patagonia,2025-04-05T10:12:00,2025-04-05T10:13:00,2.00
37,Patagonia,2025-04-05T18:30:00,2025-04-05T18:31:00,2.00
37,Patagonia,2025-04-06T10:11:00,2025-04-06T10:13:00,3.00
37,Patagonia,2025-04-06T18:29:00,2025-04-06T18:31:00,3.00
37,Patagonia,2025-04-07T10:10:00,2025-04-07T10:12:00,3.00
37,Patagonia,2025-04-07T18:28:00,2025-04-07T18:30:00,3.00
37,Patagonia,2025-04-08T10:10:00,2025-04-08T10:11:00,2.00
37,Patagonia,2025-04-08T18:28:00,2025-04-08T18:29:00,2.00
37,Patagonia,2025-04-09T10:10:00,2025-04-09T10:10:00,1.00
37,Patagonia,2025-04-09T18:28:00,2025-04-09T18:28:00,1.00
37,Patagonia,2025-04-11T08:31:00,2025-04-11T08:31:00,1.00
37,Patagonia,2025-04-11T16:49:00,2025-04-11T16:49:00,1.00
37,Patagonia,2025-04-12T08:30:00,2025-04-12T08:31:00,2.00
37,Patagonia,2025-04-12T16:48:00,2025-04-12T16:49:00,2.00
38,Patagonia,2025-03-30T11:43:00,2025-03-30T11:45:00,3.00
38,Patagonia,2025-03-30T20:01:00,2025-03-30T20:03:00,3.00
38,Patagonia,2025-03-31T11:43:00,2025-03-31T11:44:00,2.00
38,Patagonia,2025-03-31T20:00:00,2025-03-31T20:02:00,3.00
38,Patagonia,2025-04-01T11:42:00,2025-04-01T11:44:00,3.00
38,Patagonia,2025-04-01T20:00:00,2025-04-01T20:02:00,3.00
38,Patagonia,2025-04-02T11:42:00,2025-04-02T11:43:00,2.00
38,Patagonia,2025-04-02T20:00:00,2025-04-02T20:01:00,2.00
38,Patagonia,2025-04-05T10:02:00,2025-04-05T10:03:00,2.00
38,Patagonia,2025-04-05T18:20:00,2025-04-05T18:21:00,2.00
38,Patagonia,2025-04-06T10:01:00,2025-04-06T10:03:00,3.00
38,Patagonia,2025-04-06T18:19:00,2025-04-06T18:21:00,3.00
38,Patagonia,2025-04-07T10:01:00,2025-04-07T10:02:00,2.00
38,Patagonia,2025-04-07T18:18:00,2025-04-07T18:20:00,3.00
38,Patagonia,2025-04-08T10:00:00,2025-04-08T10:02:00,3.00
38,Patagonia,2025-04-08T18:18:00,2025-04-08T18:20:00,3.00
38,Patagonia,2025-04-09T10:00:00,2025-04-09T10:01:00,2.00
38,Patagonia,2025-04-09T18:18:00,2025-04-09T18:19:00,2.00
38,Patagonia,2025-04-10T10:00:00,2025-04-10T10:00:00,1.00
38,Patagonia,2025-04-10T18:18:00,2025-04-10T18:18:00,1.00
38,Patagonia,2025-04-12T08:20:00,2025-04-12T08:21:00,2.00
38,Patagonia,2025-04-12T16:38:00,2025-04-12T16:39:00,2.00
39,Patagonia,2025-03-30T11:33:00,2025-03-30T11:35:00,3.00
39,Patagonia,2025-03-30T19:51:00,2025-03-30T19:53:00,3.00
39,Patagonia,2025-03-31T11:33:00,2025-03-31T11:35:00,3.00
39,Patagonia,2025-03-31T19:51:00,2025-03-31T19:52:00,2.00
39,Patagonia,2025-04-01T11:32:00,2025-04-01T11:34:00,3.00
39,Patagonia,2025-04-01T19:50:00,2025-04-01T19:52:00,3.00
39,Patagonia,2025-04-02T11:32:00,2025-04-02T11:33:00,2.00
39,Patagonia,2025-04-02T19:50:00,2025-04-02T19:51:00,2.00
39,Patagonia,2025-04-03T11:32:00,2025-04-03T11:32:00,1.00
39,Patagonia,2025-04-03T19:49:00,2025-04-03T19:50:00,2.00
39,Patagonia,2025-04-05T09:53:00,2025-04-05T09:53:00,1.00
39,Patagonia,2025-04-06T09:52:00,2025-04-06T09:53:00,2.00
39,Patagonia,2025-04-06T18:10:00,2025-04-06T18:11:00,2.00
39,Patagonia,2025-04-07T09:51:00,2025-04-07T09:53:00,3.00
39,Patagonia,2025-04-07T18:09:00,2025-04-07T18:10:00,2.00
39,Patagonia,2025-04-08T09:50:00,2025-04-08T09:52:00,3.00
39,Patagonia,2025-04-08T18:08:00,2025-04-08T18:10:00,3.00
39,Patagonia,2025-04-09T09:50:00,2025-04-09T09:51:00,2.00
39,Patagonia,2025-04-09T18:08:00,2025-04-09T18:09:00,2.00
39,Patagonia,2025-04-10T09:50:00,2025-04-10T09:51:00,2.00
39,Patagonia,2025-04-10T18:07:00,2025-04-10T18:08:00,2.00
40,Patagonia,2025-03-30T12:59:00,2025-03-30T13:01:00,3.00
40,Patagonia,2025-03-30T21:17:00,2025-03-30T21:19:00,3.00
40,Patagonia,2025-03-31T12:59:00,2025-03-31T13:01:00,3.00
40,Patagonia,2025-03-31T21:17:00,2025-03-31T21:19:00,3.00
40,Patagonia,2025-04-01T12:59:00,2025-04-01T13:00:00,2.00
40,Patagonia,2025-04-01T21:16:00,2025-04-01T21:18:00,3.00
40,Patagonia,2025-04-02T12:59:00,2025-04-02T12:59:00,1.00
40,Patagonia,2025-04-02T21:16:00,2025-04-02T21:17:00,2.00
40,Patagonia,2025-04-04T11:20:00,2025-04-04T11:20:00,1.00
40,Patagonia,2025-04-04T19:37:00,2025-04-04T19:37:00,1.00
40,Patagonia,2025-04-05T11:18:00,2025-04-05T11:20:00,3.00
40,Patagonia,2025-04-05T19:36:00,2025-04-05T19:37:00,2.00
40,Patagonia,2025-04-06T11:18:00,2025-04-06T11:19:00,2.00
40,Patagonia,2025-04-06T19:35:00,2025-04-06T19:37:00,3.00
40,Patagonia,2025-04-07T11:17:00,2025-04-07T11:19:00,3.00
40,Patagonia,2025-04-07T19:35:00,2025-04-07T19:37:00,3.00
40,Patagonia,2025-04-08T11:17:00,2025-04-08T11:18:00,2.00
40,Patagonia,2025-04-08T19:34:00,2025-04-08T19:36:00,3.00
40,Patagonia,2025-04-09T11:16:00,2025-04-09T11:17:00,2.00
40,Patagonia,2025-04-09T19:34:00,2025-04-09T19:35:00,2.00
40,Patagonia,2025-04-12T09:37:00,2025-04-12T09:38:00,2.00
40,Patagonia,2025-04-12T17:54:00,2025-04-12T17:55:00,2.00
41,Patagonia,2025-03-30T12:50:00,2025-03-30T12:51:00,2.00
41,Patagonia,2025-03-30T21:08:00,2025-03-30T21:09:00,2.00
41,Patagonia,2025-03-31T12:49:00,2025-03-31T12:51:00,3.00
41,Patagonia,2025-03-31T21:07:00,2025-03-31T21:09:00,3.00
41,Patagonia,2025-04-01T12:49:00,2025-04-01T12:50:00,2.00
41,Patagonia,2025-04-01T21:06:00,2025-04-01T21:08:00,3.00
41,Patagonia,2025-04-02T12:48:00,2025-04-02T12:50:00,3.00
41,Patagonia,2025-04-02T21:06:00,2025-04-02T21:07:00,2.00
41,Patagonia,2025-04-03T21:06:00,2025-04-03T21:06:00,1.00
41,Patagonia,2025-04-05T11:09:00,2025-04-05T11:10:00,2.00
41,Patagonia,2025-04-05T19:27:00,2025-04-05T19:27:00,1.00
41,Patagonia,2025-04-06T11:08:00,2025-04-06T11:09:00,2.00
41,Patagonia,2025-04-06T19:26:00,2025-04-06T19:27:00,2.00
41,Patagonia,2025-04-07T11:07:00,2025-04-07T11:09:00,3.00
41,Patagonia,2025-04-07T19:25:00,2025-04-07T19:27:00,3.00
41,Patagonia,2025-04-08T11:07:00,2025-04-08T11:08:00,2.00
41,Patagonia,2025-04-08T19:25:00,2025-04-08T19:26:00,2.00
41,Patagonia,2025-04-09T11:06:00,2025-04-09T11:08:00,3.00
41,Patagonia,2025-04-09T19:24:00,2025-04-09T19:26:00,3.00
41,Patagonia,2025-04-10T11:06:00,2025-04-10T11:07:00,2.00
41,Patagonia,2025-04-10T19:24:00,2025-04-10T19:25:00,2.00
41,Patagonia,2025-04-12T09:27:00,2025-04-12T09:27:00,1.00
41,Patagonia,2025-04-12T17:45:00,2025-04-12T17:45:00,1.00
42,Patagonia,2025-03-30T12:40:00,2025-03-30T12:41:00,2.00
42,Patagonia,2025-03-30T20:58:00,2025-03-30T20:59:00,2.00
42,Patagonia,2025-03-31T12:39:00,2025-03-31T12:41:00,3.00
42,Patagonia,2025-03-31T20:57:00,2025-03-31T20:59:00,3.00
42,Patagonia,2025-04-01T12:39:00,2025-04-01T12:41:00,3.00
42,Patagonia,2025-04-01T20:57:00,2025-04-01T20:59:00,3.00
42,Patagonia,2025-04-02T12:38:00,2025-04-02T12:40:00,3.00
42,Patagonia,2025-04-02T20:56:00,2025-04-02T20:58:00,3.00
42,Patagonia,2025-04-03T12:38:00,2025-04-03T12:39:00,2.00
42,Patagonia,2025-04-03T20:56:00,2025-04-03T20:57:00,2.00
42,Patagonia,2025-04-06T10:58:00,2025-04-06T10:59:00,2.00
42,Patagonia,2025-04-06T19:16:00,2025-04-06T19:17:00,2.00
42,Patagonia,2025-04-07T10:57:00,2025-04-07T10:59:00,3.00
42,Patagonia,2025-04-07T19:15:00,2025-04-07T19:17:00,3.00
42,Patagonia,2025-04-08T10:57:00,2025-04-08T10:59:00,3.00
42,Patagonia,2025-04-08T19:15:00,2025-04-08T19:17:00,3.00
42,Patagonia,2025-04-09T10:56:00,2025-04-09T10:58:00,3.00
42,Patagonia,2025-04-09T19:14:00,2025-04-09T19:16:00,3.00
42,Patagonia,2025-04-10T10:56:00,2025-04-10T10:57:00,2.00
42,Patagonia,2025-04-10T19:14:00,2025-04-10T19:15:00,2.00
42,Patagonia,2025-04-11T10:56:00,2025-04-11T10:56:00,1.00
42,Patagonia,2025-04-11T19:14:00,2025-04-11T19:14:00,1.00
43,Patagonia,2025-03-30T12:31:00,2025-03-30T12:31:00,1.00
43,Patagonia,2025-03-30T20:49:00,2025-03-30T20:49:00,1.00
43,Patagonia,2025-03-31T12:30:00,2025-03-31T12:31:00,2.00
43,Patagonia,2025-03-31T20:48:00,2025-03-31T20:49:00,2.00
43,Patagonia,2025-04-01T12:29:00,2025-04-01T12:31:00,3.00
43,Patagonia,2025-04-01T20:47:00,2025-04-01T20:49:00,3.00
43,Patagonia,2025-04-02T12:28:00,2025-04-02T12:30:00,3.00
43,Patagonia,2025-04-02T20:46:00,2025-04-02T20:48:00,3.00
43,Patagonia,2025-04-03T12:28:00,2025-04-03T12:30:00,3.00
43,Patagonia,2025-04-03T20:46:00,2025-04-03T20:47:00,2.00
43,Patagonia,2025-04-04T12:28:00,2025-04-04T12:29:00,2.00
43,Patagonia,2025-04-04T20:46:00,2025-04-04T20:47:00,2.00
43,Patagonia,2025-04-06T10:49:00,2025-04-06T10:49:00,1.00
43,Patagonia,2025-04-07T10:48:00,2025-04-07T10:49:00,2.00
43,Patagonia,2025-04-07T19:06:00,2025-04-07T19:07:00,2.00
43,Patagonia,2025-04-08T10:47:00,2025-04-08T10:49:00,3.00
43,Patagonia,2025-04-08T19:05:00,2025-04-08T19:07:00,3.00
43,Patagonia,2025-04-09T10:46:00,2025-04-09T10:48:00,3.00
43,Patagonia,2025-04-09T19:04:00,2025-04-09T19:06:00,3.00
43,Patagonia,2025-04-10T10:46:00,2025-04-10T10:48:00,3.00
43,Patagonia,2025-04-10T19:04:00,2025-04-10T19:06:00,3.00
43,Patagonia,2025-04-11T10:46:00,2025-04-11T10:47:00,2.00
43,Patagonia,2025-04-11T19:04:00,2025-04-11T19:05:00,2.00
44,Patagonia,2025-03-31T12:20:00,2025-03-31T12:21:00,2.00
44,Patagonia,2025-03-31T20:38:00,2025-03-31T20:39:00,2.00
44,Patagonia,2025-04-01T12:19:00,2025-04-01T12:21:00,3.00
44,Patagonia,2025-04-01T20:37:00,2025-04-01T20:39:00,3.00
44,Patagonia,2025-04-02T12:19:00,2025-04-02T12:20:00,2.00
44,Patagonia,2025-04-02T20:36:00,2025-04-02T20:38:00,3.00
44,Patagonia,2025-04-03T12:18:00,2025-04-03T12:20:00,3.00
44,Patagonia,2025-04-03T20:36:00,2025-04-03T20:38:00,3.00
44,Patagonia,2025-04-04T12:18:00,2025-04-04T12:19:00,2.00
44,Patagonia,2025-04-04T20:36:00,2025-04-04T20:37:00,2.00
44,Patagonia,2025-04-05T12:18:00,2025-04-05T12:18:00,1.00
44,Patagonia,2025-04-05T20:35:00,2025-04-05T20:36:00,2.00
44,Patagonia,2025-04-07T10:39:00,2025-04-07T10:39:00,1.00
44,Patagonia,2025-04-07T18:56:00,2025-04-07T18:57:00,2.00
44,Patagonia,2025-04-08T10:37:00,2025-04-08T10:39:00,3.00
44,Patagonia,2025-04-08T18:55:00,2025-04-08T18:57:00,3.00
44,Patagonia,2025-04-09T10:37:00,2025-04-09T10:38:00,2.00
44,Patagonia,2025-04-09T18:55:00,2025-04-09T18:56:00,2.00
44,Patagonia,2025-04-10T10:36:00,2025-04-10T10:38:00,3.00
44,Patagonia,2025-04-10T18:54:00,2025-04-10T18:56:00,3.00
44,Patagonia,2025-04-11T10:36:00,2025-04-11T10:37:00,2.00
44,Patagonia,2025-04-11T18:54:00,2025-04-11T18:55:00,2.00
44,Patagonia,2025-04-12T10:36:00,2025-04-12T10:36:00,1.00
44,Patagonia,2025-04-12T18:53:00,2025-04-12T18:54:00,2.00
45,Patagonia,2025-04-01T12:10:00,2025-04-01T12:11:00,2.00
45,Patagonia,2025-04-01T20:28:00,2025-04-01T20:29:00,2.00
45,Patagonia,2025-04-02T12:09:00,2025-04-02T12:11:00,3.00
45,Patagonia,2025-04-02T20:27:00,2025-04-02T20:28:00,2.00
45,Patagonia,2025-04-03T12:08:00,2025-04-03T12:10:00,3.00
45,Patagonia,2025-04-03T20:26:00,2025-04-03T20:28:00,3.00
45,Patagonia,2025-04-04T12:08:00,2025-04-04T12:09:00,2.00
45,Patagonia,2025-04-04T20:26:00,2025-04-04T20:27:00,2.00
45,Patagonia,2025-04-05T12:08:00,2025-04-05T12:09:00,2.00
45,Patagonia,2025-04-05T20:25:00,2025-04-05T20:27:00,3.00
45,Patagonia,2025-04-06T20:25:00,2025-04-06T20:25:00,1.00
45,Patagonia,2025-04-08T10:28:00,2025-04-08T10:29:00,2.00
45,Patagonia,2025-04-08T18:46:00,2025-04-08T18:46:00,1.00
45,Patagonia,2025-04-09T10:27:00,2025-04-09T10:29:00,3.00
45,Patagonia,2025-04-09T18:45:00,2025-04-09T18:46:00,2.00
45,Patagonia,2025-04-10T10:26:00,2025-04-10T10:28:00,3.00
45,Patagonia,2025-04-10T18:44:00,2025-04-10T18:46:00,3.00
45,Patagonia,2025-04-11T10:26:00,2025-04-11T10:28:00,3.00
45,Patagonia,2025-04-11T18:44:00,2025-04-11T18:45:00,2.00
45,Patagonia,2025-04-12T10:25:00,2025-04-12T10:27:00,3.00
45,Patagonia,2025-04-12T18:43:00,2025-04-12T18:45:00,3.00
46,Patagonia,2025-03-30T13:39:00,2025-03-30T13:40:00,2.00
46,Patagonia,2025-03-30T21:57:00,2025-03-30T21:58:00,2.00
46,Patagonia,2025-04-01T12:00:00,2025-04-01T12:01:00,2.00
46,Patagonia,2025-04-01T20:18:00,2025-04-01T20:18:00,1.00
46,Patagonia,2025-04-02T11:59:00,2025-04-02T12:01:00,3.00
46,Patagonia,2025-04-02T20:17:00,2025-04-02T20:18:00,2.00
46,Patagonia,2025-04-03T11:58:00,2025-04-03T12:00:00,3.00
46,Patagonia,2025-04-03T20:16:00,2025-04-03T20:18:00,3.00
46,Patagonia,2025-04-04T11:58:00,2025-04-04T12:00:00,3.00
46,Patagonia,2025-04-04T20:16:00,2025-04-04T20:18:00,3.00
46,Patagonia,2025-04-05T11:57:00,2025-04-05T11:59:00,3.00
46,Patagonia,2025-04-05T20:15:00,2025-04-05T20:17:00,3.00
46,Patagonia,2025-04-06T11:57:00,2025-04-06T11:58:00,2.00
46,Patagonia,2025-04-06T20:15:00,2025-04-06T20:16:00,2.00
46,Patagonia,2025-04-09T10:17:00,2025-04-09T10:19:00,3.00
46,Patagonia,2025-04-09T18:35:00,2025-04-09T18:36:00,2.00
46,Patagonia,2025-04-10T10:17:00,2025-04-10T10:18:00,2.00
46,Patagonia,2025-04-10T18:34:00,2025-04-10T18:36:00,3.00
46,Patagonia,2025-04-11T10:16:00,2025-04-11T10:18:00,3.00
46,Patagonia,2025-04-11T18:34:00,2025-04-11T18:36:00,3.00
46,Patagonia,2025-04-12T10:15:00,2025-04-12T10:17:00,3.00
46,Patagonia,2025-04-12T18:33:00,2025-04-12T18:35:00,3.00
47,Patagonia,2025-03-30T13:29:00,2025-03-30T13:30:00,2.00
47,Patagonia,2025-03-30T21:47:00,2025-03-30T21:48:00,2.00
47,Patagonia,2025-03-31T13:29:00,2025-03-31T13:29:00,1.00
47,Patagonia,2025-03-31T21:47:00,2025-03-31T21:47:00,1.00
47,Patagonia,2025-04-02T11:50:00,2025-04-02T11:50:00,1.00
47,Patagonia,2025-04-02T20:08:00,2025-04-02T20:08:00,1.00
47,Patagonia,2025-04-03T11:49:00,2025-04-03T11:50:00,2.00
47,Patagonia,2025-04-03T20:07:00,2025-04-03T20:08:00,2.00
47,Patagonia,2025-04-04T11:48:00,2025-04-04T11:50:00,3.00
47,Patagonia,2025-04-04T20:06:00,2025-04-04T20:08:00,3.00
47,Patagonia,2025-04-05T11:48:00,2025-04-05T11:49:00,2.00
47,Patagonia,2025-04-05T20:05:00,2025-04-05T20:07:00,3.00
47,Patagonia,2025-04-06T11:47:00,2025-04-06T11:49:00,3.00
47,Patagonia,2025-04-06T20:05:00,2025-04-06T20:07:00,3.00
47,Patagonia,2025-04-07T11:47:00,2025-04-07T11:48:00,2.00
47,Patagonia,2025-04-07T20:05:00,2025-04-07T20:06:00,2.00
47,Patagonia,2025-04-09T10:08:00,2025-04-09T10:08:00,1.00
47,Patagonia,2025-04-09T18:26:00,2025-04-09T18:26:00,1.00
47,Patagonia,2025-04-10T10:07:00,2025-04-10T10:08:00,2.00
47,Patagonia,2025-04-10T18:25:00,2025-04-10T18:26:00,2.00
