comm_windows_Great_Barrier.csv

sat_id,ground_station,window_start,window_end,duration_min
0,Great_Barrier,2025-03-30T01:30:00,2025-03-30T01:32:00,3.00
0,Great_Barrier,2025-03-30T13:40:00,2025-03-30T13:42:00,3.00
0,Great_Barrier,2025-03-31T01:30:00,2025-03-31T01:31:00,2.00
0,Great_Barrier,2025-03-31T13:39:00,2025-03-31T13:41:00,3.00
0,Great_Barrier,2025-04-01T13:39:00,2025-04-01T13:41:00,3.00
0,Great_Barrier,2025-04-02T13:39:00,2025-04-02T13:40:00,2.00
0,Great_Barrier,2025-04-06T23:52:00,2025-04-06T23:52:00,1.00
0,Great_Barrier,2025-04-07T23:51:00,2025-04-07T23:52:00,2.00
0,Great_Barrier,2025-04-08T23:50:00,2025-04-08T23:52:00,3.00
0,Great_Barrier,2025-04-09T12:00:00,2025-04-09T12:01:00,2.00
0,Great_Barrier,2025-04-09T23:50:00,2025-04-09T23:51:00,2.00
0,Great_Barrier,2025-04-10T11:59:00,2025-04-10T12:01:00,3.00
0,Great_Barrier,2025-04-10T23:50:00,2025-04-10T23:51:00,2.00
0,Great_Barrier,2025-04-11T11:59:00,2025-04-11T12:01:00,3.00
0,Great_Barrier,2025-04-12T11:59:00,2025-04-12T12:00:00,2.00
1,Great_Barrier,2025-03-30T01:21:00,2025-03-30T01:22:00,2.00
1,Great_Barrier,2025-03-30T13:30:00,2025-03-30T13:31:00,2.00
1,Great_Barrier,2025-03-31T01:20:00,2025-03-31T01:22:00,3.00
1,Great_Barrier,2025-03-31T13:30:00,2025-03-31T13:31:00,2.00
1,Great_Barrier,2025-04-01T01:20:00,2025-04-01T01:21:00,2.00
1,Great_Barrier,2025-04-01T13:29:00,2025-04-01T13:31:00,3.00
1,Great_Barrier,2025-04-02T13:29:00,2025-04-02T13:31:00,3.00
1,Great_Barrier,2025-04-03T13:29:00,2025-04-03T13:30:00,2.00
1,Great_Barrier,2025-04-08T23:41:00,2025-04-08T23:42:00,2.00
1,Great_Barrier,2025-04-09T23:40:00,2025-04-09T23:42:00,3.00
1,Great_Barrier,2025-04-10T11:50:00,2025-04-10T11:51:00,2.00
1,Great_Barrier,2025-04-10T23:40:00,2025-04-10T23:41:00,2.00
1,Great_Barrier,2025-04-11T11:49:00,2025-04-11T11:51:00,3.00
1,Great_Barrier,2025-04-11T23:40:00,2025-04-11T23:41:00,2.00
1,Great_Barrier,2025-04-12T11:49:00,2025-04-12T11:51:00,3.00
1,Great_Barrier,2025-04-12T23:40:00,2025-04-12T23:40:00,1.00
2,Great_Barrier,2025-03-30T01:11:00,2025-03-30T01:12:00,2.00
2,Great_Barrier,2025-03-31T01:11:00,2025-03-31T01:12:00,2.00
2,Great_Barrier,2025-03-31T13:20:00,2025-03-31T13:21:00,2.00
2,Great_Barrier,2025-04-01T01:10:00,2025-04-01T01:12:00,3.00
2,Great_Barrier,2025-04-01T13:20:00,2025-04-01T13:21:00,2.00
2,Great_Barrier,2025-04-02T01:10:00,2025-04-02T01:11:00,2.00
2,Great_Barrier,2025-04-02T13:19:00,2025-04-02T13:21:00,3.00
2,Great_Barrier,2025-04-03T13:19:00,2025-04-03T13:21:00,3.00
2,Great_Barrier,2025-04-04T13:19:00,2025-04-04T13:20:00,2.00
2,Great_Barrier,2025-04-09T23:31:00,2025-04-09T23:32:00,2.00
2,Great_Barrier,2025-04-10T23:30:00,2025-04-10T23:32:00,3.00
2,Great_Barrier,2025-04-11T11:40:00,2025-04-11T11:41:00,2.00
2,Great_Barrier,2025-04-11T23:30:00,2025-04-11T23:31:00,2.00
2,Great_Barrier,2025-04-12T11:39:00,2025-04-12T11:41:00,3.00
2,Great_Barrier,2025-04-12T23:29:00,2025-04-12T23:31:00,3.00
3,Great_Barrier,2025-03-30T01:02:00,2025-03-30T01:02:00,1.00
3,Great_Barrier,2025-03-31T01:01:00,2025-03-31T01:02:00,2.00
3,Great_Barrier,2025-04-01T01:01:00,2025-04-01T01:02:00,2.00
3,Great_Barrier,2025-04-01T13:11:00,2025-04-01T13:11:00,1.00
3,Great_Barrier,2025-04-02T01:00:00,2025-04-02T01:02:00,3.00
3,Great_Barrier,2025-04-02T13:10:00,2025-04-02T13:11:00,2.00
3,Great_Barrier,2025-04-03T01:00:00,2025-04-03T01:01:00,2.00
3,Great_Barrier,2025-04-03T13:09:00,2025-04-03T13:11:00,3.00
3,Great_Barrier,2025-04-04T01:00:00,2025-04-04T01:00:00,1.00
3,Great_Barrier,2025-04-04T13:09:00,2025-04-04T13:11:00,3.00
3,Great_Barrier,2025-04-05T13:09:00,2025-04-05T13:10:00,2.00
3,Great_Barrier,2025-04-10T23:21:00,2025-04-10T23:22:00,2.00
3,Great_Barrier,2025-04-11T23:20:00,2025-04-11T23:22:00,3.00
3,Great_Barrier,2025-04-12T11:30:00,2025-04-12T11:31:00,2.00
3,Great_Barrier,2025-04-12T23:20:00,2025-04-12T23:21:00,2.00
4,Great_Barrier,2025-04-01T00:51:00,2025-04-01T00:52:00,2.00
4,Great_Barrier,2025-04-02T00:51:00,2025-04-02T00:52:00,2.00
4,Great_Barrier,2025-04-02T13:01:00,2025-04-02T13:01:00,1.00
4,Great_Barrier,2025-04-03T00:50:00,2025-04-03T00:52:00,3.00
4,Great_Barrier,2025-04-03T13:00:00,2025-04-03T13:01:00,2.00
4,Great_Barrier,2025-04-04T00:50:00,2025-04-04T00:51:00,2.00
4,Great_Barrier,2025-04-04T12:59:00,2025-04-04T13:01:00,3.00
4,Great_Barrier,2025-04-05T00:50:00,2025-04-05T00:50:00,1.00
4,Great_Barrier,2025-04-05T12:59:00,2025-04-05T13:01:00,3.00
4,Great_Barrier,2025-04-06T12:59:00,2025-04-06T13:00:00,2.00
4,Great_Barrier,2025-04-11T23:11:00,2025-04-11T23:12:00,2.00
4,Great_Barrier,2025-04-12T23:10:00,2025-04-12T23:12:00,3.00
5,Great_Barrier,2025-04-02T00:41:00,2025-04-02T00:42:00,2.00
5,Great_Barrier,2025-04-03T00:41:00,2025-04-03T00:42:00,2.00
5,Great_Barrier,2025-04-03T12:51:00,2025-04-03T12:51:00,1.00
5,Great_Barrier,2025-04-04T00:40:00,2025-04-04T00:42:00,3.00
5,Great_Barrier,2025-04-04T12:50:00,2025-04-04T12:51:00,2.00
5,Great_Barrier,2025-04-05T00:40:00,2025-04-05T00:41:00,2.00
5,Great_Barrier,2025-04-05T12:49:00,2025-04-05T12:51:00,3.00
5,Great_Barrier,2025-04-06T00:40:00,2025-04-06T00:41:00,2.00
5,Great_Barrier,2025-04-06T12:49:00,2025-04-06T12:51:00,3.00
5,Great_Barrier,2025-04-07T12:49:00,2025-04-07T12:50:00,2.00
5,Great_Barrier,2025-04-12T23:01:00,2025-04-12T23:02:00,2.00
6,Great_Barrier,2025-04-03T00:31:00,2025-04-03T00:32:00,2.00
6,Great_Barrier,2025-04-04T00:31:00,2025-04-04T00:32:00,2.00
6,Great_Barrier,2025-04-04T12:41:00,2025-04-04T12:41:00,1.00
6,Great_Barrier,2025-04-05T00:30:00,2025-04-05T00:32:00,3.00
6,Great_Barrier,2025-04-05T12:40:00,2025-04-05T12:41:00,2.00
6,Great_Barrier,2025-04-06T00:30:00,2025-04-06T00:31:00,2.00
6,Great_Barrier,2025-04-06T12:39:00,2025-04-06T12:41:00,3.00
6,Great_Barrier,2025-04-07T00:30:00,2025-04-07T00:31:00,2.00
6,Great_Barrier,2025-04-07T12:39:00,2025-04-07T12:41:00,3.00
6,Great_Barrier,2025-04-08T12:39:00,2025-04-08T12:40:00,2.00
7,Great_Barrier,2025-04-04T00:21:00,2025-04-04T00:22:00,2.00
7,Great_Barrier,2025-04-05T00:21:00,2025-04-05T00:22:00,2.00
7,Great_Barrier,2025-04-05T12:31:00,2025-04-05T12:31:00,1.00
7,Great_Barrier,2025-04-06T00:20:00,2025-04-06T00:22:00,3.00
7,Great_Barrier,2025-04-06T12:30:00,2025-04-06T12:31:00,2.00
7,Great_Barrier,2025-04-07T00:20:00,2025-04-07T00:21:00,2.00
7,Great_Barrier,2025-04-07T12:29:00,2025-04-07T12:31:00,3.00
7,Great_Barrier,2025-04-08T00:20:00,2025-04-08T00:21:00,2.00
7,Great_Barrier,2025-04-08T12:29:00,2025-04-08T12:31:00,3.00
7,Great_Barrier,2025-04-09T12:29:00,2025-04-09T12:30:00,2.00
7,Great_Barrier,2025-04-10T12:29:00,2025-04-10T12:29:00,1.00
8,Great_Barrier,2025-03-30T13:59:00,2025-03-30T14:01:00,3.00
8,Great_Barrier,2025-04-05T00:11:00,2025-04-05T00:12:00,2.00
8,Great_Barrier,2025-04-06T00:11:00,2025-04-06T00:12:00,2.00
8,Great_Barrier,2025-04-07T00:10:00,2025-04-07T00:12:00,3.00
8,Great_Barrier,2025-04-07T12:20:00,2025-04-07T12:21:00,2.00
8,Great_Barrier,2025-04-08T00:10:00,2025-04-08T00:11:00,2.00
8,Great_Barrier,2025-04-08T12:19:00,2025-04-08T12:21:00,3.00
8,Great_Barrier,2025-04-09T00:10:00,2025-04-09T00:11:00,2.00
8,Great_Barrier,2025-04-09T12:19:00,2025-04-09T12:21:00,3.00
8,Great_Barrier,2025-04-10T12:19:00,2025-04-10T12:20:00,2.00
8,Great_Barrier,2025-04-11T12:19:00,2025-04-11T12:19:00,1.00
9,Great_Barrier,2025-03-30T01:40:00,2025-03-30T01:41:00,2.00
9,Great_Barrier,2025-03-30T13:49:00,2025-03-30T13:51:00,3.00
9,Great_Barrier,2025-03-31T13:49:00,2025-03-31T13:51:00,3.00
9,Great_Barrier,2025-04-01T13:50:00,2025-04-01T13:50:00,1.00
9,Great_Barrier,2025-04-06T00:01:00,2025-04-06T00:02:00,2.00
9,Great_Barrier,2025-04-07T00:01:00,2025-04-07T00:02:00,2.00
9,Great_Barrier,2025-04-08T00:00:00,2025-04-08T00:02:00,3.00
9,Great_Barrier,2025-04-08T12:10:00,2025-04-08T12:11:00,2.00
9,Great_Barrier,2025-04-09T00:00:00,2025-04-09T00:01:00,2.00
9,Great_Barrier,2025-04-09T12:09:00,2025-04-09T12:11:00,3.00
9,Great_Barrier,2025-04-10T00:00:00,2025-04-10T00:01:00,2.00
9,Great_Barrier,2025-04-10T12:09:00,2025-04-10T12:11:00,3.00
9,Great_Barrier,2025-04-11T12:09:00,2025-04-11T12:10:00,2.00
9,Great_Barrier,2025-04-12T12:09:00,2025-04-12T12:09:00,1.00
10,Great_Barrier,2025-03-30T15:16:00,2025-03-30T15:17:00,2.00
10,Great_Barrier,2025-04-05T01:27:00,2025-04-05T01:29:00,3.00
10,Great_Barrier,2025-04-06T01:27:00,2025-04-06T01:29:00,3.00
10,Great_Barrier,2025-04-06T13:37:00,2025-04-06T13:38:00,2.00
10,Great_Barrier,2025-04-07T01:26:00,2025-04-07T01:28:00,3.00
10,Great_Barrier,2025-04-07T13:36:00,2025-04-07T13:38:00,3.00
10,Great_Barrier,2025-04-08T01:26:00,2025-04-08T01:28:00,3.00
10,Great_Barrier,2025-04-08T13:36:00,2025-04-08T13:37:00,2.00
10,Great_Barrier,2025-04-09T01:27:00,2025-04-09T01:27:00,1.00
10,Great_Barrier,2025-04-09T13:35:00,2025-04-09T13:37:00,3.00
10,Great_Barrier,2025-04-10T13:35:00,2025-04-10T13:36:00,2.00
11,Great_Barrier,2025-03-30T02:57:00,2025-03-30T02:57:00,1.00
11,Great_Barrier,2025-03-30T15:06:00,2025-03-30T15:07:00,2.00
11,Great_Barrier,2025-03-31T15:06:00,2025-03-31T15:07:00,2.00
11,Great_Barrier,2025-04-06T01:17:00,2025-04-06T01:19:00,3.00
11,Great_Barrier,2025-04-07T01:17:00,2025-04-07T01:18:00,2.00
11,Great_Barrier,2025-04-07T13:27:00,2025-04-07T13:27:00,1.00
11,Great_Barrier,2025-04-08T01:16:00,2025-04-08T01:18:00,3.00
11,Great_Barrier,2025-04-08T13:26:00,2025-04-08T13:28:00,3.00
11,Great_Barrier,2025-04-09T01:16:00,2025-04-09T01:18:00,3.00
11,Great_Barrier,2025-04-09T13:25:00,2025-04-09T13:27:00,3.00
11,Great_Barrier,2025-04-10T01:16:00,2025-04-10T01:17:00,2.00
11,Great_Barrier,2025-04-10T13:25:00,2025-04-10T13:27:00,3.00
11,Great_Barrier,2025-04-11T13:25:00,2025-04-11T13:26:00,2.00
12,Great_Barrier,2025-03-30T02:47:00,2025-03-30T02:48:00,2.00
12,Great_Barrier,2025-03-30T14:56:00,2025-03-30T14:58:00,3.00
12,Great_Barrier,2025-03-31T02:47:00,2025-03-31T02:47:00,1.00
12,Great_Barrier,2025-03-31T14:56:00,2025-03-31T14:57:00,2.00
12,Great_Barrier,2025-04-01T14:56:00,2025-04-01T14:57:00,2.00
12,Great_Barrier,2025-04-07T01:07:00,2025-04-07T01:08:00,2.00
12,Great_Barrier,2025-04-08T01:07:00,2025-04-08T01:08:00,2.00
12,Great_Barrier,2025-04-08T13:17:00,2025-04-08T13:17:00,1.00
12,Great_Barrier,2025-04-09T01:06:00,2025-04-09T01:08:00,3.00
12,Great_Barrier,2025-04-09T13:16:00,2025-04-09T13:17:00,2.00
12,Great_Barrier,2025-04-10T01:06:00,2025-04-10T01:08:00,3.00
12,Great_Barrier,2025-04-10T13:15:00,2025-04-10T13:17:00,3.00
12,Great_Barrier,2025-04-11T01:06:00,2025-04-11T01:07:00,2.00
12,Great_Barrier,2025-04-11T13:15:00,2025-04-11T13:17:00,3.00
12,Great_Barrier,2025-04-12T13:15:00,2025-04-12T13:16:00,2.00
13,Great_Barrier,2025-03-30T02:37:00,2025-03-30T02:39:00,3.00
13,Great_Barrier,2025-03-30T14:47:00,2025-03-30T14:48:00,2.00
13,Great_Barrier,2025-03-31T02:37:00,2025-03-31T02:38:00,2.00
13,Great_Barrier,2025-03-31T14:46:00,2025-03-31T14:48:00,3.00
13,Great_Barrier,2025-04-01T02:37:00,2025-04-01T02:37:00,1.00
13,Great_Barrier,2025-04-01T14:46:00,2025-04-01T14:47:00,2.00
13,Great_Barrier,2025-04-02T14:46:00,2025-04-02T14:47:00,2.00
13,Great_Barrier,2025-04-08T00:57:00,2025-04-08T00:58:00,2.00
13,Great_Barrier,2025-04-09T00:57:00,2025-04-09T00:58:00,2.00
13,Great_Barrier,2025-04-09T13:07:00,2025-04-09T13:07:00,1.00
13,Great_Barrier,2025-04-10T00:56:00,2025-04-10T00:58:00,3.00
13,Great_Barrier,2025-04-10T13:06:00,2025-04-10T13:07:00,2.00
13,Great_Barrier,2025-04-11T00:56:00,2025-04-11T00:58:00,3.00
13,Great_Barrier,2025-04-11T13:05:00,2025-04-11T13:07:00,3.00
13,Great_Barrier,2025-04-12T00:56:00,2025-04-12T00:57:00,2.00
13,Great_Barrier,2025-04-12T13:05:00,2025-04-12T13:07:00,3.00
14,Great_Barrier,2025-03-30T02:27:00,2025-03-30T02:29:00,3.00
14,Great_Barrier,2025-03-30T14:38:00,2025-03-30T14:38:00,1.00
14,Great_Barrier,2025-03-31T02:27:00,2025-03-31T02:29:00,3.00
14,Great_Barrier,2025-03-31T14:37:00,2025-03-31T14:38:00,2.00
14,Great_Barrier,2025-04-01T02:27:00,2025-04-01T02:28:00,2.00
14,Great_Barrier,2025-04-01T14:36:00,2025-04-01T14:38:00,3.00
14,Great_Barrier,2025-04-02T02:27:00,2025-04-02T02:27:00,1.00
14,Great_Barrier,2025-04-02T14:36:00,2025-04-02T14:37:00,2.00
14,Great_Barrier,2025-04-03T14:36:00,2025-04-03T14:37:00,2.00
14,Great_Barrier,2025-04-09T00:48:00,2025-04-09T00:48:00,1.00
14,Great_Barrier,2025-04-10T00:47:00,2025-04-10T00:48:00,2.00
14,Great_Barrier,2025-04-10T12:57:00,2025-04-10T12:57:00,1.00
14,Great_Barrier,2025-04-11T00:46:00,2025-04-11T00:48:00,3.00
14,Great_Barrier,2025-04-11T12:56:00,2025-04-11T12:57:00,2.00
14,Great_Barrier,2025-04-12T00:46:00,2025-04-12T00:48:00,3.00
14,Great_Barrier,2025-04-12T12:55:00,2025-04-12T12:57:00,3.00
15,Great_Barrier,2025-03-30T02:18:00,2025-03-30T02:19:00,2.00
15,Great_Barrier,2025-03-31T02:17:00,2025-03-31T02:19:00,3.00
15,Great_Barrier,2025-03-31T14:28:00,2025-03-31T14:28:00,1.00
15,Great_Barrier,2025-04-01T02:17:00,2025-04-01T02:19:00,3.00
15,Great_Barrier,2025-04-01T14:27:00,2025-04-01T14:28:00,2.00
15,Great_Barrier,2025-04-02T02:17:00,2025-04-02T02:18:00,2.00
15,Great_Barrier,2025-04-02T14:26:00,2025-04-02T14:28:00,3.00
15,Great_Barrier,2025-04-03T02:17:00,2025-04-03T02:17:00,1.00
15,Great_Barrier,2025-04-03T14:26:00,2025-04-03T14:27:00,2.00
15,Great_Barrier,2025-04-04T14:26:00,2025-04-04T14:27:00,2.00
15,Great_Barrier,2025-04-05T14:26:00,2025-04-05T14:26:00,1.00
15,Great_Barrier,2025-04-10T00:38:00,2025-04-10T00:38:00,1.00
15,Great_Barrier,2025-04-11T00:37:00,2025-04-11T00:38:00,2.00
15,Great_Barrier,2025-04-12T00:36:00,2025-04-12T00:38:00,3.00
15,Great_Barrier,2025-04-12T12:46:00,2025-04-12T12:47:00,2.00
16,Great_Barrier,2025-03-31T02:08:00,2025-03-31T02:09:00,2.00
16,Great_Barrier,2025-04-01T02:07:00,2025-04-01T02:09:00,3.00
16,Great_Barrier,2025-04-02T02:07:00,2025-04-02T02:09:00,3.00
16,Great_Barrier,2025-04-02T14:17:00,2025-04-02T14:18:00,2.00
16,Great_Barrier,2025-04-03T02:07:00,2025-04-03T02:08:00,2.00
16,Great_Barrier,2025-04-03T14:16:00,2025-04-03T14:18:00,3.00
16,Great_Barrier,2025-04-04T02:07:00,2025-04-04T02:08:00,2.00
16,Great_Barrier,2025-04-04T14:16:00,2025-04-04T14:17:00,2.00
16,Great_Barrier,2025-04-05T14:15:00,2025-04-05T14:17:00,3.00
16,Great_Barrier,2025-04-06T14:16:00,2025-04-06T14:16:00,1.00
16,Great_Barrier,2025-04-11T00:28:00,2025-04-11T00:28:00,1.00
16,Great_Barrier,2025-04-12T00:27:00,2025-04-12T00:28:00,2.00
17,Great_Barrier,2025-04-01T01:58:00,2025-04-01T01:59:00,2.00
17,Great_Barrier,2025-04-02T01:57:00,2025-04-02T01:59:00,3.00
17,Great_Barrier,2025-04-03T01:57:00,2025-04-03T01:59:00,3.00
17,Great_Barrier,2025-04-03T14:07:00,2025-04-03T14:08:00,2.00
17,Great_Barrier,2025-04-04T01:56:00,2025-04-04T01:58:00,3.00
17,Great_Barrier,2025-04-04T14:06:00,2025-04-04T14:08:00,3.00
17,Great_Barrier,2025-04-05T01:56:00,2025-04-05T01:58:00,3.00
17,Great_Barrier,2025-04-05T14:06:00,2025-04-05T14:07:00,2.00
17,Great_Barrier,2025-04-06T14:05:00,2025-04-06T14:07:00,3.00
17,Great_Barrier,2025-04-07T14:06:00,2025-04-07T14:06:00,1.00
17,Great_Barrier,2025-04-12T00:18:00,2025-04-12T00:18:00,1.00
18,Great_Barrier,2025-04-02T01:48:00,2025-04-02T01:48:00,1.00
18,Great_Barrier,2025-04-03T01:47:00,2025-04-03T01:49:00,3.00
18,Great_Barrier,2025-04-04T01:47:00,2025-04-04T01:49:00,3.00
18,Great_Barrier,2025-04-04T13:57:00,2025-04-04T13:58:00,2.00
18,Great_Barrier,2025-04-05T01:46:00,2025-04-05T01:48:00,3.00
18,Great_Barrier,2025-04-05T13:56:00,2025-04-05T13:58:00,3.00
18,Great_Barrier,2025-04-06T01:46:00,2025-04-06T01:48:00,3.00
18,Great_Barrier,2025-04-06T13:56:00,2025-04-06T13:57:00,2.00
18,Great_Barrier,2025-04-07T13:55:00,2025-04-07T13:57:00,3.00
18,Great_Barrier,2025-04-08T13:56:00,2025-04-08T13:56:00,1.00
19,Great_Barrier,2025-04-03T01:38:00,2025-04-03T01:38:00,1.00
19,Great_Barrier,2025-04-04T01:37:00,2025-04-04T01:39:00,3.00
19,Great_Barrier,2025-04-05T01:37:00,2025-04-05T01:39:00,3.00
19,Great_Barrier,2025-04-05T13:47:00,2025-04-05T13:48:00,2.00
19,Great_Barrier,2025-04-06T01:36:00,2025-04-06T01:38:00,3.00
19,Great_Barrier,2025-04-06T13:46:00,2025-04-06T13:48:00,3.00
19,Great_Barrier,2025-04-07T01:36:00,2025-04-07T01:38:00,3.00
19,Great_Barrier,2025-04-07T13:46:00,2025-04-07T13:47:00,2.00
19,Great_Barrier,2025-04-08T13:45:00,2025-04-08T13:47:00,3.00
19,Great_Barrier,2025-04-09T13:45:00,2025-04-09T13:46:00,2.00
20,Great_Barrier,2025-03-31T03:04:00,2025-03-31T03:05:00,2.00
20,Great_Barrier,2025-04-01T03:03:00,2025-04-01T03:05:00,3.00
20,Great_Barrier,2025-04-02T03:03:00,2025-04-02T03:04:00,2.00
20,Great_Barrier,2025-04-03T15:11:00,2025-04-03T15:13:00,3.00
20,Great_Barrier,2025-04-04T15:11:00,2025-04-04T15:12:00,2.00
20,Great_Barrier,2025-04-05T15:10:00,2025-04-05T15:12:00,3.00
20,Great_Barrier,2025-04-07T01:22:00,2025-04-07T01:23:00,2.00
20,Great_Barrier,2025-04-08T01:21:00,2025-04-08T01:23:00,3.00
20,Great_Barrier,2025-04-09T01:21:00,2025-04-09T01:22:00,2.00
20,Great_Barrier,2025-04-10T01:21:00,2025-04-10T01:21:00,1.00
20,Great_Barrier,2025-04-10T13:30:00,2025-04-10T13:31:00,2.00
20,Great_Barrier,2025-04-11T13:29:00,2025-04-11T13:30:00,2.00
20,Great_Barrier,2025-04-12T13:28:00,2025-04-12T13:30:00,3.00
21,Great_Barrier,2025-03-30T16:42:00,2025-03-30T16:42:00,1.00
21,Great_Barrier,2025-04-01T02:53:00,2025-04-01T02:55:00,3.00
21,Great_Barrier,2025-04-02T02:53:00,2025-04-02T02:55:00,3.00
21,Great_Barrier,2025-04-03T02:53:00,2025-04-03T02:54:00,2.00
21,Great_Barrier,2025-04-03T15:02:00,2025-04-03T15:02:00,1.00
21,Great_Barrier,2025-04-04T15:01:00,2025-04-04T15:03:00,3.00
21,Great_Barrier,2025-04-05T15:00:00,2025-04-05T15:02:00,3.00
21,Great_Barrier,2025-04-06T15:00:00,2025-04-06T15:01:00,2.00
21,Great_Barrier,2025-04-08T01:12:00,2025-04-08T01:13:00,2.00
21,Great_Barrier,2025-04-09T01:11:00,2025-04-09T01:13:00,3.00
21,Great_Barrier,2025-04-10T01:10:00,2025-04-10T01:12:00,3.00
21,Great_Barrier,2025-04-11T13:19:00,2025-04-11T13:20:00,2.00
21,Great_Barrier,2025-04-12T13:18:00,2025-04-12T13:20:00,3.00
22,Great_Barrier,2025-03-30T16:32:00,2025-03-30T16:33:00,2.00
22,Great_Barrier,2025-04-01T02:44:00,2025-04-01T02:45:00,2.00
22,Great_Barrier,2025-04-02T02:43:00,2025-04-02T02:45:00,3.00
22,Great_Barrier,2025-04-03T02:42:00,2025-04-03T02:44:00,3.00
22,Great_Barrier,2025-04-04T02:42:00,2025-04-04T02:43:00,2.00
22,Great_Barrier,2025-04-04T14:52:00,2025-04-04T14:52:00,1.00
22,Great_Barrier,2025-04-05T14:50:00,2025-04-05T14:52:00,3.00
22,Great_Barrier,2025-04-06T14:50:00,2025-04-06T14:52:00,3.00
22,Great_Barrier,2025-04-07T14:50:00,2025-04-07T14:50:00,1.00
22,Great_Barrier,2025-04-09T01:01:00,2025-04-09T01:03:00,3.00
22,Great_Barrier,2025-04-10T01:00:00,2025-04-10T01:02:00,3.00
22,Great_Barrier,2025-04-11T01:00:00,2025-04-11T01:01:00,2.00
22,Great_Barrier,2025-04-11T13:10:00,2025-04-11T13:10:00,1.00
22,Great_Barrier,2025-04-12T13:09:00,2025-04-12T13:10:00,2.00
23,Great_Barrier,2025-03-30T16:22:00,2025-03-30T16:24:00,3.00
23,Great_Barrier,2025-03-31T16:22:00,2025-03-31T16:23:00,2.00
23,Great_Barrier,2025-04-02T02:34:00,2025-04-02T02:35:00,2.00
23,Great_Barrier,2025-04-03T02:33:00,2025-04-03T02:34:00,2.00
23,Great_Barrier,2025-04-04T02:32:00,2025-04-04T02:34:00,3.00
23,Great_Barrier,2025-04-05T14:41:00,2025-04-05T14:42:00,2.00
23,Great_Barrier,2025-04-06T14:40:00,2025-04-06T14:42:00,3.00
23,Great_Barrier,2025-04-07T14:40:00,2025-04-07T14:41:00,2.00
23,Great_Barrier,2025-04-09T00:52:00,2025-04-09T00:52:00,1.00
23,Great_Barrier,2025-04-10T00:51:00,2025-04-10T00:52:00,2.00
23,Great_Barrier,2025-04-11T00:50:00,2025-04-11T00:52:00,3.00
23,Great_Barrier,2025-04-12T00:50:00,2025-04-12T00:51:00,2.00
23,Great_Barrier,2025-04-12T12:59:00,2025-04-12T13:00:00,2.00
24,Great_Barrier,2025-03-30T16:12:00,2025-03-30T16:14:00,3.00
24,Great_Barrier,2025-03-31T16:12:00,2025-03-31T16:13:00,2.00
24,Great_Barrier,2025-04-01T16:12:00,2025-04-01T16:12:00,1.00
24,Great_Barrier,2025-04-03T02:23:00,2025-04-03T02:24:00,2.00
24,Great_Barrier,2025-04-04T02:22:00,2025-04-04T02:24:00,3.00
24,Great_Barrier,2025-04-05T02:22:00,2025-04-05T02:23:00,2.00
24,Great_Barrier,2025-04-06T14:30:00,2025-04-06T14:32:00,3.00
24,Great_Barrier,2025-04-07T14:30:00,2025-04-07T14:32:00,3.00
24,Great_Barrier,2025-04-08T14:29:00,2025-04-08T14:31:00,3.00
24,Great_Barrier,2025-04-10T00:41:00,2025-04-10T00:42:00,2.00
24,Great_Barrier,2025-04-11T00:40:00,2025-04-11T00:42:00,3.00
24,Great_Barrier,2025-04-12T00:40:00,2025-04-12T00:42:00,3.00
25,Great_Barrier,2025-03-30T03:54:00,2025-03-30T03:54:00,1.00
25,Great_Barrier,2025-03-30T16:03:00,2025-03-30T16:04:00,2.00
25,Great_Barrier,2025-03-31T16:02:00,2025-03-31T16:04:00,3.00
25,Great_Barrier,2025-04-01T16:01:00,2025-04-01T16:03:00,3.00
25,Great_Barrier,2025-04-03T02:14:00,2025-04-03T02:14:00,1.00
25,Great_Barrier,2025-04-04T02:13:00,2025-04-04T02:14:00,2.00
25,Great_Barrier,2025-04-05T02:12:00,2025-04-05T02:14:00,3.00
25,Great_Barrier,2025-04-06T02:12:00,2025-04-06T02:13:00,2.00
25,Great_Barrier,2025-04-06T14:21:00,2025-04-06T14:21:00,1.00
25,Great_Barrier,2025-04-07T14:20:00,2025-04-07T14:22:00,3.00
25,Great_Barrier,2025-04-08T14:19:00,2025-04-08T14:21:00,3.00
25,Great_Barrier,2025-04-09T14:19:00,2025-04-09T14:20:00,2.00
25,Great_Barrier,2025-04-11T00:31:00,2025-04-11T00:32:00,2.00
25,Great_Barrier,2025-04-12T00:30:00,2025-04-12T00:32:00,3.00
26,Great_Barrier,2025-03-30T03:44:00,2025-03-30T03:45:00,2.00
26,Great_Barrier,2025-03-31T15:52:00,2025-03-31T15:54:00,3.00
26,Great_Barrier,2025-04-01T15:51:00,2025-04-01T15:53:00,3.00
26,Great_Barrier,2025-04-02T15:51:00,2025-04-02T15:52:00,2.00
26,Great_Barrier,2025-04-04T02:03:00,2025-04-04T02:04:00,2.00
26,Great_Barrier,2025-04-05T02:02:00,2025-04-05T02:04:00,3.00
26,Great_Barrier,2025-04-06T02:02:00,2025-04-06T02:03:00,2.00
26,Great_Barrier,2025-04-07T02:02:00,2025-04-07T02:02:00,1.00
26,Great_Barrier,2025-04-07T14:11:00,2025-04-07T14:11:00,1.00
26,Great_Barrier,2025-04-08T14:09:00,2025-04-08T14:11:00,3.00
26,Great_Barrier,2025-04-09T14:09:00,2025-04-09T14:11:00,3.00
26,Great_Barrier,2025-04-10T14:09:00,2025-04-10T14:09:00,1.00
26,Great_Barrier,2025-04-12T00:20:00,2025-04-12T00:22:00,3.00
27,Great_Barrier,2025-03-30T03:34:00,2025-03-30T03:36:00,3.00
27,Great_Barrier,2025-03-31T03:33:00,2025-03-31T03:35:00,3.00
27,Great_Barrier,2025-03-31T15:43:00,2025-03-31T15:43:00,1.00
27,Great_Barrier,2025-04-01T15:42:00,2025-04-01T15:43:00,2.00
27,Great_Barrier,2025-04-02T15:41:00,2025-04-02T15:43:00,3.00
27,Great_Barrier,2025-04-03T15:41:00,2025-04-03T15:42:00,2.00
27,Great_Barrier,2025-04-05T01:53:00,2025-04-05T01:54:00,2.00
27,Great_Barrier,2025-04-06T01:52:00,2025-04-06T01:54:00,3.00
27,Great_Barrier,2025-04-07T01:51:00,2025-04-07T01:53:00,3.00
27,Great_Barrier,2025-04-08T14:00:00,2025-04-08T14:01:00,2.00
27,Great_Barrier,2025-04-09T13:59:00,2025-04-09T14:01:00,3.00
27,Great_Barrier,2025-04-10T13:59:00,2025-04-10T14:00:00,2.00
27,Great_Barrier,2025-04-12T00:11:00,2025-04-12T00:12:00,2.00
28,Great_Barrier,2025-03-30T03:24:00,2025-03-30T03:26:00,3.00
28,Great_Barrier,2025-03-31T03:23:00,2025-03-31T03:25:00,3.00
28,Great_Barrier,2025-04-01T03:23:00,2025-04-01T03:24:00,2.00
28,Great_Barrier,2025-04-01T15:32:00,2025-04-01T15:33:00,2.00
28,Great_Barrier,2025-04-02T15:31:00,2025-04-02T15:33:00,3.00
28,Great_Barrier,2025-04-03T15:31:00,2025-04-03T15:32:00,2.00
28,Great_Barrier,2025-04-04T15:31:00,2025-04-04T15:31:00,1.00
28,Great_Barrier,2025-04-06T01:42:00,2025-04-06T01:44:00,3.00
28,Great_Barrier,2025-04-07T01:41:00,2025-04-07T01:43:00,3.00
28,Great_Barrier,2025-04-08T01:41:00,2025-04-08T01:42:00,2.00
28,Great_Barrier,2025-04-09T13:49:00,2025-04-09T13:51:00,3.00
28,Great_Barrier,2025-04-10T13:49:00,2025-04-10T13:51:00,3.00
28,Great_Barrier,2025-04-11T13:49:00,2025-04-11T13:50:00,2.00
28,Great_Barrier,2025-04-13T00:00:00,2025-04-13T00:00:00,1.00
29,Great_Barrier,2025-03-30T03:15:00,2025-03-30T03:15:00,1.00
29,Great_Barrier,2025-03-31T03:14:00,2025-03-31T03:15:00,2.00
29,Great_Barrier,2025-04-01T03:13:00,2025-04-01T03:15:00,3.00
29,Great_Barrier,2025-04-02T03:13:00,2025-04-02T03:13:00,1.00
29,Great_Barrier,2025-04-02T15:22:00,2025-04-02T15:23:00,2.00
29,Great_Barrier,2025-04-03T15:21:00,2025-04-03T15:23:00,3.00
29,Great_Barrier,2025-04-04T15:20:00,2025-04-04T15:22:00,3.00
29,Great_Barrier,2025-04-06T01:33:00,2025-04-06T01:33:00,1.00
29,Great_Barrier,2025-04-07T01:32:00,2025-04-07T01:33:00,2.00
29,Great_Barrier,2025-04-08T01:31:00,2025-04-08T01:33:00,3.00
29,Great_Barrier,2025-04-09T01:31:00,2025-04-09T01:32:00,2.00
29,Great_Barrier,2025-04-09T13:40:00,2025-04-09T13:41:00,2.00
29,Great_Barrier,2025-04-10T13:39:00,2025-04-10T13:41:00,3.00
29,Great_Barrier,2025-04-11T13:38:00,2025-04-11T13:40:00,3.00
29,Great_Barrier,2025-04-12T13:38:00,2025-04-12T13:39:00,2.00
30,Great_Barrier,2025-03-30T04:40:00,2025-03-30T04:42:00,3.00
30,Great_Barrier,2025-03-31T04:40:00,2025-03-31T04:41:00,2.00
30,Great_Barrier,2025-04-01T16:49:00,2025-04-01T16:50:00,2.00
30,Great_Barrier,2025-04-02T16:48:00,2025-04-02T16:50:00,3.00
30,Great_Barrier,2025-04-03T16:47:00,2025-04-03T16:49:00,3.00
30,Great_Barrier,2025-04-05T03:00:00,2025-04-05T03:00:00,1.00
30,Great_Barrier,2025-04-06T02:58:00,2025-04-06T03:00:00,3.00
30,Great_Barrier,2025-04-07T02:58:00,2025-04-07T03:00:00,3.00
30,Great_Barrier,2025-04-08T02:58:00,2025-04-08T02:58:00,1.00
30,Great_Barrier,2025-04-08T15:07:00,2025-04-08T15:08:00,2.00
30,Great_Barrier,2025-04-09T15:06:00,2025-04-09T15:08:00,3.00
30,Great_Barrier,2025-04-10T15:05:00,2025-04-10T15:07:00,3.00
30,Great_Barrier,2025-04-11T15:05:00,2025-04-11T15:06:00,2.00
31,Great_Barrier,2025-03-30T04:31:00,2025-03-30T04:32:00,2.00
31,Great_Barrier,2025-03-31T04:30:00,2025-03-31T04:32:00,3.00
31,Great_Barrier,2025-04-01T04:30:00,2025-04-01T04:31:00,2.00
31,Great_Barrier,2025-04-02T16:38:00,2025-04-02T16:40:00,3.00
31,Great_Barrier,2025-04-03T16:37:00,2025-04-03T16:39:00,3.00
31,Great_Barrier,2025-04-04T16:37:00,2025-04-04T16:38:00,2.00
31,Great_Barrier,2025-04-06T02:49:00,2025-04-06T02:50:00,2.00
31,Great_Barrier,2025-04-07T02:48:00,2025-04-07T02:50:00,3.00
31,Great_Barrier,2025-04-08T02:47:00,2025-04-08T02:49:00,3.00
31,Great_Barrier,2025-04-09T02:48:00,2025-04-09T02:48:00,1.00
31,Great_Barrier,2025-04-09T14:56:00,2025-04-09T14:57:00,2.00
31,Great_Barrier,2025-04-10T14:55:00,2025-04-10T14:57:00,3.00
31,Great_Barrier,2025-04-11T14:55:00,2025-04-11T14:56:00,2.00
32,Great_Barrier,2025-03-30T04:22:00,2025-03-30T04:22:00,1.00
32,Great_Barrier,2025-03-31T04:20:00,2025-03-31T04:22:00,3.00
32,Great_Barrier,2025-04-01T04:20:00,2025-04-01T04:21:00,2.00
32,Great_Barrier,2025-04-02T04:19:00,2025-04-02T04:20:00,2.00
32,Great_Barrier,2025-04-02T16:29:00,2025-04-02T16:29:00,1.00
32,Great_Barrier,2025-04-03T16:28:00,2025-04-03T16:29:00,2.00
32,Great_Barrier,2025-04-04T16:27:00,2025-04-04T16:29:00,3.00
32,Great_Barrier,2025-04-05T16:27:00,2025-04-05T16:28:00,2.00
32,Great_Barrier,2025-04-07T02:38:00,2025-04-07T02:40:00,3.00
32,Great_Barrier,2025-04-08T02:38:00,2025-04-08T02:39:00,2.00
32,Great_Barrier,2025-04-09T02:37:00,2025-04-09T02:39:00,3.00
32,Great_Barrier,2025-04-10T14:46:00,2025-04-10T14:47:00,2.00
32,Great_Barrier,2025-04-11T14:45:00,2025-04-11T14:47:00,3.00
32,Great_Barrier,2025-04-12T14:45:00,2025-04-12T14:46:00,2.00
33,Great_Barrier,2025-03-31T04:11:00,2025-03-31T04:12:00,2.00
33,Great_Barrier,2025-04-01T04:10:00,2025-04-01T04:12:00,3.00
33,Great_Barrier,2025-04-02T04:09:00,2025-04-02T04:11:00,3.00
33,Great_Barrier,2025-04-03T04:09:00,2025-04-03T04:10:00,2.00
33,Great_Barrier,2025-04-03T16:18:00,2025-04-03T16:19:00,2.00
33,Great_Barrier,2025-04-04T16:17:00,2025-04-04T16:19:00,3.00
33,Great_Barrier,2025-04-05T16:17:00,2025-04-05T16:18:00,2.00
33,Great_Barrier,2025-04-06T16:17:00,2025-04-06T16:17:00,1.00
33,Great_Barrier,2025-04-07T02:29:00,2025-04-07T02:29:00,1.00
33,Great_Barrier,2025-04-08T02:28:00,2025-04-08T02:30:00,3.00
33,Great_Barrier,2025-04-09T02:27:00,2025-04-09T02:29:00,3.00
33,Great_Barrier,2025-04-10T02:27:00,2025-04-10T02:28:00,2.00
33,Great_Barrier,2025-04-10T14:37:00,2025-04-10T14:37:00,1.00
33,Great_Barrier,2025-04-11T14:35:00,2025-04-11T14:37:00,3.00
33,Great_Barrier,2025-04-12T14:35:00,2025-04-12T14:36:00,2.00
34,Great_Barrier,2025-03-30T17:49:00,2025-03-30T17:50:00,2.00
34,Great_Barrier,2025-04-01T04:00:00,2025-04-01T04:01:00,2.00
34,Great_Barrier,2025-04-02T03:59:00,2025-04-02T04:01:00,3.00
34,Great_Barrier,2025-04-03T03:59:00,2025-04-03T04:00:00,2.00
34,Great_Barrier,2025-04-04T16:08:00,2025-04-04T16:09:00,2.00
34,Great_Barrier,2025-04-05T16:07:00,2025-04-05T16:09:00,3.00
34,Great_Barrier,2025-04-06T16:06:00,2025-04-06T16:08:00,3.00
34,Great_Barrier,2025-04-08T02:19:00,2025-04-08T02:19:00,1.00
34,Great_Barrier,2025-04-09T02:17:00,2025-04-09T02:19:00,3.00
34,Great_Barrier,2025-04-10T02:17:00,2025-04-10T02:19:00,3.00
34,Great_Barrier,2025-04-11T02:17:00,2025-04-11T02:17:00,1.00
34,Great_Barrier,2025-04-11T14:26:00,2025-04-11T14:27:00,2.00
34,Great_Barrier,2025-04-12T14:25:00,2025-04-12T14:27:00,3.00
35,Great_Barrier,2025-03-30T17:38:00,2025-03-30T17:40:00,3.00
35,Great_Barrier,2025-03-31T17:38:00,2025-03-31T17:39:00,2.00
35,Great_Barrier,2025-04-02T03:50:00,2025-04-02T03:51:00,2.00
35,Great_Barrier,2025-04-03T03:49:00,2025-04-03T03:51:00,3.00
35,Great_Barrier,2025-04-04T03:49:00,2025-04-04T03:50:00,2.00
35,Great_Barrier,2025-04-05T15:57:00,2025-04-05T15:59:00,3.00
35,Great_Barrier,2025-04-06T15:56:00,2025-04-06T15:58:00,3.00
35,Great_Barrier,2025-04-07T15:56:00,2025-04-07T15:57:00,2.00
35,Great_Barrier,2025-04-09T02:08:00,2025-04-09T02:09:00,2.00
35,Great_Barrier,2025-04-10T02:07:00,2025-04-10T02:09:00,3.00
35,Great_Barrier,2025-04-11T02:07:00,2025-04-11T02:08:00,2.00
35,Great_Barrier,2025-04-12T14:15:00,2025-04-12T14:17:00,3.00
36,Great_Barrier,2025-03-30T17:29:00,2025-03-30T17:30:00,2.00
36,Great_Barrier,2025-03-31T17:28:00,2025-03-31T17:30:00,3.00
36,Great_Barrier,2025-04-02T03:41:00,2025-04-02T03:41:00,1.00
36,Great_Barrier,2025-04-03T03:39:00,2025-04-03T03:41:00,3.00
36,Great_Barrier,2025-04-04T03:39:00,2025-04-04T03:40:00,2.00
36,Great_Barrier,2025-04-05T03:39:00,2025-04-05T03:39:00,1.00
36,Great_Barrier,2025-04-05T15:48:00,2025-04-05T15:48:00,1.00
36,Great_Barrier,2025-04-06T15:47:00,2025-04-06T15:48:00,2.00
36,Great_Barrier,2025-04-07T15:46:00,2025-04-07T15:48:00,3.00
36,Great_Barrier,2025-04-08T15:46:00,2025-04-08T15:47:00,2.00
36,Great_Barrier,2025-04-10T01:57:00,2025-04-10T01:59:00,3.00
36,Great_Barrier,2025-04-11T01:57:00,2025-04-11T01:59:00,3.00
36,Great_Barrier,2025-04-12T01:56:00,2025-04-12T01:58:00,3.00
37,Great_Barrier,2025-03-30T17:19:00,2025-03-30T17:20:00,2.00
37,Great_Barrier,2025-03-31T17:18:00,2025-03-31T17:20:00,3.00
37,Great_Barrier,2025-04-01T17:18:00,2025-04-01T17:19:00,2.00
37,Great_Barrier,2025-04-03T03:30:00,2025-04-03T03:31:00,2.00
37,Great_Barrier,2025-04-04T03:29:00,2025-04-04T03:31:00,3.00
37,Great_Barrier,2025-04-05T03:28:00,2025-04-05T03:30:00,3.00
37,Great_Barrier,2025-04-06T03:29:00,2025-04-06T03:29:00,1.00
37,Great_Barrier,2025-04-06T15:37:00,2025-04-06T15:38:00,2.00
37,Great_Barrier,2025-04-07T15:36:00,2025-04-07T15:38:00,3.00
37,Great_Barrier,2025-04-08T15:36:00,2025-04-08T15:37:00,2.00
37,Great_Barrier,2025-04-09T15:36:00,2025-04-09T15:36:00,1.00
37,Great_Barrier,2025-04-10T01:48:00,2025-04-10T01:48:00,1.00
37,Great_Barrier,2025-04-11T01:47:00,2025-04-11T01:49:00,3.00
37,Great_Barrier,2025-04-12T01:46:00,2025-04-12T01:48:00,3.00
38,Great_Barrier,2025-03-30T05:00:00,2025-03-30T05:01:00,2.00
38,Great_Barrier,2025-03-30T17:10:00,2025-03-30T17:10:00,1.00
38,Great_Barrier,2025-03-31T17:08:00,2025-03-31T17:10:00,3.00
38,Great_Barrier,2025-04-01T17:08:00,2025-04-01T17:10:00,3.00
38,Great_Barrier,2025-04-02T17:08:00,2025-04-02T17:09:00,2.00
38,Great_Barrier,2025-04-04T03:19:00,2025-04-04T03:21:00,3.00
38,Great_Barrier,2025-04-05T03:18:00,2025-04-05T03:20:00,3.00
38,Great_Barrier,2025-04-06T03:18:00,2025-04-06T03:20:00,3.00
38,Great_Barrier,2025-04-07T15:27:00,2025-04-07T15:28:00,2.00
38,Great_Barrier,2025-04-08T15:26:00,2025-04-08T15:28:00,3.00
38,Great_Barrier,2025-04-09T15:26:00,2025-04-09T15:27:00,2.00
38,Great_Barrier,2025-04-11T01:38:00,2025-04-11T01:38:00,1.00
38,Great_Barrier,2025-04-12T01:37:00,2025-04-12T01:38:00,2.00
39,Great_Barrier,2025-03-30T04:50:00,2025-03-30T04:52:00,3.00
39,Great_Barrier,2025-03-31T04:50:00,2025-03-31T04:51:00,2.00
39,Great_Barrier,2025-03-31T16:59:00,2025-03-31T17:00:00,2.00
39,Great_Barrier,2025-04-01T16:58:00,2025-04-01T17:00:00,3.00
39,Great_Barrier,2025-04-02T16:57:00,2025-04-02T16:59:00,3.00
39,Great_Barrier,2025-04-03T16:58:00,2025-04-03T16:58:00,1.00
39,Great_Barrier,2025-04-05T03:09:00,2025-04-05T03:10:00,2.00
39,Great_Barrier,2025-04-06T03:08:00,2025-04-06T03:10:00,3.00
39,Great_Barrier,2025-04-07T03:08:00,2025-04-07T03:09:00,2.00
39,Great_Barrier,2025-04-07T15:18:00,2025-04-07T15:18:00,1.00
39,Great_Barrier,2025-04-08T15:16:00,2025-04-08T15:18:00,3.00
39,Great_Barrier,2025-04-09T15:15:00,2025-04-09T15:17:00,3.00
39,Great_Barrier,2025-04-10T15:15:00,2025-04-10T15:16:00,2.00
39,Great_Barrier,2025-04-12T01:27:00,2025-04-12T01:28:00,2.00
40,Great_Barrier,2025-03-30T06:17:00,2025-03-30T06:17:00,1.00
40,Great_Barrier,2025-03-30T18:26:00,2025-03-30T18:27:00,2.00
40,Great_Barrier,2025-03-31T18:25:00,2025-03-31T18:27:00,3.00
40,Great_Barrier,2025-04-01T18:24:00,2025-04-01T18:26:00,3.00
40,Great_Barrier,2025-04-03T04:37:00,2025-04-03T04:37:00,1.00
40,Great_Barrier,2025-04-04T04:36:00,2025-04-04T04:37:00,2.00
40,Great_Barrier,2025-04-05T04:35:00,2025-04-05T04:37:00,3.00
40,Great_Barrier,2025-04-06T04:35:00,2025-04-06T04:36:00,2.00
40,Great_Barrier,2025-04-06T16:44:00,2025-04-06T16:44:00,1.00
40,Great_Barrier,2025-04-07T16:43:00,2025-04-07T16:45:00,3.00
40,Great_Barrier,2025-04-08T16:42:00,2025-04-08T16:44:00,3.00
40,Great_Barrier,2025-04-09T16:42:00,2025-04-09T16:43:00,2.00
40,Great_Barrier,2025-04-11T02:54:00,2025-04-11T02:55:00,2.00
40,Great_Barrier,2025-04-12T02:53:00,2025-04-12T02:55:00,3.00
41,Great_Barrier,2025-03-30T06:07:00,2025-03-30T06:08:00,2.00
41,Great_Barrier,2025-03-31T18:15:00,2025-03-31T18:17:00,3.00
41,Great_Barrier,2025-04-01T18:14:00,2025-04-01T18:16:00,3.00
41,Great_Barrier,2025-04-02T18:14:00,2025-04-02T18:15:00,2.00
41,Great_Barrier,2025-04-04T04:26:00,2025-04-04T04:27:00,2.00
41,Great_Barrier,2025-04-05T04:25:00,2025-04-05T04:27:00,3.00
41,Great_Barrier,2025-04-06T04:25:00,2025-04-06T04:26:00,2.00
41,Great_Barrier,2025-04-07T04:25:00,2025-04-07T04:25:00,1.00
41,Great_Barrier,2025-04-07T16:33:00,2025-04-07T16:34:00,2.00
41,Great_Barrier,2025-04-08T16:32:00,2025-04-08T16:34:00,3.00
41,Great_Barrier,2025-04-09T16:32:00,2025-04-09T16:34:00,3.00
41,Great_Barrier,2025-04-10T16:32:00,2025-04-10T16:32:00,1.00
41,Great_Barrier,2025-04-12T02:43:00,2025-04-12T02:45:00,3.00
42,Great_Barrier,2025-03-30T05:57:00,2025-03-30T05:59:00,3.00
42,Great_Barrier,2025-03-31T05:56:00,2025-03-31T05:58:00,3.00
42,Great_Barrier,2025-03-31T18:06:00,2025-03-31T18:06:00,1.00
42,Great_Barrier,2025-04-01T18:05:00,2025-04-01T18:06:00,2.00
42,Great_Barrier,2025-04-02T18:04:00,2025-04-02T18:06:00,3.00
42,Great_Barrier,2025-04-03T18:04:00,2025-04-03T18:05:00,2.00
42,Great_Barrier,2025-04-05T04:16:00,2025-04-05T04:17:00,2.00
42,Great_Barrier,2025-04-06T04:15:00,2025-04-06T04:17:00,3.00
42,Great_Barrier,2025-04-07T04:14:00,2025-04-07T04:16:00,3.00
42,Great_Barrier,2025-04-08T16:23:00,2025-04-08T16:24:00,2.00
42,Great_Barrier,2025-04-09T16:22:00,2025-04-09T16:24:00,3.00
42,Great_Barrier,2025-04-10T16:22:00,2025-04-10T16:23:00,2.00
42,Great_Barrier,2025-04-12T02:34:00,2025-04-12T02:35:00,2.00
43,Great_Barrier,2025-03-30T05:47:00,2025-03-30T05:49:00,3.00
43,Great_Barrier,2025-03-31T05:46:00,2025-03-31T05:48:00,3.00
43,Great_Barrier,2025-04-01T05:46:00,2025-04-01T05:47:00,2.00
43,Great_Barrier,2025-04-01T17:55:00,2025-04-01T17:56:00,2.00
43,Great_Barrier,2025-04-02T17:54:00,2025-04-02T17:56:00,3.00
43,Great_Barrier,2025-04-03T17:54:00,2025-04-03T17:55:00,2.00
43,Great_Barrier,2025-04-04T17:54:00,2025-04-04T17:54:00,1.00
43,Great_Barrier,2025-04-06T04:05:00,2025-04-06T04:07:00,3.00
43,Great_Barrier,2025-04-07T04:04:00,2025-04-07T04:06:00,3.00
43,Great_Barrier,2025-04-08T04:04:00,2025-04-08T04:05:00,2.00
43,Great_Barrier,2025-04-09T16:12:00,2025-04-09T16:14:00,3.00
43,Great_Barrier,2025-04-10T16:12:00,2025-04-10T16:14:00,3.00
43,Great_Barrier,2025-04-11T16:12:00,2025-04-11T16:13:00,2.00
44,Great_Barrier,2025-03-30T05:37:00,2025-03-30T05:38:00,2.00
44,Great_Barrier,2025-03-31T05:36:00,2025-03-31T05:38:00,3.00
44,Great_Barrier,2025-04-01T05:36:00,2025-04-01T05:38:00,3.00
44,Great_Barrier,2025-04-02T05:36:00,2025-04-02T05:36:00,1.00
44,Great_Barrier,2025-04-02T17:45:00,2025-04-02T17:46:00,2.00
44,Great_Barrier,2025-04-03T17:44:00,2025-04-03T17:46:00,3.00
44,Great_Barrier,2025-04-04T17:43:00,2025-04-04T17:45:00,3.00
44,Great_Barrier,2025-04-06T03:56:00,2025-04-06T03:56:00,1.00
44,Great_Barrier,2025-04-07T03:55:00,2025-04-07T03:56:00,2.00
44,Great_Barrier,2025-04-08T03:54:00,2025-04-08T03:56:00,3.00
44,Great_Barrier,2025-04-09T03:54:00,2025-04-09T03:55:00,2.00
44,Great_Barrier,2025-04-09T16:03:00,2025-04-09T16:04:00,2.00
44,Great_Barrier,2025-04-10T16:02:00,2025-04-10T16:04:00,3.00
44,Great_Barrier,2025-04-11T16:01:00,2025-04-11T16:03:00,3.00
44,Great_Barrier,2025-04-12T16:01:00,2025-04-12T16:02:00,2.00
45,Great_Barrier,2025-03-31T05:27:00,2025-03-31T05:28:00,2.00
45,Great_Barrier,2025-04-01T05:26:00,2025-04-01T05:28:00,3.00
45,Great_Barrier,2025-04-02T05:26:00,2025-04-02T05:27:00,2.00
45,Great_Barrier,2025-04-03T17:34:00,2025-04-03T17:36:00,3.00
45,Great_Barrier,2025-04-04T17:33:00,2025-04-04T17:35:00,3.00
45,Great_Barrier,2025-04-05T17:33:00,2025-04-05T17:34:00,2.00
45,Great_Barrier,2025-04-07T03:45:00,2025-04-07T03:46:00,2.00
45,Great_Barrier,2025-04-08T03:44:00,2025-04-08T03:46:00,3.00
45,Great_Barrier,2025-04-09T03:44:00,2025-04-09T03:45:00,2.00
45,Great_Barrier,2025-04-10T03:44:00,2025-04-10T03:44:00,1.00
45,Great_Barrier,2025-04-10T15:53:00,2025-04-10T15:54:00,2.00
45,Great_Barrier,2025-04-11T15:52:00,2025-04-11T15:53:00,2.00
45,Great_Barrier,2025-04-12T15:51:00,2025-04-12T15:53:00,3.00
46,Great_Barrier,2025-03-30T19:05:00,2025-03-30T19:05:00,1.00
46,Great_Barrier,2025-03-31T05:18:00,2025-03-31T05:18:00,1.00
46,Great_Barrier,2025-04-01T05:16:00,2025-04-01T05:18:00,3.00
46,Great_Barrier,2025-04-02T05:16:00,2025-04-02T05:18:00,3.00
46,Great_Barrier,2025-04-03T05:16:00,2025-04-03T05:17:00,2.00
46,Great_Barrier,2025-04-03T17:25:00,2025-04-03T17:25:00,1.00
46,Great_Barrier,2025-04-04T17:24:00,2025-04-04T17:25:00,2.00
46,Great_Barrier,2025-04-05T17:23:00,2025-04-05T17:25:00,3.00
46,Great_Barrier,2025-04-06T17:23:00,2025-04-06T17:24:00,2.00
46,Great_Barrier,2025-04-08T03:35:00,2025-04-08T03:36:00,2.00
46,Great_Barrier,2025-04-09T03:34:00,2025-04-09T03:36:00,3.00
46,Great_Barrier,2025-04-10T03:33:00,2025-04-10T03:35:00,3.00
46,Great_Barrier,2025-04-11T15:42:00,2025-04-11T15:43:00,2.00
46,Great_Barrier,2025-04-12T15:41:00,2025-04-12T15:43:00,3.00
47,Great_Barrier,2025-03-30T18:55:00,2025-03-30T18:56:00,2.00
47,Great_Barrier,2025-04-01T05:07:00,2025-04-01T05:08:00,2.00
47,Great_Barrier,2025-04-02T05:06:00,2025-04-02T05:08:00,3.00
47,Great_Barrier,2025-04-03T05:05:00,2025-04-03T05:07:00,3.00
47,Great_Barrier,2025-04-04T05:05:00,2025-04-04T05:06:00,2.00
47,Great_Barrier,2025-04-04T17:14:00,2025-04-04T17:15:00,2.00
47,Great_Barrier,2025-04-05T17:13:00,2025-04-05T17:15:00,3.00
47,Great_Barrier,2025-04-06T17:13:00,2025-04-06T17:15:00,3.00
47,Great_Barrier,2025-04-07T17:13:00,2025-04-07T17:13:00,1.00
47,Great_Barrier,2025-04-09T03:24:00,2025-04-09T03:26:00,3.00
47,Great_Barrier,2025-04-10T03:23:00,2025-04-10T03:25:00,3.00
47,Great_Barrier,2025-04-11T03:23:00,2025-04-11T03:24:00,2.00
47,Great_Barrier,2025-04-11T15:33:00,2025-04-11T15:33:00,1.00
47,Great_Barrier,2025-04-12T15:32:00,2025-04-12T15:33:00,2.00
48,Great_Barrier,2025-03-30T18:45:00,2025-03-30T18:47:00,3.00
48,Great_Barrier,2025-03-31T18:45:00,2025-03-31T18:46:00,2.00
48,Great_Barrier,2025-04-02T04:57:00,2025-04-02T04:58:00,2.00
48,Great_Barrier,2025-04-03T04:56:00,2025-04-03T04:57:00,2.00
48,Great_Barrier,2025-04-04T04:55:00,2025-04-04T04:57:00,3.00
48,Great_Barrier,2025-04-05T17:04:00,2025-04-05T17:05:00,2.00
48,Great_Barrier,2025-04-06T17:03:00,2025-04-06T17:05:00,3.00
48,Great_Barrier,2025-04-07T17:03:00,2025-04-07T17:04:00,2.00
48,Great_Barrier,2025-04-09T03:15:00,2025-04-09T03:15:00,1.00
48,Great_Barrier,2025-04-10T03:14:00,2025-04-10T03:15:00,2.00
48,Great_Barrier,2025-04-11T03:13:00,2025-04-11T03:15:00,3.00
48,Great_Barrier,2025-04-12T03:13:00,2025-04-12T03:14:00,2.00
48,Great_Barrier,2025-04-12T15:22:00,2025-04-12T15:23:00,2.00
49,Great_Barrier,2025-03-30T18:35:00,2025-03-30T18:37:00,3.00
49,Great_Barrier,2025-03-31T18:35:00,2025-03-31T18:36:00,2.00
49,Great_Barrier,2025-04-01T18:35:00,2025-04-01T18:35:00,1.00
49,Great_Barrier,2025-04-03T04:46:00,2025-04-03T04:47:00,2.00
49,Great_Barrier,2025-04-04T04:45:00,2025-04-04T04:47:00,3.00
49,Great_Barrier,2025-04-05T04:45:00,2025-04-05T04:46:00,2.00
49,Great_Barrier,2025-04-06T16:53:00,2025-04-06T16:55:00,3.00
49,Great_Barrier,2025-04-07T16:53:00,2025-04-07T16:54:00,2.00
49,Great_Barrier,2025-04-08T16:52:00,2025-04-08T16:54:00,3.00
49,Great_Barrier,2025-04-10T03:04:00,2025-04-10T03:05:00,2.00
49,Great_Barrier,2025-04-11T03:03:00,2025-04-11T03:05:00,3.00
49,Great_Barrier,2025-04-12T03:03:00,2025-04-12T03:04:00,2.00
50,Great_Barrier,2025-03-30T20:01:00,2025-03-30T20:03:00,3.00
50,Great_Barrier,2025-03-31T20:01:00,2025-03-31T20:02:00,2.00
50,Great_Barrier,2025-04-02T06:13:00,2025-04-02T06:14:00,2.00
50,Great_Barrier,2025-04-03T06:12:00,2025-04-03T06:14:00,3.00
50,Great_Barrier,2025-04-04T06:12:00,2025-04-04T06:13:00,2.00
50,Great_Barrier,2025-04-05T18:20:00,2025-04-05T18:22:00,3.00
50,Great_Barrier,2025-04-06T18:19:00,2025-04-06T18:21:00,3.00
50,Great_Barrier,2025-04-07T18:19:00,2025-04-07T18:20:00,2.00
50,Great_Barrier,2025-04-09T04:31:00,2025-04-09T04:32:00,2.00
50,Great_Barrier,2025-04-10T04:30:00,2025-04-10T04:32:00,3.00
50,Great_Barrier,2025-04-11T04:30:00,2025-04-11T04:31:00,2.00
50,Great_Barrier,2025-04-12T16:38:00,2025-04-12T16:40:00,3.00
51,Great_Barrier,2025-03-30T19:51:00,2025-03-30T19:53:00,3.00
51,Great_Barrier,2025-03-31T19:51:00,2025-03-31T19:53:00,3.00
51,Great_Barrier,2025-04-02T06:04:00,2025-04-02T06:04:00,1.00
51,Great_Barrier,2025-04-03T06:02:00,2025-04-03T06:04:00,3.00
51,Great_Barrier,2025-04-04T06:02:00,2025-04-04T06:03:00,2.00
51,Great_Barrier,2025-04-05T06:02:00,2025-04-05T06:02:00,1.00
51,Great_Barrier,2025-04-05T18:11:00,2025-04-05T18:11:00,1.00
51,Great_Barrier,2025-04-06T18:10:00,2025-04-06T18:11:00,2.00
51,Great_Barrier,2025-04-07T18:09:00,2025-04-07T18:11:00,3.00
51,Great_Barrier,2025-04-08T18:09:00,2025-04-08T18:10:00,2.00
51,Great_Barrier,2025-04-10T04:20:00,2025-04-10T04:22:00,3.00
51,Great_Barrier,2025-04-11T04:20:00,2025-04-11T04:22:00,3.00
51,Great_Barrier,2025-04-12T04:19:00,2025-04-12T04:21:00,3.00
52,Great_Barrier,2025-03-30T19:42:00,2025-03-30T19:43:00,2.00
52,Great_Barrier,2025-03-31T19:41:00,2025-03-31T19:43:00,3.00
52,Great_Barrier,2025-04-01T19:41:00,2025-04-01T19:42:00,2.00
52,Great_Barrier,2025-04-03T05:53:00,2025-04-03T05:54:00,2.00
52,Great_Barrier,2025-04-04T05:52:00,2025-04-04T05:54:00,3.00
52,Great_Barrier,2025-04-05T05:51:00,2025-04-05T05:53:00,3.00
52,Great_Barrier,2025-04-06T05:52:00,2025-04-06T05:52:00,1.00
52,Great_Barrier,2025-04-06T18:00:00,2025-04-06T18:01:00,2.00
52,Great_Barrier,2025-04-07T17:59:00,2025-04-07T18:01:00,3.00
52,Great_Barrier,2025-04-08T17:59:00,2025-04-08T18:00:00,2.00
52,Great_Barrier,2025-04-10T04:11:00,2025-04-10T04:11:00,1.00
52,Great_Barrier,2025-04-11T04:10:00,2025-04-11T04:12:00,3.00
52,Great_Barrier,2025-04-12T04:09:00,2025-04-12T04:11:00,3.00
53,Great_Barrier,2025-03-30T07:23:00,2025-03-30T07:24:00,2.00
53,Great_Barrier,2025-03-30T19:33:00,2025-03-30T19:33:00,1.00
53,Great_Barrier,2025-03-31T19:31:00,2025-03-31T19:33:00,3.00
53,Great_Barrier,2025-04-01T19:31:00,2025-04-01T19:33:00,3.00
53,Great_Barrier,2025-04-02T19:31:00,2025-04-02T19:32:00,2.00
53,Great_Barrier,2025-04-04T05:42:00,2025-04-04T05:44:00,3.00
53,Great_Barrier,2025-04-05T05:41:00,2025-04-05T05:43:00,3.00
53,Great_Barrier,2025-04-06T05:41:00,2025-04-06T05:43:00,3.00
53,Great_Barrier,2025-04-07T17:50:00,2025-04-07T17:51:00,2.00
53,Great_Barrier,2025-04-08T17:49:00,2025-04-08T17:51:00,3.00
53,Great_Barrier,2025-04-09T17:49:00,2025-04-09T17:50:00,2.00
53,Great_Barrier,2025-04-11T04:01:00,2025-04-11T04:01:00,1.00
53,Great_Barrier,2025-04-12T04:00:00,2025-04-12T04:01:00,2.00
54,Great_Barrier,2025-03-30T07:13:00,2025-03-30T07:15:00,3.00
54,Great_Barrier,2025-03-31T07:13:00,2025-03-31T07:14:00,2.00
54,Great_Barrier,2025-03-31T19:22:00,2025-03-31T19:23:00,2.00
54,Great_Barrier,2025-04-01T19:21:00,2025-04-01T19:23:00,3.00
54,Great_Barrier,2025-04-02T19:20:00,2025-04-02T19:22:00,3.00
54,Great_Barrier,2025-04-03T19:21:00,2025-04-03T19:21:00,1.00
54,Great_Barrier,2025-04-05T05:32:00,2025-04-05T05:33:00,2.00
54,Great_Barrier,2025-04-06T05:31:00,2025-04-06T05:33:00,3.00
54,Great_Barrier,2025-04-07T05:31:00,2025-04-07T05:32:00,2.00
54,Great_Barrier,2025-04-07T17:41:00,2025-04-07T17:41:00,1.00
54,Great_Barrier,2025-04-08T17:39:00,2025-04-08T17:41:00,3.00
54,Great_Barrier,2025-04-09T17:38:00,2025-04-09T17:40:00,3.00
54,Great_Barrier,2025-04-10T17:38:00,2025-04-10T17:39:00,2.00
54,Great_Barrier,2025-04-12T03:50:00,2025-04-12T03:51:00,2.00
55,Great_Barrier,2025-03-30T07:03:00,2025-03-30T07:05:00,3.00
55,Great_Barrier,2025-03-31T07:03:00,2025-03-31T07:04:00,2.00
55,Great_Barrier,2025-04-01T19:11:00,2025-04-01T19:13:00,3.00
55,Great_Barrier,2025-04-02T19:11:00,2025-04-02T19:12:00,2.00
55,Great_Barrier,2025-04-03T19:10:00,2025-04-03T19:12:00,3.00
55,Great_Barrier,2025-04-05T05:23:00,2025-04-05T05:23:00,1.00
55,Great_Barrier,2025-04-06T05:21:00,2025-04-06T05:23:00,3.00
55,Great_Barrier,2025-04-07T05:21:00,2025-04-07T05:23:00,3.00
55,Great_Barrier,2025-04-08T05:21:00,2025-04-08T05:21:00,1.00
55,Great_Barrier,2025-04-08T17:30:00,2025-04-08T17:31:00,2.00
55,Great_Barrier,2025-04-09T17:29:00,2025-04-09T17:31:00,3.00
55,Great_Barrier,2025-04-10T17:28:00,2025-04-10T17:30:00,3.00
55,Great_Barrier,2025-04-11T17:28:00,2025-04-11T17:29:00,2.00
56,Great_Barrier,2025-03-30T06:54:00,2025-03-30T06:55:00,2.00
56,Great_Barrier,2025-03-31T06:53:00,2025-03-31T06:55:00,3.00
56,Great_Barrier,2025-04-01T06:53:00,2025-04-01T06:54:00,2.00
56,Great_Barrier,2025-04-02T19:01:00,2025-04-02T19:03:00,3.00
56,Great_Barrier,2025-04-03T19:00:00,2025-04-03T19:02:00,3.00
56,Great_Barrier,2025-04-04T19:00:00,2025-04-04T19:01:00,2.00
56,Great_Barrier,2025-04-06T05:12:00,2025-04-06T05:13:00,2.00
56,Great_Barrier,2025-04-07T05:11:00,2025-04-07T05:13:00,3.00
56,Great_Barrier,2025-04-08T05:10:00,2025-04-08T05:12:00,3.00
56,Great_Barrier,2025-04-09T17:19:00,2025-04-09T17:20:00,2.00
56,Great_Barrier,2025-04-10T17:18:00,2025-04-10T17:20:00,3.00
56,Great_Barrier,2025-04-11T17:18:00,2025-04-11T17:19:00,2.00
57,Great_Barrier,2025-03-30T06:45:00,2025-03-30T06:45:00,1.00
57,Great_Barrier,2025-03-31T06:43:00,2025-03-31T06:45:00,3.00
57,Great_Barrier,2025-04-01T06:42:00,2025-04-01T06:44:00,3.00
57,Great_Barrier,2025-04-02T06:42:00,2025-04-02T06:43:00,2.00
57,Great_Barrier,2025-04-02T18:52:00,2025-04-02T18:52:00,1.00
57,Great_Barrier,2025-04-03T18:50:00,2025-04-03T18:52:00,3.00
57,Great_Barrier,2025-04-04T18:50:00,2025-04-04T18:52:00,3.00
57,Great_Barrier,2025-04-05T18:50:00,2025-04-05T18:51:00,2.00
57,Great_Barrier,2025-04-07T05:01:00,2025-04-07T05:03:00,3.00
57,Great_Barrier,2025-04-08T05:01:00,2025-04-08T05:02:00,2.00
57,Great_Barrier,2025-04-09T05:00:00,2025-04-09T05:02:00,3.00
57,Great_Barrier,2025-04-10T17:09:00,2025-04-10T17:10:00,2.00
57,Great_Barrier,2025-04-11T17:08:00,2025-04-11T17:10:00,3.00
57,Great_Barrier,2025-04-12T17:08:00,2025-04-12T17:09:00,2.00
58,Great_Barrier,2025-03-31T06:34:00,2025-03-31T06:35:00,2.00
58,Great_Barrier,2025-04-01T06:33:00,2025-04-01T06:35:00,3.00
58,Great_Barrier,2025-04-02T06:32:00,2025-04-02T06:34:00,3.00
58,Great_Barrier,2025-04-03T06:32:00,2025-04-03T06:33:00,2.00
58,Great_Barrier,2025-04-03T18:41:00,2025-04-03T18:42:00,2.00
58,Great_Barrier,2025-04-04T18:40:00,2025-04-04T18:42:00,3.00
58,Great_Barrier,2025-04-05T18:40:00,2025-04-05T18:41:00,2.00
58,Great_Barrier,2025-04-06T18:40:00,2025-04-06T18:40:00,1.00
58,Great_Barrier,2025-04-07T04:52:00,2025-04-07T04:52:00,1.00
58,Great_Barrier,2025-04-08T04:51:00,2025-04-08T04:53:00,3.00
58,Great_Barrier,2025-04-09T04:50:00,2025-04-09T04:52:00,3.00
58,Great_Barrier,2025-04-10T04:50:00,2025-04-10T04:51:00,2.00
58,Great_Barrier,2025-04-10T17:00:00,2025-04-10T17:00:00,1.00
58,Great_Barrier,2025-04-11T16:58:00,2025-04-11T17:00:00,3.00
58,Great_Barrier,2025-04-12T16:58:00,2025-04-12T16:59:00,2.00
59,Great_Barrier,2025-03-30T20:12:00,2025-03-30T20:12:00,1.00
59,Great_Barrier,2025-04-01T06:23:00,2025-04-01T06:24:00,2.00
59,Great_Barrier,2025-04-02T06:22:00,2025-04-02T06:24:00,3.00
59,Great_Barrier,2025-04-03T06:22:00,2025-04-03T06:23:00,2.00
59,Great_Barrier,2025-04-04T18:31:00,2025-04-04T18:32:00,2.00
59,Great_Barrier,2025-04-05T18:30:00,2025-04-05T18:32:00,3.00
59,Great_Barrier,2025-04-06T18:29:00,2025-04-06T18:31:00,3.00
59,Great_Barrier,2025-04-08T04:42:00,2025-04-08T04:42:00,1.00
59,Great_Barrier,2025-04-09T04:40:00,2025-04-09T04:42:00,3.00
59,Great_Barrier,2025-04-10T04:40:00,2025-04-10T04:42:00,3.00
59,Great_Barrier,2025-04-11T04:40:00,2025-04-11T04:40:00,1.00
59,Great_Barrier,2025-04-11T16:49:00,2025-04-11T16:50:00,2.00
59,Great_Barrier,2025-04-12T16:48:00,2025-04-12T16:50:00,3.00
60,Great_Barrier,2025-03-31T07:50:00,2025-03-31T07:51:00,2.00
60,Great_Barrier,2025-04-01T07:49:00,2025-04-01T07:51:00,3.00
60,Great_Barrier,2025-04-02T07:49:00,2025-04-02T07:50:00,2.00
60,Great_Barrier,2025-04-03T19:57:00,2025-04-03T19:59:00,3.00
60,Great_Barrier,2025-04-04T19:56:00,2025-04-04T19:58:00,3.00
60,Great_Barrier,2025-04-05T19:56:00,2025-04-05T19:57:00,2.00
60,Great_Barrier,2025-04-07T06:08:00,2025-04-07T06:09:00,2.00
60,Great_Barrier,2025-04-08T06:07:00,2025-04-08T06:09:00,3.00
60,Great_Barrier,2025-04-09T06:07:00,2025-04-09T06:08:00,2.00
60,Great_Barrier,2025-04-10T06:07:00,2025-04-10T06:07:00,1.00
60,Great_Barrier,2025-04-10T18:15:00,2025-04-10T18:17:00,3.00
60,Great_Barrier,2025-04-11T18:15:00,2025-04-11T18:16:00,2.00
60,Great_Barrier,2025-04-12T18:14:00,2025-04-12T18:16:00,3.00
61,Great_Barrier,2025-03-30T21:28:00,2025-03-30T21:28:00,1.00
61,Great_Barrier,2025-03-31T07:41:00,2025-03-31T07:41:00,1.00
61,Great_Barrier,2025-04-01T07:39:00,2025-04-01T07:41:00,3.00
61,Great_Barrier,2025-04-02T07:39:00,2025-04-02T07:41:00,3.00
61,Great_Barrier,2025-04-03T07:39:00,2025-04-03T07:40:00,2.00
61,Great_Barrier,2025-04-03T19:48:00,2025-04-03T19:48:00,1.00
61,Great_Barrier,2025-04-04T19:47:00,2025-04-04T19:48:00,2.00
61,Great_Barrier,2025-04-05T19:46:00,2025-04-05T19:48:00,3.00
61,Great_Barrier,2025-04-06T19:46:00,2025-04-06T19:47:00,2.00
61,Great_Barrier,2025-04-08T05:58:00,2025-04-08T05:59:00,2.00
61,Great_Barrier,2025-04-09T05:57:00,2025-04-09T05:59:00,3.00
61,Great_Barrier,2025-04-10T05:56:00,2025-04-10T05:58:00,3.00
61,Great_Barrier,2025-04-11T18:05:00,2025-04-11T18:06:00,2.00
61,Great_Barrier,2025-04-12T18:04:00,2025-04-12T18:06:00,3.00
62,Great_Barrier,2025-03-30T21:18:00,2025-03-30T21:19:00,2.00
62,Great_Barrier,2025-04-01T07:30:00,2025-04-01T07:31:00,2.00
62,Great_Barrier,2025-04-02T07:29:00,2025-04-02T07:31:00,3.00
62,Great_Barrier,2025-04-03T07:28:00,2025-04-03T07:30:00,3.00
62,Great_Barrier,2025-04-04T07:28:00,2025-04-04T07:29:00,2.00
62,Great_Barrier,2025-04-04T19:37:00,2025-04-04T19:38:00,2.00
62,Great_Barrier,2025-04-05T19:36:00,2025-04-05T19:38:00,3.00
62,Great_Barrier,2025-04-06T19:36:00,2025-04-06T19:37:00,2.00
62,Great_Barrier,2025-04-07T19:36:00,2025-04-07T19:36:00,1.00
62,Great_Barrier,2025-04-09T05:47:00,2025-04-09T05:49:00,3.00
62,Great_Barrier,2025-04-10T05:46:00,2025-04-10T05:48:00,3.00
62,Great_Barrier,2025-04-11T05:46:00,2025-04-11T05:47:00,2.00
62,Great_Barrier,2025-04-11T17:56:00,2025-04-11T17:56:00,1.00
62,Great_Barrier,2025-04-12T17:54:00,2025-04-12T17:56:00,3.00
63,Great_Barrier,2025-03-30T21:08:00,2025-03-30T21:10:00,3.00
63,Great_Barrier,2025-03-31T21:08:00,2025-03-31T21:09:00,2.00
63,Great_Barrier,2025-04-02T07:19:00,2025-04-02T07:21:00,3.00
63,Great_Barrier,2025-04-03T07:19:00,2025-04-03T07:20:00,2.00
63,Great_Barrier,2025-04-04T07:18:00,2025-04-04T07:20:00,3.00
63,Great_Barrier,2025-04-05T19:27:00,2025-04-05T19:28:00,2.00
63,Great_Barrier,2025-04-06T19:26:00,2025-04-06T19:28:00,3.00
63,Great_Barrier,2025-04-07T19:26:00,2025-04-07T19:27:00,2.00
63,Great_Barrier,2025-04-09T05:38:00,2025-04-09T05:38:00,1.00
63,Great_Barrier,2025-04-10T05:37:00,2025-04-10T05:38:00,2.00
63,Great_Barrier,2025-04-11T05:36:00,2025-04-11T05:38:00,3.00
63,Great_Barrier,2025-04-12T05:36:00,2025-04-12T05:37:00,2.00
63,Great_Barrier,2025-04-12T17:45:00,2025-04-12T17:46:00,2.00
64,Great_Barrier,2025-03-30T20:58:00,2025-03-30T21:00:00,3.00
64,Great_Barrier,2025-03-31T20:58:00,2025-03-31T20:59:00,2.00
64,Great_Barrier,2025-04-01T20:58:00,2025-04-01T20:58:00,1.00
64,Great_Barrier,2025-04-03T07:09:00,2025-04-03T07:10:00,2.00
64,Great_Barrier,2025-04-04T07:08:00,2025-04-04T07:10:00,3.00
64,Great_Barrier,2025-04-05T07:08:00,2025-04-05T07:09:00,2.00
64,Great_Barrier,2025-04-06T19:16:00,2025-04-06T19:18:00,3.00
64,Great_Barrier,2025-04-07T19:16:00,2025-04-07T19:17:00,2.00
64,Great_Barrier,2025-04-08T19:15:00,2025-04-08T19:16:00,2.00
64,Great_Barrier,2025-04-10T05:27:00,2025-04-10T05:28:00,2.00
64,Great_Barrier,2025-04-11T05:26:00,2025-04-11T05:28:00,3.00
64,Great_Barrier,2025-04-12T05:26:00,2025-04-12T05:27:00,2.00
65,Great_Barrier,2025-03-30T08:40:00,2025-03-30T08:40:00,1.00
65,Great_Barrier,2025-03-30T20:49:00,2025-03-30T20:50:00,2.00
65,Great_Barrier,2025-03-31T20:48:00,2025-03-31T20:50:00,3.00
65,Great_Barrier,2025-04-01T20:47:00,2025-04-01T20:49:00,3.00
65,Great_Barrier,2025-04-03T07:00:00,2025-04-03T07:00:00,1.00
65,Great_Barrier,2025-04-04T06:58:00,2025-04-04T07:00:00,3.00
65,Great_Barrier,2025-04-05T06:58:00,2025-04-05T07:00:00,3.00
65,Great_Barrier,2025-04-06T06:58:00,2025-04-06T06:59:00,2.00
65,Great_Barrier,2025-04-06T19:07:00,2025-04-06T19:07:00,1.00
65,Great_Barrier,2025-04-07T19:06:00,2025-04-07T19:08:00,3.00
65,Great_Barrier,2025-04-08T19:05:00,2025-04-08T19:07:00,3.00
65,Great_Barrier,2025-04-09T19:05:00,2025-04-09T19:06:00,2.00
65,Great_Barrier,2025-04-11T05:17:00,2025-04-11T05:18:00,2.00
65,Great_Barrier,2025-04-12T05:16:00,2025-04-12T05:18:00,3.00
66,Great_Barrier,2025-03-30T08:30:00,2025-03-30T08:31:00,2.00
66,Great_Barrier,2025-03-31T20:38:00,2025-03-31T20:40:00,3.00
66,Great_Barrier,2025-04-01T20:37:00,2025-04-01T20:39:00,3.00
66,Great_Barrier,2025-04-02T20:37:00,2025-04-02T20:38:00,2.00
66,Great_Barrier,2025-04-04T06:49:00,2025-04-04T06:50:00,2.00
66,Great_Barrier,2025-04-05T06:48:00,2025-04-05T06:50:00,3.00
66,Great_Barrier,2025-04-06T06:48:00,2025-04-06T06:49:00,2.00
66,Great_Barrier,2025-04-07T06:48:00,2025-04-07T06:48:00,1.00
66,Great_Barrier,2025-04-07T18:56:00,2025-04-07T18:57:00,2.00
66,Great_Barrier,2025-04-08T18:55:00,2025-04-08T18:57:00,3.00
66,Great_Barrier,2025-04-09T18:55:00,2025-04-09T18:57:00,3.00
66,Great_Barrier,2025-04-10T18:55:00,2025-04-10T18:55:00,1.00
66,Great_Barrier,2025-04-12T05:06:00,2025-04-12T05:08:00,3.00
67,Great_Barrier,2025-03-30T08:20:00,2025-03-30T08:21:00,2.00
67,Great_Barrier,2025-03-31T08:19:00,2025-03-31T08:21:00,3.00
67,Great_Barrier,2025-03-31T20:29:00,2025-03-31T20:29:00,1.00
67,Great_Barrier,2025-04-01T20:28:00,2025-04-01T20:29:00,2.00
67,Great_Barrier,2025-04-02T20:27:00,2025-04-02T20:29:00,3.00
67,Great_Barrier,2025-04-03T20:27:00,2025-04-03T20:28:00,2.00
67,Great_Barrier,2025-04-05T06:39:00,2025-04-05T06:40:00,2.00
67,Great_Barrier,2025-04-06T06:38:00,2025-04-06T06:40:00,3.00
67,Great_Barrier,2025-04-07T06:37:00,2025-04-07T06:39:00,3.00
67,Great_Barrier,2025-04-08T18:46:00,2025-04-08T18:47:00,2.00
67,Great_Barrier,2025-04-09T18:45:00,2025-04-09T18:47:00,3.00
67,Great_Barrier,2025-04-10T18:45:00,2025-04-10T18:46:00,2.00
67,Great_Barrier,2025-04-12T04:57:00,2025-04-12T04:58:00,2.00
68,Great_Barrier,2025-03-30T08:10:00,2025-03-30T08:12:00,3.00
68,Great_Barrier,2025-03-31T08:09:00,2025-03-31T08:11:00,3.00
68,Great_Barrier,2025-04-01T08:09:00,2025-04-01T08:10:00,2.00
68,Great_Barrier,2025-04-01T20:18:00,2025-04-01T20:19:00,2.00
68,Great_Barrier,2025-04-02T20:17:00,2025-04-02T20:19:00,3.00
68,Great_Barrier,2025-04-03T20:17:00,2025-04-03T20:18:00,2.00
68,Great_Barrier,2025-04-04T20:17:00,2025-04-04T20:17:00,1.00
68,Great_Barrier,2025-04-06T06:28:00,2025-04-06T06:30:00,3.00
68,Great_Barrier,2025-04-07T06:27:00,2025-04-07T06:29:00,3.00
68,Great_Barrier,2025-04-08T06:27:00,2025-04-08T06:28:00,2.00
68,Great_Barrier,2025-04-09T18:35:00,2025-04-09T18:37:00,3.00
68,Great_Barrier,2025-04-10T18:35:00,2025-04-10T18:37:00,3.00
68,Great_Barrier,2025-04-11T18:34:00,2025-04-11T18:36:00,3.00
69,Great_Barrier,2025-03-30T08:00:00,2025-03-30T08:01:00,2.00
69,Great_Barrier,2025-03-31T07:59:00,2025-03-31T08:01:00,3.00
69,Great_Barrier,2025-04-01T07:59:00,2025-04-01T08:01:00,3.00
69,Great_Barrier,2025-04-02T07:59:00,2025-04-02T07:59:00,1.00
69,Great_Barrier,2025-04-02T20:08:00,2025-04-02T20:09:00,2.00
69,Great_Barrier,2025-04-03T20:07:00,2025-04-03T20:09:00,3.00
69,Great_Barrier,2025-04-04T20:06:00,2025-04-04T20:08:00,3.00
69,Great_Barrier,2025-04-06T06:19:00,2025-04-06T06:19:00,1.00
69,Great_Barrier,2025-04-07T06:18:00,2025-04-07T06:19:00,2.00
69,Great_Barrier,2025-04-08T06:17:00,2025-04-08T06:19:00,3.00
69,Great_Barrier,2025-04-09T06:17:00,2025-04-09T06:18:00,2.00
69,Great_Barrier,2025-04-09T18:26:00,2025-04-09T18:27:00,2.00
69,Great_Barrier,2025-04-10T18:25:00,2025-04-10T18:27:00,3.00
69,Great_Barrier,2025-04-11T18:24:00,2025-04-11T18:26:00,3.00
69,Great_Barrier,2025-04-12T18:24:00,2025-04-12T18:25:00,2.00
70,Great_Barrier,2025-03-30T09:26:00,2025-03-30T09:28:00,3.00
70,Great_Barrier,2025-03-31T09:26:00,2025-03-31T09:27:00,2.00
70,Great_Barrier,2025-04-01T21:34:00,2025-04-01T21:36:00,3.00
70,Great_Barrier,2025-04-02T21:34:00,2025-04-02T21:35:00,2.00
70,Great_Barrier,2025-04-03T21:33:00,2025-04-03T21:35:00,3.00
70,Great_Barrier,2025-04-05T07:45:00,2025-04-05T07:46:00,2.00
70,Great_Barrier,2025-04-06T07:44:00,2025-04-06T07:46:00,3.00
70,Great_Barrier,2025-04-07T07:44:00,2025-04-07T07:45:00,2.00
70,Great_Barrier,2025-04-08T07:44:00,2025-04-08T07:44:00,1.00
70,Great_Barrier,2025-04-08T19:53:00,2025-04-08T19:54:00,2.00
70,Great_Barrier,2025-04-09T19:52:00,2025-04-09T19:53:00,2.00
70,Great_Barrier,2025-04-10T19:51:00,2025-04-10T19:53:00,3.00
70,Great_Barrier,2025-04-11T19:51:00,2025-04-11T19:51:00,1.00
71,Great_Barrier,2025-03-30T09:17:00,2025-03-30T09:18:00,2.00
71,Great_Barrier,2025-03-31T09:16:00,2025-03-31T09:18:00,3.00
71,Great_Barrier,2025-04-01T09:16:00,2025-04-01T09:17:00,2.00
71,Great_Barrier,2025-04-02T21:24:00,2025-04-02T21:26:00,3.00
71,Great_Barrier,2025-04-03T21:23:00,2025-04-03T21:25:00,3.00
71,Great_Barrier,2025-04-04T21:23:00,2025-04-04T21:24:00,2.00
71,Great_Barrier,2025-04-06T07:35:00,2025-04-06T07:36:00,2.00
71,Great_Barrier,2025-04-07T07:34:00,2025-04-07T07:36:00,3.00
71,Great_Barrier,2025-04-08T07:33:00,2025-04-08T07:35:00,3.00
71,Great_Barrier,2025-04-09T19:42:00,2025-04-09T19:43:00,2.00
71,Great_Barrier,2025-04-10T19:41:00,2025-04-10T19:43:00,3.00
71,Great_Barrier,2025-04-11T19:41:00,2025-04-11T19:42:00,2.00
72,Great_Barrier,2025-03-30T09:07:00,2025-03-30T09:08:00,2.00
