comm_windows_Taiga.csv

sat_id,ground_station,window_start,window_end,duration_min
0,Taiga,2025-03-31T14:55:00,2025-03-31T14:55:00,1.00
0,Taiga,2025-04-01T05:02:00,2025-04-01T05:03:00,2.00
0,Taiga,2025-04-01T14:54:00,2025-04-01T14:55:00,2.00
0,Taiga,2025-04-02T05:02:00,2025-04-02T05:03:00,2.00
0,Taiga,2025-04-02T14:54:00,2025-04-02T14:55:00,2.00
0,Taiga,2025-04-03T05:01:00,2025-04-03T05:03:00,3.00
0,Taiga,2025-04-03T14:53:00,2025-04-03T14:55:00,3.00
0,Taiga,2025-04-04T05:01:00,2025-04-04T05:02:00,2.00
0,Taiga,2025-04-04T14:53:00,2025-04-04T14:55:00,3.00
0,Taiga,2025-04-05T05:00:00,2025-04-05T05:02:00,3.00
0,Taiga,2025-04-05T14:53:00,2025-04-05T14:54:00,2.00
0,Taiga,2025-04-06T05:00:00,2025-04-06T05:02:00,3.00
0,Taiga,2025-04-06T14:52:00,2025-04-06T14:54:00,3.00
0,Taiga,2025-04-07T05:00:00,2025-04-07T05:01:00,2.00
0,Taiga,2025-04-07T14:52:00,2025-04-07T14:53:00,2.00
0,Taiga,2025-04-08T05:00:00,2025-04-08T05:01:00,2.00
0,Taiga,2025-04-08T14:52:00,2025-04-08T14:53:00,2.00
0,Taiga,2025-04-09T05:00:00,2025-04-09T05:00:00,1.00
0,Taiga,2025-04-09T14:52:00,2025-04-09T14:52:00,1.00
0,Taiga,2025-04-10T05:00:00,2025-04-10T05:00:00,1.00
0,Taiga,2025-04-11T13:14:00,2025-04-11T13:15:00,2.00
0,Taiga,2025-04-12T03:22:00,2025-04-12T03:22:00,1.00
0,Taiga,2025-04-12T13:14:00,2025-04-12T13:15:00,2.00
1,Taiga,2025-03-30T06:30:00,2025-03-30T06:31:00,2.00
1,Taiga,2025-03-31T06:30:00,2025-03-31T06:30:00,1.00
1,Taiga,2025-04-01T14:45:00,2025-04-01T14:45:00,1.00
1,Taiga,2025-04-02T04:52:00,2025-04-02T04:53:00,2.00
1,Taiga,2025-04-02T14:44:00,2025-04-02T14:45:00,2.00
1,Taiga,2025-04-03T04:52:00,2025-04-03T04:53:00,2.00
1,Taiga,2025-04-03T14:44:00,2025-04-03T14:45:00,2.00
1,Taiga,2025-04-04T04:51:00,2025-04-04T04:53:00,3.00
1,Taiga,2025-04-04T14:43:00,2025-04-04T14:45:00,3.00
1,Taiga,2025-04-05T04:51:00,2025-04-05T04:52:00,2.00
1,Taiga,2025-04-05T14:43:00,2025-04-05T14:45:00,3.00
1,Taiga,2025-04-06T04:50:00,2025-04-06T04:52:00,3.00
1,Taiga,2025-04-06T14:43:00,2025-04-06T14:44:00,2.00
1,Taiga,2025-04-07T04:50:00,2025-04-07T04:52:00,3.00
1,Taiga,2025-04-07T14:42:00,2025-04-07T14:44:00,3.00
1,Taiga,2025-04-08T04:50:00,2025-04-08T04:51:00,2.00
1,Taiga,2025-04-08T14:42:00,2025-04-08T14:43:00,2.00
1,Taiga,2025-04-09T04:50:00,2025-04-09T04:51:00,2.00
1,Taiga,2025-04-09T14:42:00,2025-04-09T14:43:00,2.00
1,Taiga,2025-04-10T04:50:00,2025-04-10T04:50:00,1.00
1,Taiga,2025-04-10T14:42:00,2025-04-10T14:42:00,1.00
1,Taiga,2025-04-11T04:50:00,2025-04-11T04:50:00,1.00
1,Taiga,2025-04-12T13:04:00,2025-04-12T13:04:00,1.00
2,Taiga,2025-03-30T06:20:00,2025-03-30T06:21:00,2.00
2,Taiga,2025-03-30T16:12:00,2025-03-30T16:13:00,2.00
2,Taiga,2025-03-31T06:20:00,2025-03-31T06:21:00,2.00
2,Taiga,2025-03-31T16:13:00,2025-03-31T16:13:00,1.00
2,Taiga,2025-04-01T06:20:00,2025-04-01T06:20:00,1.00
2,Taiga,2025-04-02T14:35:00,2025-04-02T14:35:00,1.00
2,Taiga,2025-04-03T04:42:00,2025-04-03T04:43:00,2.00
2,Taiga,2025-04-03T14:34:00,2025-04-03T14:35:00,2.00
2,Taiga,2025-04-04T04:42:00,2025-04-04T04:43:00,2.00
2,Taiga,2025-04-04T14:34:00,2025-04-04T14:35:00,2.00
2,Taiga,2025-04-05T04:41:00,2025-04-05T04:43:00,3.00
2,Taiga,2025-04-05T14:33:00,2025-04-05T14:35:00,3.00
2,Taiga,2025-04-06T04:41:00,2025-04-06T04:42:00,2.00
2,Taiga,2025-04-06T14:33:00,2025-04-06T14:35:00,3.00
2,Taiga,2025-04-07T04:40:00,2025-04-07T04:42:00,3.00
2,Taiga,2025-04-07T14:32:00,2025-04-07T14:34:00,3.00
2,Taiga,2025-04-08T04:40:00,2025-04-08T04:42:00,3.00
2,Taiga,2025-04-08T14:32:00,2025-04-08T14:34:00,3.00
2,Taiga,2025-04-09T04:40:00,2025-04-09T04:41:00,2.00
2,Taiga,2025-04-09T14:32:00,2025-04-09T14:33:00,2.00
2,Taiga,2025-04-10T04:40:00,2025-04-10T04:41:00,2.00
2,Taiga,2025-04-10T14:32:00,2025-04-10T14:33:00,2.00
2,Taiga,2025-04-11T04:39:00,2025-04-11T04:40:00,2.00
2,Taiga,2025-04-11T14:32:00,2025-04-11T14:32:00,1.00
2,Taiga,2025-04-12T04:40:00,2025-04-12T04:40:00,1.00
3,Taiga,2025-03-30T06:10:00,2025-03-30T06:12:00,3.00
3,Taiga,2025-03-30T16:03:00,2025-03-30T16:04:00,2.00
3,Taiga,2025-03-31T06:10:00,2025-03-31T06:11:00,2.00
3,Taiga,2025-03-31T16:02:00,2025-03-31T16:03:00,2.00
3,Taiga,2025-04-01T06:10:00,2025-04-01T06:11:00,2.00
3,Taiga,2025-04-01T16:03:00,2025-04-01T16:03:00,1.00
3,Taiga,2025-04-02T06:10:00,2025-04-02T06:10:00,1.00
3,Taiga,2025-04-03T14:25:00,2025-04-03T14:25:00,1.00
3,Taiga,2025-04-04T04:33:00,2025-04-04T04:33:00,1.00
3,Taiga,2025-04-04T14:24:00,2025-04-04T14:25:00,2.00
3,Taiga,2025-04-05T04:32:00,2025-04-05T04:33:00,2.00
3,Taiga,2025-04-05T14:24:00,2025-04-05T14:25:00,2.00
3,Taiga,2025-04-06T04:31:00,2025-04-06T04:33:00,3.00
3,Taiga,2025-04-06T14:23:00,2025-04-06T14:25:00,3.00
3,Taiga,2025-04-07T04:31:00,2025-04-07T04:32:00,2.00
3,Taiga,2025-04-07T14:23:00,2025-04-07T14:25:00,3.00
3,Taiga,2025-04-08T04:30:00,2025-04-08T04:32:00,3.00
3,Taiga,2025-04-08T14:22:00,2025-04-08T14:24:00,3.00
3,Taiga,2025-04-09T04:30:00,2025-04-09T04:32:00,3.00
3,Taiga,2025-04-09T14:22:00,2025-04-09T14:24:00,3.00
3,Taiga,2025-04-10T04:30:00,2025-04-10T04:31:00,2.00
3,Taiga,2025-04-10T14:22:00,2025-04-10T14:23:00,2.00
3,Taiga,2025-04-11T04:29:00,2025-04-11T04:31:00,3.00
3,Taiga,2025-04-11T14:22:00,2025-04-11T14:23:00,2.00
3,Taiga,2025-04-12T04:29:00,2025-04-12T04:30:00,2.00
3,Taiga,2025-04-12T14:22:00,2025-04-12T14:22:00,1.00
4,Taiga,2025-03-30T06:00:00,2025-03-30T06:02:00,3.00
4,Taiga,2025-03-30T15:53:00,2025-03-30T15:54:00,2.00
4,Taiga,2025-03-31T06:00:00,2025-03-31T06:02:00,3.00
4,Taiga,2025-03-31T15:53:00,2025-03-31T15:54:00,2.00
4,Taiga,2025-04-01T06:00:00,2025-04-01T06:01:00,2.00
4,Taiga,2025-04-01T15:52:00,2025-04-01T15:53:00,2.00
4,Taiga,2025-04-02T06:00:00,2025-04-02T06:01:00,2.00
4,Taiga,2025-04-02T15:52:00,2025-04-02T15:53:00,2.00
4,Taiga,2025-04-03T06:00:00,2025-04-03T06:00:00,1.00
4,Taiga,2025-04-04T14:15:00,2025-04-04T14:15:00,1.00
4,Taiga,2025-04-05T14:14:00,2025-04-05T14:15:00,2.00
4,Taiga,2025-04-06T04:22:00,2025-04-06T04:23:00,2.00
4,Taiga,2025-04-06T14:14:00,2025-04-06T14:15:00,2.00
4,Taiga,2025-04-07T04:21:00,2025-04-07T04:23:00,3.00
4,Taiga,2025-04-07T14:13:00,2025-04-07T14:15:00,3.00
4,Taiga,2025-04-08T04:21:00,2025-04-08T04:22:00,2.00
4,Taiga,2025-04-08T14:13:00,2025-04-08T14:15:00,3.00
4,Taiga,2025-04-09T04:20:00,2025-04-09T04:22:00,3.00
4,Taiga,2025-04-09T14:12:00,2025-04-09T14:14:00,3.00
4,Taiga,2025-04-10T04:20:00,2025-04-10T04:22:00,3.00
4,Taiga,2025-04-10T14:12:00,2025-04-10T14:14:00,3.00
4,Taiga,2025-04-11T04:20:00,2025-04-11T04:21:00,2.00
4,Taiga,2025-04-11T14:12:00,2025-04-11T14:13:00,2.00
4,Taiga,2025-04-12T04:19:00,2025-04-12T04:21:00,3.00
4,Taiga,2025-04-12T14:12:00,2025-04-12T14:13:00,2.00
5,Taiga,2025-03-30T05:51:00,2025-03-30T05:53:00,3.00
5,Taiga,2025-03-30T15:43:00,2025-03-30T15:45:00,3.00
5,Taiga,2025-03-31T05:50:00,2025-03-31T05:52:00,3.00
5,Taiga,2025-03-31T15:43:00,2025-03-31T15:44:00,2.00
5,Taiga,2025-04-01T05:50:00,2025-04-01T05:52:00,3.00
5,Taiga,2025-04-01T15:42:00,2025-04-01T15:44:00,3.00
5,Taiga,2025-04-02T05:50:00,2025-04-02T05:51:00,2.00
5,Taiga,2025-04-02T15:42:00,2025-04-02T15:43:00,2.00
5,Taiga,2025-04-03T05:50:00,2025-04-03T05:51:00,2.00
5,Taiga,2025-04-03T15:42:00,2025-04-03T15:43:00,2.00
5,Taiga,2025-04-04T05:50:00,2025-04-04T05:50:00,1.00
5,Taiga,2025-04-05T14:05:00,2025-04-05T14:05:00,1.00
5,Taiga,2025-04-06T14:04:00,2025-04-06T14:05:00,2.00
5,Taiga,2025-04-07T04:12:00,2025-04-07T04:13:00,2.00
5,Taiga,2025-04-07T14:04:00,2025-04-07T14:05:00,2.00
5,Taiga,2025-04-08T04:11:00,2025-04-08T04:12:00,2.00
5,Taiga,2025-04-08T14:03:00,2025-04-08T14:05:00,3.00
5,Taiga,2025-04-09T04:11:00,2025-04-09T04:12:00,2.00
5,Taiga,2025-04-09T14:03:00,2025-04-09T14:05:00,3.00
5,Taiga,2025-04-10T04:10:00,2025-04-10T04:12:00,3.00
5,Taiga,2025-04-10T14:02:00,2025-04-10T14:04:00,3.00
5,Taiga,2025-04-11T04:10:00,2025-04-11T04:12:00,3.00
5,Taiga,2025-04-11T14:02:00,2025-04-11T14:04:00,3.00
5,Taiga,2025-04-12T04:10:00,2025-04-12T04:11:00,2.00
5,Taiga,2025-04-12T14:02:00,2025-04-12T14:03:00,2.00
6,Taiga,2025-03-30T05:41:00,2025-03-30T05:43:00,3.00
6,Taiga,2025-03-30T15:33:00,2025-03-30T15:35:00,3.00
6,Taiga,2025-03-31T05:41:00,2025-03-31T05:43:00,3.00
6,Taiga,2025-03-31T15:33:00,2025-03-31T15:35:00,3.00
6,Taiga,2025-04-01T05:40:00,2025-04-01T05:42:00,3.00
6,Taiga,2025-04-01T15:33:00,2025-04-01T15:34:00,2.00
6,Taiga,2025-04-02T05:40:00,2025-04-02T05:42:00,3.00
6,Taiga,2025-04-02T15:32:00,2025-04-02T15:34:00,3.00
6,Taiga,2025-04-03T05:40:00,2025-04-03T05:41:00,2.00
6,Taiga,2025-04-03T15:32:00,2025-04-03T15:33:00,2.00
6,Taiga,2025-04-04T05:40:00,2025-04-04T05:41:00,2.00
6,Taiga,2025-04-04T15:32:00,2025-04-04T15:33:00,2.00
6,Taiga,2025-04-05T05:40:00,2025-04-05T05:40:00,1.00
6,Taiga,2025-04-07T13:54:00,2025-04-07T13:55:00,2.00
6,Taiga,2025-04-08T04:02:00,2025-04-08T04:02:00,1.00
6,Taiga,2025-04-08T13:54:00,2025-04-08T13:55:00,2.00
6,Taiga,2025-04-09T04:01:00,2025-04-09T04:02:00,2.00
6,Taiga,2025-04-09T13:53:00,2025-04-09T13:55:00,3.00
6,Taiga,2025-04-10T04:01:00,2025-04-10T04:02:00,2.00
6,Taiga,2025-04-10T13:53:00,2025-04-10T13:55:00,3.00
6,Taiga,2025-04-11T04:00:00,2025-04-11T04:02:00,3.00
6,Taiga,2025-04-11T13:52:00,2025-04-11T13:54:00,3.00
6,Taiga,2025-04-12T04:00:00,2025-04-12T04:02:00,3.00
6,Taiga,2025-04-12T13:52:00,2025-04-12T13:54:00,3.00
7,Taiga,2025-03-30T05:32:00,2025-03-30T05:33:00,2.00
7,Taiga,2025-03-30T15:24:00,2025-03-30T15:25:00,2.00
7,Taiga,2025-03-31T05:31:00,2025-03-31T05:33:00,3.00
7,Taiga,2025-03-31T15:23:00,2025-03-31T15:25:00,3.00
7,Taiga,2025-04-01T05:31:00,2025-04-01T05:33:00,3.00
7,Taiga,2025-04-01T15:23:00,2025-04-01T15:25:00,3.00
7,Taiga,2025-04-02T05:30:00,2025-04-02T05:32:00,3.00
7,Taiga,2025-04-02T15:23:00,2025-04-02T15:24:00,2.00
7,Taiga,2025-04-03T05:30:00,2025-04-03T05:32:00,3.00
7,Taiga,2025-04-03T15:22:00,2025-04-03T15:24:00,3.00
7,Taiga,2025-04-04T05:30:00,2025-04-04T05:31:00,2.00
7,Taiga,2025-04-04T15:22:00,2025-04-04T15:23:00,2.00
7,Taiga,2025-04-05T05:30:00,2025-04-05T05:31:00,2.00
7,Taiga,2025-04-05T15:22:00,2025-04-05T15:23:00,2.00
7,Taiga,2025-04-06T05:30:00,2025-04-06T05:30:00,1.00
7,Taiga,2025-04-08T13:44:00,2025-04-08T13:45:00,2.00
7,Taiga,2025-04-09T03:52:00,2025-04-09T03:52:00,1.00
7,Taiga,2025-04-09T13:44:00,2025-04-09T13:45:00,2.00
7,Taiga,2025-04-10T03:51:00,2025-04-10T03:52:00,2.00
7,Taiga,2025-04-10T13:43:00,2025-04-10T13:45:00,3.00
7,Taiga,2025-04-11T03:51:00,2025-04-11T03:52:00,2.00
7,Taiga,2025-04-11T13:43:00,2025-04-11T13:45:00,3.00
7,Taiga,2025-04-12T03:50:00,2025-04-12T03:52:00,3.00
7,Taiga,2025-04-12T13:42:00,2025-04-12T13:44:00,3.00
8,Taiga,2025-03-30T05:22:00,2025-03-30T05:23:00,2.00
8,Taiga,2025-03-30T15:14:00,2025-03-30T15:15:00,2.00
8,Taiga,2025-03-31T05:22:00,2025-03-31T05:23:00,2.00
8,Taiga,2025-03-31T15:14:00,2025-03-31T15:15:00,2.00
8,Taiga,2025-04-01T05:21:00,2025-04-01T05:23:00,3.00
8,Taiga,2025-04-01T15:13:00,2025-04-01T15:15:00,3.00
8,Taiga,2025-04-02T05:21:00,2025-04-02T05:23:00,3.00
8,Taiga,2025-04-02T15:13:00,2025-04-02T15:15:00,3.00
8,Taiga,2025-04-03T05:20:00,2025-04-03T05:22:00,3.00
8,Taiga,2025-04-03T15:13:00,2025-04-03T15:14:00,2.00
8,Taiga,2025-04-04T05:20:00,2025-04-04T05:22:00,3.00
8,Taiga,2025-04-04T15:12:00,2025-04-04T15:14:00,3.00
8,Taiga,2025-04-05T05:20:00,2025-04-05T05:21:00,2.00
8,Taiga,2025-04-05T15:12:00,2025-04-05T15:13:00,2.00
8,Taiga,2025-04-06T05:20:00,2025-04-06T05:21:00,2.00
8,Taiga,2025-04-06T15:12:00,2025-04-06T15:13:00,2.00
8,Taiga,2025-04-07T05:20:00,2025-04-07T05:20:00,1.00
8,Taiga,2025-04-09T13:34:00,2025-04-09T13:35:00,2.00
8,Taiga,2025-04-10T03:42:00,2025-04-10T03:42:00,1.00
8,Taiga,2025-04-10T13:34:00,2025-04-10T13:35:00,2.00
8,Taiga,2025-04-11T03:41:00,2025-04-11T03:42:00,2.00
8,Taiga,2025-04-11T13:33:00,2025-04-11T13:35:00,3.00
8,Taiga,2025-04-12T03:41:00,2025-04-12T03:42:00,2.00
8,Taiga,2025-04-12T13:33:00,2025-04-12T13:34:00,2.00
9,Taiga,2025-03-30T15:05:00,2025-03-30T15:05:00,1.00
9,Taiga,2025-03-31T05:12:00,2025-03-31T05:13:00,2.00
9,Taiga,2025-03-31T15:04:00,2025-03-31T15:05:00,2.00
9,Taiga,2025-04-01T05:12:00,2025-04-01T05:13:00,2.00
9,Taiga,2025-04-01T15:04:00,2025-04-01T15:05:00,2.00
9,Taiga,2025-04-02T05:11:00,2025-04-02T05:13:00,3.00
9,Taiga,2025-04-02T15:03:00,2025-04-02T15:05:00,3.00
9,Taiga,2025-04-03T05:11:00,2025-04-03T05:12:00,2.00
9,Taiga,2025-04-03T15:03:00,2025-04-03T15:05:00,3.00
9,Taiga,2025-04-04T05:10:00,2025-04-04T05:12:00,3.00
9,Taiga,2025-04-04T15:03:00,2025-04-04T15:04:00,2.00
9,Taiga,2025-04-05T05:10:00,2025-04-05T05:12:00,3.00
9,Taiga,2025-04-05T15:02:00,2025-04-05T15:04:00,3.00
9,Taiga,2025-04-06T05:10:00,2025-04-06T05:11:00,2.00
9,Taiga,2025-04-06T15:02:00,2025-04-06T15:03:00,2.00
9,Taiga,2025-04-07T05:10:00,2025-04-07T05:11:00,2.00
9,Taiga,2025-04-07T15:02:00,2025-04-07T15:03:00,2.00
9,Taiga,2025-04-08T05:10:00,2025-04-08T05:10:00,1.00
9,Taiga,2025-04-08T15:02:00,2025-04-08T15:02:00,1.00
9,Taiga,2025-04-10T13:24:00,2025-04-10T13:25:00,2.00
9,Taiga,2025-04-11T03:32:00,2025-04-11T03:32:00,1.00
9,Taiga,2025-04-11T13:24:00,2025-04-11T13:25:00,2.00
9,Taiga,2025-04-12T03:31:00,2025-04-12T03:32:00,2.00
9,Taiga,2025-04-12T13:23:00,2025-04-12T13:25:00,3.00
10,Taiga,2025-03-30T06:38:00,2025-03-30T06:40:00,3.00
10,Taiga,2025-03-30T16:30:00,2025-03-30T16:32:00,3.00
10,Taiga,2025-03-31T06:38:00,2025-03-31T06:39:00,2.00
10,Taiga,2025-03-31T16:30:00,2025-03-31T16:32:00,3.00
10,Taiga,2025-04-01T06:37:00,2025-04-01T06:39:00,3.00
10,Taiga,2025-04-01T16:30:00,2025-04-01T16:31:00,2.00
10,Taiga,2025-04-02T06:37:00,2025-04-02T06:39:00,3.00
10,Taiga,2025-04-02T16:29:00,2025-04-02T16:31:00,3.00
10,Taiga,2025-04-03T06:37:00,2025-04-03T06:39:00,3.00
10,Taiga,2025-04-03T16:29:00,2025-04-03T16:31:00,3.00
10,Taiga,2025-04-04T06:36:00,2025-04-04T06:38:00,3.00
10,Taiga,2025-04-04T16:29:00,2025-04-04T16:30:00,2.00
10,Taiga,2025-04-05T06:36:00,2025-04-05T06:38:00,3.00
10,Taiga,2025-04-05T16:29:00,2025-04-05T16:30:00,2.00
10,Taiga,2025-04-06T06:36:00,2025-04-06T06:37:00,2.00
10,Taiga,2025-04-06T16:29:00,2025-04-06T16:29:00,1.00
10,Taiga,2025-04-07T06:36:00,2025-04-07T06:36:00,1.00
10,Taiga,2025-04-08T14:51:00,2025-04-08T14:51:00,1.00
10,Taiga,2025-04-09T04:59:00,2025-04-09T04:59:00,1.00
10,Taiga,2025-04-09T14:50:00,2025-04-09T14:51:00,2.00
10,Taiga,2025-04-10T04:58:00,2025-04-10T04:59:00,2.00
10,Taiga,2025-04-10T14:50:00,2025-04-10T14:51:00,2.00
10,Taiga,2025-04-11T04:57:00,2025-04-11T04:59:00,3.00
10,Taiga,2025-04-11T14:49:00,2025-04-11T14:51:00,3.00
10,Taiga,2025-04-12T04:57:00,2025-04-12T04:59:00,3.00
10,Taiga,2025-04-12T14:49:00,2025-04-12T14:51:00,3.00
11,Taiga,2025-03-30T06:29:00,2025-03-30T06:29:00,1.00
11,Taiga,2025-03-30T16:21:00,2025-03-30T16:22:00,2.00
11,Taiga,2025-03-31T06:28:00,2025-03-31T06:29:00,2.00
11,Taiga,2025-03-31T16:20:00,2025-03-31T16:22:00,3.00
11,Taiga,2025-04-01T06:28:00,2025-04-01T06:29:00,2.00
11,Taiga,2025-04-01T16:20:00,2025-04-01T16:22:00,3.00
11,Taiga,2025-04-02T06:27:00,2025-04-02T06:29:00,3.00
11,Taiga,2025-04-02T16:20:00,2025-04-02T16:21:00,2.00
11,Taiga,2025-04-03T06:27:00,2025-04-03T06:29:00,3.00
11,Taiga,2025-04-03T16:19:00,2025-04-03T16:21:00,3.00
11,Taiga,2025-04-04T06:27:00,2025-04-04T06:29:00,3.00
11,Taiga,2025-04-04T16:19:00,2025-04-04T16:21:00,3.00
11,Taiga,2025-04-05T06:26:00,2025-04-05T06:28:00,3.00
11,Taiga,2025-04-05T16:19:00,2025-04-05T16:20:00,2.00
11,Taiga,2025-04-06T06:26:00,2025-04-06T06:28:00,3.00
11,Taiga,2025-04-06T16:19:00,2025-04-06T16:20:00,2.00
11,Taiga,2025-04-07T06:26:00,2025-04-07T06:27:00,2.00
11,Taiga,2025-04-07T16:19:00,2025-04-07T16:19:00,1.00
11,Taiga,2025-04-08T06:26:00,2025-04-08T06:27:00,2.00
11,Taiga,2025-04-09T14:41:00,2025-04-09T14:41:00,1.00
11,Taiga,2025-04-10T04:49:00,2025-04-10T04:49:00,1.00
11,Taiga,2025-04-10T14:40:00,2025-04-10T14:41:00,2.00
11,Taiga,2025-04-11T04:48:00,2025-04-11T04:49:00,2.00
11,Taiga,2025-04-11T14:40:00,2025-04-11T14:41:00,2.00
11,Taiga,2025-04-12T04:47:00,2025-04-12T04:49:00,3.00
11,Taiga,2025-04-12T14:39:00,2025-04-12T14:41:00,3.00
12,Taiga,2025-03-30T16:12:00,2025-03-30T16:12:00,1.00
12,Taiga,2025-03-31T06:19:00,2025-03-31T06:19:00,1.00
12,Taiga,2025-03-31T16:11:00,2025-03-31T16:12:00,2.00
12,Taiga,2025-04-01T06:18:00,2025-04-01T06:19:00,2.00
12,Taiga,2025-04-01T16:10:00,2025-04-01T16:12:00,3.00
12,Taiga,2025-04-02T06:18:00,2025-04-02T06:19:00,2.00
12,Taiga,2025-04-02T16:10:00,2025-04-02T16:12:00,3.00
12,Taiga,2025-04-03T06:17:00,2025-04-03T06:19:00,3.00
12,Taiga,2025-04-03T16:10:00,2025-04-03T16:11:00,2.00
12,Taiga,2025-04-04T06:17:00,2025-04-04T06:19:00,3.00
12,Taiga,2025-04-04T16:09:00,2025-04-04T16:11:00,3.00
12,Taiga,2025-04-05T06:17:00,2025-04-05T06:19:00,3.00
12,Taiga,2025-04-05T16:09:00,2025-04-05T16:11:00,3.00
12,Taiga,2025-04-06T06:16:00,2025-04-06T06:18:00,3.00
12,Taiga,2025-04-06T16:09:00,2025-04-06T16:10:00,2.00
12,Taiga,2025-04-07T06:16:00,2025-04-07T06:18:00,3.00
12,Taiga,2025-04-07T16:09:00,2025-04-07T16:10:00,2.00
12,Taiga,2025-04-08T06:16:00,2025-04-08T06:17:00,2.00
12,Taiga,2025-04-08T16:09:00,2025-04-08T16:09:00,1.00
12,Taiga,2025-04-09T06:16:00,2025-04-09T06:17:00,2.00
12,Taiga,2025-04-10T14:31:00,2025-04-10T14:31:00,1.00
12,Taiga,2025-04-11T14:30:00,2025-04-11T14:31:00,2.00
12,Taiga,2025-04-12T04:38:00,2025-04-12T04:39:00,2.00
12,Taiga,2025-04-12T14:30:00,2025-04-12T14:31:00,2.00
13,Taiga,2025-03-30T07:47:00,2025-03-30T07:47:00,1.00
13,Taiga,2025-04-01T16:01:00,2025-04-01T16:02:00,2.00
13,Taiga,2025-04-02T06:09:00,2025-04-02T06:09:00,1.00
13,Taiga,2025-04-02T16:00:00,2025-04-02T16:02:00,3.00
13,Taiga,2025-04-03T06:08:00,2025-04-03T06:09:00,2.00
13,Taiga,2025-04-03T16:00:00,2025-04-03T16:02:00,3.00
13,Taiga,2025-04-04T06:07:00,2025-04-04T06:09:00,3.00
13,Taiga,2025-04-04T16:00:00,2025-04-04T16:01:00,2.00
13,Taiga,2025-04-05T06:07:00,2025-04-05T06:09:00,3.00
13,Taiga,2025-04-05T15:59:00,2025-04-05T16:01:00,3.00
13,Taiga,2025-04-06T06:07:00,2025-04-06T06:08:00,2.00
13,Taiga,2025-04-06T15:59:00,2025-04-06T16:01:00,3.00
13,Taiga,2025-04-07T06:06:00,2025-04-07T06:08:00,3.00
13,Taiga,2025-04-07T15:59:00,2025-04-07T16:00:00,2.00
13,Taiga,2025-04-08T06:06:00,2025-04-08T06:08:00,3.00
13,Taiga,2025-04-08T15:58:00,2025-04-08T16:00:00,3.00
13,Taiga,2025-04-09T06:06:00,2025-04-09T06:07:00,2.00
13,Taiga,2025-04-09T15:58:00,2025-04-09T15:59:00,2.00
13,Taiga,2025-04-10T06:06:00,2025-04-10T06:07:00,2.00
13,Taiga,2025-04-12T14:20:00,2025-04-12T14:21:00,2.00
14,Taiga,2025-03-30T07:37:00,2025-03-30T07:38:00,2.00
14,Taiga,2025-03-30T17:29:00,2025-03-30T17:30:00,2.00
14,Taiga,2025-03-31T07:37:00,2025-03-31T07:37:00,1.00
14,Taiga,2025-04-02T15:51:00,2025-04-02T15:52:00,2.00
14,Taiga,2025-04-03T05:59:00,2025-04-03T05:59:00,1.00
14,Taiga,2025-04-03T15:50:00,2025-04-03T15:52:00,3.00
14,Taiga,2025-04-04T05:58:00,2025-04-04T05:59:00,2.00
14,Taiga,2025-04-04T15:50:00,2025-04-04T15:52:00,3.00
14,Taiga,2025-04-05T05:57:00,2025-04-05T05:59:00,3.00
14,Taiga,2025-04-05T15:50:00,2025-04-05T15:51:00,2.00
14,Taiga,2025-04-06T05:57:00,2025-04-06T05:59:00,3.00
14,Taiga,2025-04-06T15:49:00,2025-04-06T15:51:00,3.00
14,Taiga,2025-04-07T05:57:00,2025-04-07T05:58:00,2.00
14,Taiga,2025-04-07T15:49:00,2025-04-07T15:51:00,3.00
14,Taiga,2025-04-08T05:56:00,2025-04-08T05:58:00,3.00
14,Taiga,2025-04-08T15:49:00,2025-04-08T15:50:00,2.00
14,Taiga,2025-04-09T05:56:00,2025-04-09T05:58:00,3.00
14,Taiga,2025-04-09T15:48:00,2025-04-09T15:50:00,3.00
14,Taiga,2025-04-10T05:56:00,2025-04-10T05:57:00,2.00
14,Taiga,2025-04-10T15:48:00,2025-04-10T15:49:00,2.00
14,Taiga,2025-04-11T05:56:00,2025-04-11T05:57:00,2.00
15,Taiga,2025-03-30T07:27:00,2025-03-30T07:28:00,2.00
15,Taiga,2025-03-30T17:19:00,2025-03-30T17:20:00,2.00
15,Taiga,2025-03-31T07:27:00,2025-03-31T07:28:00,2.00
15,Taiga,2025-03-31T17:19:00,2025-03-31T17:20:00,2.00
15,Taiga,2025-04-01T07:27:00,2025-04-01T07:27:00,1.00
15,Taiga,2025-04-03T15:41:00,2025-04-03T15:42:00,2.00
15,Taiga,2025-04-04T05:49:00,2025-04-04T05:49:00,1.00
15,Taiga,2025-04-04T15:40:00,2025-04-04T15:42:00,3.00
15,Taiga,2025-04-05T05:48:00,2025-04-05T05:49:00,2.00
15,Taiga,2025-04-05T15:40:00,2025-04-05T15:41:00,2.00
15,Taiga,2025-04-06T05:47:00,2025-04-06T05:49:00,3.00
15,Taiga,2025-04-06T15:39:00,2025-04-06T15:41:00,3.00
15,Taiga,2025-04-07T05:47:00,2025-04-07T05:49:00,3.00
15,Taiga,2025-04-07T15:39:00,2025-04-07T15:41:00,3.00
15,Taiga,2025-04-08T05:47:00,2025-04-08T05:48:00,2.00
15,Taiga,2025-04-08T15:39:00,2025-04-08T15:41:00,3.00
15,Taiga,2025-04-09T05:46:00,2025-04-09T05:48:00,3.00
15,Taiga,2025-04-09T15:39:00,2025-04-09T15:40:00,2.00
15,Taiga,2025-04-10T05:46:00,2025-04-10T05:48:00,3.00
15,Taiga,2025-04-10T15:38:00,2025-04-10T15:40:00,3.00
15,Taiga,2025-04-11T05:46:00,2025-04-11T05:47:00,2.00
15,Taiga,2025-04-11T15:38:00,2025-04-11T15:39:00,2.00
15,Taiga,2025-04-12T05:46:00,2025-04-12T05:47:00,2.00
16,Taiga,2025-03-30T07:17:00,2025-03-30T07:19:00,3.00
16,Taiga,2025-03-30T17:09:00,2025-03-30T17:11:00,3.00
16,Taiga,2025-03-31T07:17:00,2025-03-31T07:18:00,2.00
16,Taiga,2025-03-31T17:09:00,2025-03-31T17:10:00,2.00
16,Taiga,2025-04-01T07:16:00,2025-04-01T07:18:00,3.00
16,Taiga,2025-04-01T17:09:00,2025-04-01T17:10:00,2.00
16,Taiga,2025-04-02T07:17:00,2025-04-02T07:17:00,1.00
16,Taiga,2025-04-04T15:31:00,2025-04-04T15:31:00,1.00
16,Taiga,2025-04-05T05:39:00,2025-04-05T05:39:00,1.00
16,Taiga,2025-04-05T15:30:00,2025-04-05T15:32:00,3.00
16,Taiga,2025-04-06T05:38:00,2025-04-06T05:39:00,2.00
16,Taiga,2025-04-06T15:30:00,2025-04-06T15:31:00,2.00
16,Taiga,2025-04-07T05:37:00,2025-04-07T05:39:00,3.00
16,Taiga,2025-04-07T15:29:00,2025-04-07T15:31:00,3.00
16,Taiga,2025-04-08T05:37:00,2025-04-08T05:39:00,3.00
16,Taiga,2025-04-08T15:29:00,2025-04-08T15:31:00,3.00
16,Taiga,2025-04-09T05:37:00,2025-04-09T05:38:00,2.00
16,Taiga,2025-04-09T15:29:00,2025-04-09T15:31:00,3.00
16,Taiga,2025-04-10T05:36:00,2025-04-10T05:38:00,3.00
16,Taiga,2025-04-10T15:29:00,2025-04-10T15:30:00,2.00
16,Taiga,2025-04-11T05:36:00,2025-04-11T05:38:00,3.00
16,Taiga,2025-04-11T15:28:00,2025-04-11T15:30:00,3.00
16,Taiga,2025-04-12T05:36:00,2025-04-12T05:37:00,2.00
16,Taiga,2025-04-12T15:28:00,2025-04-12T15:29:00,2.00
17,Taiga,2025-03-30T07:07:00,2025-03-30T07:09:00,3.00
17,Taiga,2025-03-30T16:59:00,2025-03-30T17:01:00,3.00
17,Taiga,2025-03-31T07:07:00,2025-03-31T07:09:00,3.00
17,Taiga,2025-03-31T16:59:00,2025-03-31T17:01:00,3.00
17,Taiga,2025-04-01T07:07:00,2025-04-01T07:08:00,2.00
17,Taiga,2025-04-01T16:59:00,2025-04-01T17:00:00,2.00
17,Taiga,2025-04-02T07:06:00,2025-04-02T07:08:00,3.00
17,Taiga,2025-04-02T16:59:00,2025-04-02T17:00:00,2.00
17,Taiga,2025-04-03T07:06:00,2025-04-03T07:07:00,2.00
17,Taiga,2025-04-05T15:21:00,2025-04-05T15:21:00,1.00
17,Taiga,2025-04-06T05:29:00,2025-04-06T05:29:00,1.00
17,Taiga,2025-04-06T15:20:00,2025-04-06T15:21:00,2.00
17,Taiga,2025-04-07T05:28:00,2025-04-07T05:29:00,2.00
17,Taiga,2025-04-07T15:20:00,2025-04-07T15:21:00,2.00
17,Taiga,2025-04-08T05:27:00,2025-04-08T05:29:00,3.00
17,Taiga,2025-04-08T15:19:00,2025-04-08T15:21:00,3.00
17,Taiga,2025-04-09T05:27:00,2025-04-09T05:29:00,3.00
17,Taiga,2025-04-09T15:19:00,2025-04-09T15:21:00,3.00
17,Taiga,2025-04-10T05:27:00,2025-04-10T05:28:00,2.00
17,Taiga,2025-04-10T15:19:00,2025-04-10T15:21:00,3.00
17,Taiga,2025-04-11T05:26:00,2025-04-11T05:28:00,3.00
17,Taiga,2025-04-11T15:19:00,2025-04-11T15:20:00,2.00
17,Taiga,2025-04-12T05:26:00,2025-04-12T05:28:00,3.00
17,Taiga,2025-04-12T15:18:00,2025-04-12T15:20:00,3.00
18,Taiga,2025-03-30T06:57:00,2025-03-30T06:59:00,3.00
18,Taiga,2025-03-30T16:50:00,2025-03-30T16:52:00,3.00
18,Taiga,2025-03-31T06:57:00,2025-03-31T06:59:00,3.00
18,Taiga,2025-03-31T16:49:00,2025-03-31T16:51:00,3.00
18,Taiga,2025-04-01T06:57:00,2025-04-01T06:59:00,3.00
18,Taiga,2025-04-01T16:49:00,2025-04-01T16:51:00,3.00
18,Taiga,2025-04-02T06:57:00,2025-04-02T06:58:00,2.00
18,Taiga,2025-04-02T16:49:00,2025-04-02T16:50:00,2.00
18,Taiga,2025-04-03T06:56:00,2025-04-03T06:58:00,3.00
18,Taiga,2025-04-03T16:49:00,2025-04-03T16:50:00,2.00
18,Taiga,2025-04-04T06:56:00,2025-04-04T06:57:00,2.00
18,Taiga,2025-04-04T16:49:00,2025-04-04T16:49:00,1.00
18,Taiga,2025-04-06T15:11:00,2025-04-06T15:11:00,1.00
18,Taiga,2025-04-07T05:19:00,2025-04-07T05:19:00,1.00
18,Taiga,2025-04-07T15:10:00,2025-04-07T15:11:00,2.00
18,Taiga,2025-04-08T05:18:00,2025-04-08T05:19:00,2.00
18,Taiga,2025-04-08T15:10:00,2025-04-08T15:11:00,2.00
18,Taiga,2025-04-09T05:17:00,2025-04-09T05:19:00,3.00
18,Taiga,2025-04-09T15:09:00,2025-04-09T15:11:00,3.00
18,Taiga,2025-04-10T05:17:00,2025-04-10T05:19:00,3.00
18,Taiga,2025-04-10T15:09:00,2025-04-10T15:11:00,3.00
18,Taiga,2025-04-11T05:16:00,2025-04-11T05:18:00,3.00
18,Taiga,2025-04-11T15:09:00,2025-04-11T15:11:00,3.00
18,Taiga,2025-04-12T05:16:00,2025-04-12T05:18:00,3.00
18,Taiga,2025-04-12T15:08:00,2025-04-12T15:10:00,3.00
19,Taiga,2025-03-30T06:48:00,2025-03-30T06:49:00,2.00
19,Taiga,2025-03-30T16:40:00,2025-03-30T16:42:00,3.00
19,Taiga,2025-03-31T06:47:00,2025-03-31T06:49:00,3.00
19,Taiga,2025-03-31T16:40:00,2025-03-31T16:41:00,2.00
19,Taiga,2025-04-01T06:47:00,2025-04-01T06:49:00,3.00
19,Taiga,2025-04-01T16:39:00,2025-04-01T16:41:00,3.00
19,Taiga,2025-04-02T06:47:00,2025-04-02T06:49:00,3.00
19,Taiga,2025-04-02T16:39:00,2025-04-02T16:41:00,3.00
19,Taiga,2025-04-03T06:46:00,2025-04-03T06:48:00,3.00
19,Taiga,2025-04-03T16:39:00,2025-04-03T16:40:00,2.00
19,Taiga,2025-04-04T06:46:00,2025-04-04T06:48:00,3.00
19,Taiga,2025-04-04T16:39:00,2025-04-04T16:40:00,2.00
19,Taiga,2025-04-05T06:46:00,2025-04-05T06:47:00,2.00
19,Taiga,2025-04-05T16:39:00,2025-04-05T16:39:00,1.00
19,Taiga,2025-04-07T15:01:00,2025-04-07T15:01:00,1.00
19,Taiga,2025-04-08T05:09:00,2025-04-08T05:09:00,1.00
19,Taiga,2025-04-08T15:00:00,2025-04-08T15:01:00,2.00
19,Taiga,2025-04-09T05:08:00,2025-04-09T05:09:00,2.00
19,Taiga,2025-04-09T15:00:00,2025-04-09T15:01:00,2.00
19,Taiga,2025-04-10T05:07:00,2025-04-10T05:09:00,3.00
19,Taiga,2025-04-10T14:59:00,2025-04-10T15:01:00,3.00
19,Taiga,2025-04-11T05:07:00,2025-04-11T05:09:00,3.00
19,Taiga,2025-04-11T14:59:00,2025-04-11T15:01:00,3.00
19,Taiga,2025-04-12T05:06:00,2025-04-12T05:08:00,3.00
19,Taiga,2025-04-12T14:59:00,2025-04-12T15:01:00,3.00
20,Taiga,2025-03-30T09:51:00,2025-03-30T09:53:00,3.00
20,Taiga,2025-03-30T16:28:00,2025-03-30T16:30:00,3.00
20,Taiga,2025-03-31T09:51:00,2025-03-31T09:52:00,2.00
20,Taiga,2025-03-31T16:27:00,2025-03-31T16:29:00,3.00
20,Taiga,2025-04-01T09:51:00,2025-04-01T09:52:00,2.00
20,Taiga,2025-04-01T16:27:00,2025-04-01T16:29:00,3.00
20,Taiga,2025-04-02T08:12:00,2025-04-02T08:13:00,2.00
20,Taiga,2025-04-02T16:26:00,2025-04-02T16:28:00,3.00
20,Taiga,2025-04-03T08:11:00,2025-04-03T08:13:00,3.00
20,Taiga,2025-04-03T16:26:00,2025-04-03T16:27:00,2.00
20,Taiga,2025-04-04T08:11:00,2025-04-04T08:12:00,2.00
20,Taiga,2025-04-04T14:48:00,2025-04-04T14:48:00,1.00
20,Taiga,2025-04-05T08:10:00,2025-04-05T08:12:00,3.00
20,Taiga,2025-04-05T14:47:00,2025-04-05T14:48:00,2.00
20,Taiga,2025-04-06T08:09:00,2025-04-06T08:11:00,3.00
20,Taiga,2025-04-06T14:46:00,2025-04-06T14:48:00,3.00
20,Taiga,2025-04-07T08:09:00,2025-04-07T08:11:00,3.00
20,Taiga,2025-04-07T14:45:00,2025-04-07T14:47:00,3.00
20,Taiga,2025-04-08T08:09:00,2025-04-08T08:10:00,2.00
20,Taiga,2025-04-08T14:45:00,2025-04-08T14:47:00,3.00
20,Taiga,2025-04-09T06:31:00,2025-04-09T06:31:00,1.00
20,Taiga,2025-04-09T08:09:00,2025-04-09T08:09:00,1.00
20,Taiga,2025-04-09T14:44:00,2025-04-09T14:46:00,3.00
20,Taiga,2025-04-10T06:29:00,2025-04-10T06:31:00,3.00
20,Taiga,2025-04-10T14:44:00,2025-04-10T14:45:00,2.00
20,Taiga,2025-04-11T06:29:00,2025-04-11T06:30:00,2.00
20,Taiga,2025-04-11T13:06:00,2025-04-11T13:06:00,1.00
20,Taiga,2025-04-11T14:44:00,2025-04-11T14:44:00,1.00
20,Taiga,2025-04-12T06:28:00,2025-04-12T06:30:00,3.00
20,Taiga,2025-04-12T13:05:00,2025-04-12T13:06:00,2.00
21,Taiga,2025-03-30T09:42:00,2025-03-30T09:43:00,2.00
21,Taiga,2025-03-30T16:18:00,2025-03-30T16:20:00,3.00
21,Taiga,2025-03-31T09:41:00,2025-03-31T09:43:00,3.00
21,Taiga,2025-03-31T16:18:00,2025-03-31T16:19:00,2.00
21,Taiga,2025-04-01T09:41:00,2025-04-01T09:42:00,2.00
21,Taiga,2025-04-01T16:17:00,2025-04-01T16:19:00,3.00
21,Taiga,2025-04-02T09:41:00,2025-04-02T09:41:00,1.00
21,Taiga,2025-04-02T16:17:00,2025-04-02T16:18:00,2.00
21,Taiga,2025-04-03T08:02:00,2025-04-03T08:03:00,2.00
21,Taiga,2025-04-03T16:16:00,2025-04-03T16:18:00,3.00
21,Taiga,2025-04-04T08:01:00,2025-04-04T08:02:00,2.00
21,Taiga,2025-04-04T16:16:00,2025-04-04T16:17:00,2.00
21,Taiga,2025-04-05T08:00:00,2025-04-05T08:02:00,3.00
21,Taiga,2025-04-05T14:37:00,2025-04-05T14:38:00,2.00
21,Taiga,2025-04-06T08:00:00,2025-04-06T08:01:00,2.00
21,Taiga,2025-04-06T14:36:00,2025-04-06T14:38:00,3.00
21,Taiga,2025-04-07T07:59:00,2025-04-07T08:01:00,3.00
21,Taiga,2025-04-07T14:36:00,2025-04-07T14:37:00,2.00
21,Taiga,2025-04-08T07:59:00,2025-04-08T08:00:00,2.00
21,Taiga,2025-04-08T14:35:00,2025-04-08T14:37:00,3.00
21,Taiga,2025-04-09T07:59:00,2025-04-09T07:59:00,1.00
21,Taiga,2025-04-09T14:35:00,2025-04-09T14:36:00,2.00
21,Taiga,2025-04-10T06:20:00,2025-04-10T06:21:00,2.00
21,Taiga,2025-04-10T14:34:00,2025-04-10T14:36:00,3.00
21,Taiga,2025-04-11T06:19:00,2025-04-11T06:20:00,2.00
21,Taiga,2025-04-11T14:34:00,2025-04-11T14:35:00,2.00
21,Taiga,2025-04-12T06:18:00,2025-04-12T06:20:00,3.00
21,Taiga,2025-04-12T12:55:00,2025-04-12T12:56:00,2.00
22,Taiga,2025-03-30T09:32:00,2025-03-30T09:34:00,3.00
22,Taiga,2025-03-30T16:09:00,2025-03-30T16:10:00,2.00
22,Taiga,2025-03-31T09:31:00,2025-03-31T09:33:00,3.00
22,Taiga,2025-03-31T16:08:00,2025-03-31T16:10:00,3.00
22,Taiga,2025-04-01T09:31:00,2025-04-01T09:32:00,2.00
22,Taiga,2025-04-01T16:07:00,2025-04-01T16:09:00,3.00
22,Taiga,2025-04-02T09:31:00,2025-04-02T09:32:00,2.00
22,Taiga,2025-04-02T16:07:00,2025-04-02T16:09:00,3.00
22,Taiga,2025-04-03T07:52:00,2025-04-03T07:52:00,1.00
22,Taiga,2025-04-03T09:31:00,2025-04-03T09:31:00,1.00
22,Taiga,2025-04-03T16:06:00,2025-04-03T16:08:00,3.00
22,Taiga,2025-04-04T07:51:00,2025-04-04T07:52:00,2.00
22,Taiga,2025-04-04T16:06:00,2025-04-04T16:07:00,2.00
22,Taiga,2025-04-05T07:50:00,2025-04-05T07:52:00,3.00
22,Taiga,2025-04-05T14:28:00,2025-04-05T14:28:00,1.00
22,Taiga,2025-04-05T16:06:00,2025-04-05T16:06:00,1.00
22,Taiga,2025-04-06T07:50:00,2025-04-06T07:52:00,3.00
22,Taiga,2025-04-06T14:27:00,2025-04-06T14:28:00,2.00
22,Taiga,2025-04-07T07:49:00,2025-04-07T07:51:00,3.00
22,Taiga,2025-04-07T14:26:00,2025-04-07T14:28:00,3.00
22,Taiga,2025-04-08T07:49:00,2025-04-08T07:50:00,2.00
22,Taiga,2025-04-08T14:25:00,2025-04-08T14:27:00,3.00
22,Taiga,2025-04-09T07:48:00,2025-04-09T07:50:00,3.00
22,Taiga,2025-04-09T14:25:00,2025-04-09T14:27:00,3.00
22,Taiga,2025-04-10T07:48:00,2025-04-10T07:49:00,2.00
22,Taiga,2025-04-10T14:24:00,2025-04-10T14:26:00,3.00
22,Taiga,2025-04-11T06:09:00,2025-04-11T06:10:00,2.00
22,Taiga,2025-04-11T14:24:00,2025-04-11T14:25:00,2.00
22,Taiga,2025-04-12T06:09:00,2025-04-12T06:10:00,2.00
22,Taiga,2025-04-12T14:24:00,2025-04-12T14:24:00,1.00
23,Taiga,2025-03-30T09:22:00,2025-03-30T09:24:00,3.00
23,Taiga,2025-03-30T15:59:00,2025-03-30T16:00:00,2.00
23,Taiga,2025-03-31T09:21:00,2025-03-31T09:23:00,3.00
23,Taiga,2025-03-31T15:58:00,2025-03-31T16:00:00,3.00
23,Taiga,2025-04-01T09:21:00,2025-04-01T09:23:00,3.00
23,Taiga,2025-04-01T15:58:00,2025-04-01T15:59:00,2.00
23,Taiga,2025-04-02T09:21:00,2025-04-02T09:22:00,2.00
23,Taiga,2025-04-02T15:57:00,2025-04-02T15:59:00,3.00
23,Taiga,2025-04-03T09:20:00,2025-04-03T09:21:00,2.00
23,Taiga,2025-04-03T15:56:00,2025-04-03T15:58:00,3.00
23,Taiga,2025-04-04T07:42:00,2025-04-04T07:42:00,1.00
23,Taiga,2025-04-04T09:20:00,2025-04-04T09:20:00,1.00
23,Taiga,2025-04-04T15:56:00,2025-04-04T15:58:00,3.00
23,Taiga,2025-04-05T07:41:00,2025-04-05T07:42:00,2.00
23,Taiga,2025-04-05T15:56:00,2025-04-05T15:57:00,2.00
23,Taiga,2025-04-06T07:40:00,2025-04-06T07:42:00,3.00
23,Taiga,2025-04-06T14:17:00,2025-04-06T14:18:00,2.00
23,Taiga,2025-04-07T07:39:00,2025-04-07T07:41:00,3.00
23,Taiga,2025-04-07T14:16:00,2025-04-07T14:17:00,2.00
23,Taiga,2025-04-08T07:39:00,2025-04-08T07:41:00,3.00
23,Taiga,2025-04-08T14:16:00,2025-04-08T14:17:00,2.00
23,Taiga,2025-04-09T07:38:00,2025-04-09T07:40:00,3.00
23,Taiga,2025-04-09T14:15:00,2025-04-09T14:17:00,3.00
23,Taiga,2025-04-10T07:38:00,2025-04-10T07:39:00,2.00
23,Taiga,2025-04-10T14:14:00,2025-04-10T14:16:00,3.00
23,Taiga,2025-04-11T06:00:00,2025-04-11T06:00:00,1.00
23,Taiga,2025-04-11T07:38:00,2025-04-11T07:38:00,1.00
23,Taiga,2025-04-11T14:14:00,2025-04-11T14:16:00,3.00
23,Taiga,2025-04-12T05:59:00,2025-04-12T06:00:00,2.00
23,Taiga,2025-04-12T14:14:00,2025-04-12T14:15:00,2.00
24,Taiga,2025-03-30T09:12:00,2025-03-30T09:14:00,3.00
24,Taiga,2025-03-30T17:27:00,2025-03-30T17:28:00,2.00
24,Taiga,2025-03-31T09:12:00,2025-03-31T09:13:00,2.00
24,Taiga,2025-03-31T15:49:00,2025-03-31T15:49:00,1.00
24,Taiga,2025-04-01T09:11:00,2025-04-01T09:13:00,3.00
24,Taiga,2025-04-01T15:48:00,2025-04-01T15:49:00,2.00
24,Taiga,2025-04-02T09:11:00,2025-04-02T09:12:00,2.00
24,Taiga,2025-04-02T15:47:00,2025-04-02T15:49:00,3.00
24,Taiga,2025-04-03T09:10:00,2025-04-03T09:12:00,3.00
24,Taiga,2025-04-03T15:47:00,2025-04-03T15:48:00,2.00
24,Taiga,2025-04-04T09:10:00,2025-04-04T09:11:00,2.00
24,Taiga,2025-04-04T15:46:00,2025-04-04T15:48:00,3.00
24,Taiga,2025-04-05T07:31:00,2025-04-05T07:32:00,2.00
24,Taiga,2025-04-05T15:46:00,2025-04-05T15:47:00,2.00
24,Taiga,2025-04-06T07:30:00,2025-04-06T07:32:00,3.00
24,Taiga,2025-04-06T15:45:00,2025-04-06T15:46:00,2.00
24,Taiga,2025-04-07T07:30:00,2025-04-07T07:31:00,2.00
24,Taiga,2025-04-07T14:07:00,2025-04-07T14:07:00,1.00
24,Taiga,2025-04-08T07:29:00,2025-04-08T07:31:00,3.00
24,Taiga,2025-04-08T14:06:00,2025-04-08T14:07:00,2.00
24,Taiga,2025-04-09T07:29:00,2025-04-09T07:30:00,2.00
24,Taiga,2025-04-09T14:05:00,2025-04-09T14:07:00,3.00
24,Taiga,2025-04-10T07:28:00,2025-04-10T07:30:00,3.00
24,Taiga,2025-04-10T14:05:00,2025-04-10T14:06:00,2.00
24,Taiga,2025-04-11T07:28:00,2025-04-11T07:29:00,2.00
24,Taiga,2025-04-11T14:04:00,2025-04-11T14:06:00,3.00
24,Taiga,2025-04-12T05:50:00,2025-04-12T05:50:00,1.00
24,Taiga,2025-04-12T07:28:00,2025-04-12T07:28:00,1.00
24,Taiga,2025-04-12T14:04:00,2025-04-12T14:05:00,2.00
25,Taiga,2025-03-30T09:03:00,2025-03-30T09:04:00,2.00
25,Taiga,2025-03-30T17:17:00,2025-03-30T17:19:00,3.00
25,Taiga,2025-03-31T09:02:00,2025-03-31T09:04:00,3.00
25,Taiga,2025-03-31T15:39:00,2025-03-31T15:39:00,1.00
25,Taiga,2025-03-31T17:17:00,2025-03-31T17:17:00,1.00
25,Taiga,2025-04-01T09:01:00,2025-04-01T09:03:00,3.00
25,Taiga,2025-04-01T15:38:00,2025-04-01T15:39:00,2.00
25,Taiga,2025-04-02T09:01:00,2025-04-02T09:03:00,3.00
25,Taiga,2025-04-02T15:37:00,2025-04-02T15:39:00,3.00
25,Taiga,2025-04-03T09:00:00,2025-04-03T09:02:00,3.00
25,Taiga,2025-04-03T15:37:00,2025-04-03T15:39:00,3.00
25,Taiga,2025-04-04T09:00:00,2025-04-04T09:01:00,2.00
25,Taiga,2025-04-04T15:36:00,2025-04-04T15:38:00,3.00
25,Taiga,2025-04-05T07:22:00,2025-04-05T07:22:00,1.00
25,Taiga,2025-04-05T09:00:00,2025-04-05T09:00:00,1.00
25,Taiga,2025-04-05T15:36:00,2025-04-05T15:37:00,2.00
25,Taiga,2025-04-06T07:21:00,2025-04-06T07:22:00,2.00
25,Taiga,2025-04-06T15:35:00,2025-04-06T15:37:00,3.00
25,Taiga,2025-04-07T07:20:00,2025-04-07T07:22:00,3.00
25,Taiga,2025-04-07T15:35:00,2025-04-07T15:36:00,2.00
25,Taiga,2025-04-08T07:19:00,2025-04-08T07:21:00,3.00
25,Taiga,2025-04-08T13:56:00,2025-04-08T13:57:00,2.00
25,Taiga,2025-04-09T07:19:00,2025-04-09T07:21:00,3.00
25,Taiga,2025-04-09T13:56:00,2025-04-09T13:57:00,2.00
25,Taiga,2025-04-10T07:18:00,2025-04-10T07:20:00,3.00
25,Taiga,2025-04-10T13:55:00,2025-04-10T13:57:00,3.00
25,Taiga,2025-04-11T07:18:00,2025-04-11T07:19:00,2.00
25,Taiga,2025-04-11T13:54:00,2025-04-11T13:56:00,3.00
25,Taiga,2025-04-12T07:18:00,2025-04-12T07:18:00,1.00
25,Taiga,2025-04-12T13:54:00,2025-04-12T13:56:00,3.00
26,Taiga,2025-03-30T08:53:00,2025-03-30T08:54:00,2.00
26,Taiga,2025-03-30T17:07:00,2025-03-30T17:09:00,3.00
26,Taiga,2025-03-31T08:52:00,2025-03-31T08:54:00,3.00
26,Taiga,2025-03-31T17:07:00,2025-03-31T17:08:00,2.00
26,Taiga,2025-04-01T08:51:00,2025-04-01T08:53:00,3.00
26,Taiga,2025-04-01T15:29:00,2025-04-01T15:29:00,1.00
26,Taiga,2025-04-02T08:51:00,2025-04-02T08:53:00,3.00
26,Taiga,2025-04-02T15:28:00,2025-04-02T15:29:00,2.00
26,Taiga,2025-04-03T08:50:00,2025-04-03T08:52:00,3.00
26,Taiga,2025-04-03T15:27:00,2025-04-03T15:29:00,3.00
26,Taiga,2025-04-04T08:50:00,2025-04-04T08:51:00,2.00
26,Taiga,2025-04-04T15:26:00,2025-04-04T15:28:00,3.00
26,Taiga,2025-04-05T08:50:00,2025-04-05T08:51:00,2.00
26,Taiga,2025-04-05T15:26:00,2025-04-05T15:28:00,3.00
26,Taiga,2025-04-06T07:11:00,2025-04-06T07:12:00,2.00
26,Taiga,2025-04-06T08:50:00,2025-04-06T08:50:00,1.00
26,Taiga,2025-04-06T15:25:00,2025-04-06T15:27:00,3.00
26,Taiga,2025-04-07T07:10:00,2025-04-07T07:12:00,3.00
26,Taiga,2025-04-07T15:25:00,2025-04-07T15:26:00,2.00
26,Taiga,2025-04-08T07:10:00,2025-04-08T07:11:00,2.00
26,Taiga,2025-04-08T13:47:00,2025-04-08T13:47:00,1.00
26,Taiga,2025-04-08T15:25:00,2025-04-08T15:25:00,1.00
26,Taiga,2025-04-09T07:09:00,2025-04-09T07:11:00,3.00
26,Taiga,2025-04-09T13:46:00,2025-04-09T13:47:00,2.00
26,Taiga,2025-04-10T07:08:00,2025-04-10T07:10:00,3.00
26,Taiga,2025-04-10T13:45:00,2025-04-10T13:47:00,3.00
26,Taiga,2025-04-11T07:08:00,2025-04-11T07:10:00,3.00
26,Taiga,2025-04-11T13:44:00,2025-04-11T13:46:00,3.00
26,Taiga,2025-04-12T07:08:00,2025-04-12T07:09:00,2.00
26,Taiga,2025-04-12T13:44:00,2025-04-12T13:46:00,3.00
27,Taiga,2025-03-30T10:22:00,2025-03-30T10:22:00,1.00
27,Taiga,2025-03-30T16:57:00,2025-03-30T16:59:00,3.00
27,Taiga,2025-03-31T08:43:00,2025-03-31T08:44:00,2.00
27,Taiga,2025-03-31T16:57:00,2025-03-31T16:59:00,3.00
27,Taiga,2025-04-01T08:42:00,2025-04-01T08:43:00,2.00
27,Taiga,2025-04-01T16:57:00,2025-04-01T16:58:00,2.00
27,Taiga,2025-04-02T08:41:00,2025-04-02T08:43:00,3.00
27,Taiga,2025-04-02T15:18:00,2025-04-02T15:19:00,2.00
27,Taiga,2025-04-03T08:40:00,2025-04-03T08:42:00,3.00
27,Taiga,2025-04-03T15:17:00,2025-04-03T15:19:00,3.00
27,Taiga,2025-04-04T08:40:00,2025-04-04T08:42:00,3.00
27,Taiga,2025-04-04T15:17:00,2025-04-04T15:18:00,2.00
27,Taiga,2025-04-05T08:40:00,2025-04-05T08:41:00,2.00
27,Taiga,2025-04-05T15:16:00,2025-04-05T15:18:00,3.00
27,Taiga,2025-04-06T08:39:00,2025-04-06T08:40:00,2.00
27,Taiga,2025-04-06T15:15:00,2025-04-06T15:17:00,3.00
27,Taiga,2025-04-07T07:01:00,2025-04-07T07:01:00,1.00
27,Taiga,2025-04-07T15:15:00,2025-04-07T15:17:00,3.00
27,Taiga,2025-04-08T07:00:00,2025-04-08T07:01:00,2.00
27,Taiga,2025-04-08T15:15:00,2025-04-08T15:16:00,2.00
27,Taiga,2025-04-09T06:59:00,2025-04-09T07:01:00,3.00
27,Taiga,2025-04-09T13:36:00,2025-04-09T13:37:00,2.00
27,Taiga,2025-04-10T06:58:00,2025-04-10T07:00:00,3.00
27,Taiga,2025-04-10T13:35:00,2025-04-10T13:37:00,3.00
27,Taiga,2025-04-11T06:58:00,2025-04-11T07:00:00,3.00
27,Taiga,2025-04-11T13:35:00,2025-04-11T13:36:00,2.00
27,Taiga,2025-04-12T06:58:00,2025-04-12T06:59:00,2.00
27,Taiga,2025-04-12T13:34:00,2025-04-12T13:36:00,3.00
28,Taiga,2025-03-30T10:11:00,2025-03-30T10:13:00,3.00
28,Taiga,2025-03-30T16:48:00,2025-03-30T16:49:00,2.00
28,Taiga,2025-03-31T08:33:00,2025-03-31T08:33:00,1.00
28,Taiga,2025-03-31T10:11:00,2025-03-31T10:12:00,2.00
28,Taiga,2025-03-31T16:47:00,2025-03-31T16:49:00,3.00
28,Taiga,2025-04-01T08:32:00,2025-04-01T08:33:00,2.00
28,Taiga,2025-04-01T16:47:00,2025-04-01T16:48:00,2.00
28,Taiga,2025-04-02T08:31:00,2025-04-02T08:33:00,3.00
28,Taiga,2025-04-02T16:47:00,2025-04-02T16:47:00,1.00
28,Taiga,2025-04-03T08:31:00,2025-04-03T08:33:00,3.00
28,Taiga,2025-04-03T15:08:00,2025-04-03T15:09:00,2.00
28,Taiga,2025-04-04T08:30:00,2025-04-04T08:32:00,3.00
28,Taiga,2025-04-04T15:07:00,2025-04-04T15:08:00,2.00
28,Taiga,2025-04-05T08:30:00,2025-04-05T08:31:00,2.00
28,Taiga,2025-04-05T15:06:00,2025-04-05T15:08:00,3.00
28,Taiga,2025-04-06T08:29:00,2025-04-06T08:31:00,3.00
28,Taiga,2025-04-06T15:06:00,2025-04-06T15:08:00,3.00
28,Taiga,2025-04-07T08:29:00,2025-04-07T08:30:00,2.00
28,Taiga,2025-04-07T15:05:00,2025-04-07T15:07:00,3.00
28,Taiga,2025-04-08T06:50:00,2025-04-08T06:51:00,2.00
28,Taiga,2025-04-08T15:05:00,2025-04-08T15:06:00,2.00
28,Taiga,2025-04-09T06:49:00,2025-04-09T06:51:00,3.00
28,Taiga,2025-04-09T15:04:00,2025-04-09T15:05:00,2.00
28,Taiga,2025-04-10T06:49:00,2025-04-10T06:51:00,3.00
28,Taiga,2025-04-10T13:26:00,2025-04-10T13:27:00,2.00
28,Taiga,2025-04-11T06:48:00,2025-04-11T06:50:00,3.00
28,Taiga,2025-04-11T13:25:00,2025-04-11T13:26:00,2.00
28,Taiga,2025-04-12T06:48:00,2025-04-12T06:49:00,2.00
28,Taiga,2025-04-12T13:24:00,2025-04-12T13:26:00,3.00
29,Taiga,2025-03-30T10:01:00,2025-03-30T10:03:00,3.00
29,Taiga,2025-03-30T16:38:00,2025-03-30T16:40:00,3.00
29,Taiga,2025-03-31T10:01:00,2025-03-31T10:02:00,2.00
29,Taiga,2025-03-31T16:37:00,2025-03-31T16:39:00,3.00
29,Taiga,2025-04-01T08:23:00,2025-04-01T08:23:00,1.00
29,Taiga,2025-04-01T10:01:00,2025-04-01T10:01:00,1.00
29,Taiga,2025-04-01T16:37:00,2025-04-01T16:38:00,2.00
29,Taiga,2025-04-02T08:22:00,2025-04-02T08:23:00,2.00
29,Taiga,2025-04-02T16:36:00,2025-04-02T16:38:00,3.00
29,Taiga,2025-04-03T08:21:00,2025-04-03T08:23:00,3.00
29,Taiga,2025-04-03T14:58:00,2025-04-03T14:58:00,1.00
29,Taiga,2025-04-03T16:36:00,2025-04-03T16:36:00,1.00
29,Taiga,2025-04-04T08:20:00,2025-04-04T08:22:00,3.00
29,Taiga,2025-04-04T14:57:00,2025-04-04T14:58:00,2.00
29,Taiga,2025-04-05T08:20:00,2025-04-05T08:22:00,3.00
29,Taiga,2025-04-05T14:57:00,2025-04-05T14:58:00,2.00
29,Taiga,2025-04-06T08:19:00,2025-04-06T08:21:00,3.00
29,Taiga,2025-04-06T14:56:00,2025-04-06T14:58:00,3.00
29,Taiga,2025-04-07T08:19:00,2025-04-07T08:20:00,2.00
29,Taiga,2025-04-07T14:55:00,2025-04-07T14:57:00,3.00
29,Taiga,2025-04-08T06:41:00,2025-04-08T06:41:00,1.00
29,Taiga,2025-04-08T08:19:00,2025-04-08T08:19:00,1.00
29,Taiga,2025-04-08T14:55:00,2025-04-08T14:57:00,3.00
29,Taiga,2025-04-09T06:40:00,2025-04-09T06:41:00,2.00
29,Taiga,2025-04-09T14:54:00,2025-04-09T14:56:00,3.00
29,Taiga,2025-04-10T06:39:00,2025-04-10T06:41:00,3.00
29,Taiga,2025-04-10T14:54:00,2025-04-10T14:55:00,2.00
29,Taiga,2025-04-11T06:38:00,2025-04-11T06:40:00,3.00
29,Taiga,2025-04-11T13:15:00,2025-04-11T13:16:00,2.00
29,Taiga,2025-04-12T06:38:00,2025-04-12T06:40:00,3.00
29,Taiga,2025-04-12T13:15:00,2025-04-12T13:16:00,2.00
30,Taiga,2025-03-30T11:28:00,2025-03-30T11:29:00,2.00
30,Taiga,2025-03-30T18:04:00,2025-03-30T18:06:00,3.00
30,Taiga,2025-03-31T09:49:00,2025-03-31T09:50:00,2.00
30,Taiga,2025-03-31T11:28:00,2025-03-31T11:28:00,1.00
30,Taiga,2025-03-31T18:04:00,2025-03-31T18:05:00,2.00
30,Taiga,2025-04-01T09:48:00,2025-04-01T09:50:00,3.00
30,Taiga,2025-04-01T18:03:00,2025-04-01T18:04:00,2.00
30,Taiga,2025-04-02T09:48:00,2025-04-02T09:49:00,2.00
30,Taiga,2025-04-02T16:25:00,2025-04-02T16:25:00,1.00
30,Taiga,2025-04-02T18:03:00,2025-04-02T18:03:00,1.00
30,Taiga,2025-04-03T09:47:00,2025-04-03T09:49:00,3.00
30,Taiga,2025-04-03T16:24:00,2025-04-03T16:25:00,2.00
30,Taiga,2025-04-04T09:47:00,2025-04-04T09:48:00,2.00
30,Taiga,2025-04-04T16:23:00,2025-04-04T16:25:00,3.00
30,Taiga,2025-04-05T09:46:00,2025-04-05T09:48:00,3.00
30,Taiga,2025-04-05T16:23:00,2025-04-05T16:24:00,2.00
30,Taiga,2025-04-06T09:46:00,2025-04-06T09:47:00,2.00
30,Taiga,2025-04-06T16:22:00,2025-04-06T16:24:00,3.00
30,Taiga,2025-04-07T08:08:00,2025-04-07T08:08:00,1.00
30,Taiga,2025-04-07T09:46:00,2025-04-07T09:46:00,1.00
30,Taiga,2025-04-07T16:22:00,2025-04-07T16:23:00,2.00
30,Taiga,2025-04-08T08:07:00,2025-04-08T08:08:00,2.00
30,Taiga,2025-04-08T16:21:00,2025-04-08T16:23:00,3.00
30,Taiga,2025-04-09T08:06:00,2025-04-09T08:07:00,2.00
30,Taiga,2025-04-09T14:43:00,2025-04-09T14:43:00,1.00
30,Taiga,2025-04-09T16:21:00,2025-04-09T16:21:00,1.00
30,Taiga,2025-04-10T08:05:00,2025-04-10T08:07:00,3.00
30,Taiga,2025-04-10T14:42:00,2025-04-10T14:43:00,2.00
30,Taiga,2025-04-11T08:05:00,2025-04-11T08:06:00,2.00
30,Taiga,2025-04-11T14:41:00,2025-04-11T14:43:00,3.00
30,Taiga,2025-04-12T08:04:00,2025-04-12T08:06:00,3.00
30,Taiga,2025-04-12T14:41:00,2025-04-12T14:42:00,2.00
31,Taiga,2025-03-30T11:18:00,2025-03-30T11:19:00,2.00
31,Taiga,2025-03-30T17:54:00,2025-03-30T17:56:00,3.00
31,Taiga,2025-03-31T11:18:00,2025-03-31T11:18:00,1.00
31,Taiga,2025-03-31T17:54:00,2025-03-31T17:55:00,2.00
31,Taiga,2025-04-01T09:39:00,2025-04-01T09:40:00,2.00
31,Taiga,2025-04-01T17:53:00,2025-04-01T17:55:00,3.00
31,Taiga,2025-04-02T09:38:00,2025-04-02T09:40:00,3.00
31,Taiga,2025-04-02T17:53:00,2025-04-02T17:54:00,2.00
31,Taiga,2025-04-03T09:37:00,2025-04-03T09:39:00,3.00
31,Taiga,2025-04-03T16:14:00,2025-04-03T16:15:00,2.00
31,Taiga,2025-04-04T09:37:00,2025-04-04T09:39:00,3.00
31,Taiga,2025-04-04T16:14:00,2025-04-04T16:15:00,2.00
31,Taiga,2025-04-05T09:36:00,2025-04-05T09:38:00,3.00
31,Taiga,2025-04-05T16:13:00,2025-04-05T16:15:00,3.00
31,Taiga,2025-04-06T09:36:00,2025-04-06T09:37:00,2.00
31,Taiga,2025-04-06T16:12:00,2025-04-06T16:14:00,3.00
31,Taiga,2025-04-07T09:36:00,2025-04-07T09:37:00,2.00
31,Taiga,2025-04-07T16:12:00,2025-04-07T16:14:00,3.00
31,Taiga,2025-04-08T07:57:00,2025-04-08T07:58:00,2.00
31,Taiga,2025-04-08T16:11:00,2025-04-08T16:13:00,3.00
31,Taiga,2025-04-09T07:56:00,2025-04-09T07:57:00,2.00
31,Taiga,2025-04-09T16:11:00,2025-04-09T16:12:00,2.00
31,Taiga,2025-04-10T07:55:00,2025-04-10T07:57:00,3.00
31,Taiga,2025-04-10T14:33:00,2025-04-10T14:33:00,1.00
31,Taiga,2025-04-10T16:11:00,2025-04-10T16:11:00,1.00
31,Taiga,2025-04-11T07:55:00,2025-04-11T07:57:00,3.00
31,Taiga,2025-04-11T14:32:00,2025-04-11T14:33:00,2.00
31,Taiga,2025-04-12T07:54:00,2025-04-12T07:56:00,3.00
31,Taiga,2025-04-12T14:31:00,2025-04-12T14:33:00,3.00
32,Taiga,2025-03-30T11:08:00,2025-03-30T11:09:00,2.00
32,Taiga,2025-03-30T17:44:00,2025-03-30T17:46:00,3.00
32,Taiga,2025-03-31T11:08:00,2025-03-31T11:09:00,2.00
32,Taiga,2025-03-31T17:44:00,2025-03-31T17:46:00,3.00
32,Taiga,2025-04-01T11:08:00,2025-04-01T11:08:00,1.00
32,Taiga,2025-04-01T17:43:00,2025-04-01T17:45:00,3.00
32,Taiga,2025-04-02T09:28:00,2025-04-02T09:30:00,3.00
32,Taiga,2025-04-02T17:43:00,2025-04-02T17:44:00,2.00
32,Taiga,2025-04-03T09:28:00,2025-04-03T09:29:00,2.00
32,Taiga,2025-04-03T16:05:00,2025-04-03T16:05:00,1.00
32,Taiga,2025-04-03T17:43:00,2025-04-03T17:43:00,1.00
32,Taiga,2025-04-04T09:27:00,2025-04-04T09:29:00,3.00
32,Taiga,2025-04-04T16:04:00,2025-04-04T16:05:00,2.00
32,Taiga,2025-04-05T09:26:00,2025-04-05T09:28:00,3.00
32,Taiga,2025-04-05T16:03:00,2025-04-05T16:05:00,3.00
32,Taiga,2025-04-06T09:26:00,2025-04-06T09:28:00,3.00
32,Taiga,2025-04-06T16:02:00,2025-04-06T16:04:00,3.00
32,Taiga,2025-04-07T09:26:00,2025-04-07T09:27:00,2.00
32,Taiga,2025-04-07T16:02:00,2025-04-07T16:04:00,3.00
32,Taiga,2025-04-08T09:25:00,2025-04-08T09:26:00,2.00
32,Taiga,2025-04-08T16:01:00,2025-04-08T16:03:00,3.00
32,Taiga,2025-04-09T07:47:00,2025-04-09T07:47:00,1.00
32,Taiga,2025-04-09T16:01:00,2025-04-09T16:02:00,2.00
32,Taiga,2025-04-10T07:46:00,2025-04-10T07:47:00,2.00
32,Taiga,2025-04-10T16:01:00,2025-04-10T16:02:00,2.00
32,Taiga,2025-04-11T07:45:00,2025-04-11T07:47:00,3.00
32,Taiga,2025-04-11T14:22:00,2025-04-11T14:23:00,2.00
32,Taiga,2025-04-12T07:44:00,2025-04-12T07:46:00,3.00
32,Taiga,2025-04-12T14:21:00,2025-04-12T14:23:00,3.00
33,Taiga,2025-03-30T10:58:00,2025-03-30T11:00:00,3.00
33,Taiga,2025-03-30T17:35:00,2025-03-30T17:36:00,2.00
33,Taiga,2025-03-31T10:58:00,2025-03-31T10:59:00,2.00
33,Taiga,2025-03-31T17:34:00,2025-03-31T17:36:00,3.00
33,Taiga,2025-04-01T10:57:00,2025-04-01T10:58:00,2.00
33,Taiga,2025-04-01T17:33:00,2025-04-01T17:35:00,3.00
33,Taiga,2025-04-02T09:19:00,2025-04-02T09:19:00,1.00
33,Taiga,2025-04-02T10:57:00,2025-04-02T10:57:00,1.00
33,Taiga,2025-04-02T17:33:00,2025-04-02T17:35:00,3.00
33,Taiga,2025-04-03T09:18:00,2025-04-03T09:19:00,2.00
33,Taiga,2025-04-03T17:33:00,2025-04-03T17:34:00,2.00
33,Taiga,2025-04-04T09:17:00,2025-04-04T09:19:00,3.00
33,Taiga,2025-04-04T15:54:00,2025-04-04T15:55:00,2.00
33,Taiga,2025-04-04T17:33:00,2025-04-04T17:33:00,1.00
33,Taiga,2025-04-05T09:16:00,2025-04-05T09:18:00,3.00
33,Taiga,2025-04-05T15:53:00,2025-04-05T15:55:00,3.00
33,Taiga,2025-04-06T09:16:00,2025-04-06T09:18:00,3.00
33,Taiga,2025-04-06T15:53:00,2025-04-06T15:54:00,2.00
33,Taiga,2025-04-07T09:16:00,2025-04-07T09:17:00,2.00
33,Taiga,2025-04-07T15:52:00,2025-04-07T15:54:00,3.00
33,Taiga,2025-04-08T09:15:00,2025-04-08T09:16:00,2.00
33,Taiga,2025-04-08T15:52:00,2025-04-08T15:53:00,2.00
33,Taiga,2025-04-09T09:15:00,2025-04-09T09:16:00,2.00
33,Taiga,2025-04-09T15:51:00,2025-04-09T15:53:00,3.00
33,Taiga,2025-04-10T07:36:00,2025-04-10T07:37:00,2.00
33,Taiga,2025-04-10T15:51:00,2025-04-10T15:52:00,2.00
33,Taiga,2025-04-11T07:35:00,2025-04-11T07:37:00,3.00
33,Taiga,2025-04-11T15:50:00,2025-04-11T15:51:00,2.00
33,Taiga,2025-04-12T07:35:00,2025-04-12T07:36:00,2.00
33,Taiga,2025-04-12T14:12:00,2025-04-12T14:12:00,1.00
34,Taiga,2025-03-30T10:48:00,2025-03-30T10:50:00,3.00
34,Taiga,2025-03-30T17:25:00,2025-03-30T17:26:00,2.00
34,Taiga,2025-03-31T10:48:00,2025-03-31T10:49:00,2.00
34,Taiga,2025-03-31T17:24:00,2025-03-31T17:26:00,3.00
34,Taiga,2025-04-01T10:47:00,2025-04-01T10:49:00,3.00
34,Taiga,2025-04-01T17:24:00,2025-04-01T17:26:00,3.00
34,Taiga,2025-04-02T10:47:00,2025-04-02T10:48:00,2.00
34,Taiga,2025-04-02T17:23:00,2025-04-02T17:25:00,3.00
34,Taiga,2025-04-03T09:08:00,2025-04-03T09:09:00,2.00
34,Taiga,2025-04-03T17:23:00,2025-04-03T17:24:00,2.00
34,Taiga,2025-04-04T09:07:00,2025-04-04T09:09:00,3.00
34,Taiga,2025-04-04T17:22:00,2025-04-04T17:23:00,2.00
34,Taiga,2025-04-05T09:07:00,2025-04-05T09:09:00,3.00
34,Taiga,2025-04-05T15:44:00,2025-04-05T15:44:00,1.00
34,Taiga,2025-04-06T09:06:00,2025-04-06T09:08:00,3.00
34,Taiga,2025-04-06T15:43:00,2025-04-06T15:44:00,2.00
34,Taiga,2025-04-07T09:06:00,2025-04-07T09:07:00,2.00
34,Taiga,2025-04-07T15:42:00,2025-04-07T15:44:00,3.00
34,Taiga,2025-04-08T09:05:00,2025-04-08T09:07:00,3.00
34,Taiga,2025-04-08T15:42:00,2025-04-08T15:44:00,3.00
34,Taiga,2025-04-09T09:05:00,2025-04-09T09:06:00,2.00
34,Taiga,2025-04-09T15:41:00,2025-04-09T15:43:00,3.00
34,Taiga,2025-04-10T07:27:00,2025-04-10T07:27:00,1.00
34,Taiga,2025-04-10T09:05:00,2025-04-10T09:05:00,1.00
34,Taiga,2025-04-10T15:41:00,2025-04-10T15:42:00,2.00
34,Taiga,2025-04-11T07:26:00,2025-04-11T07:27:00,2.00
34,Taiga,2025-04-11T15:40:00,2025-04-11T15:42:00,3.00
34,Taiga,2025-04-12T07:25:00,2025-04-12T07:27:00,3.00
34,Taiga,2025-04-12T14:02:00,2025-04-12T14:02:00,1.00
34,Taiga,2025-04-12T15:40:00,2025-04-12T15:40:00,1.00
35,Taiga,2025-03-30T10:38:00,2025-03-30T10:40:00,3.00
35,Taiga,2025-03-30T17:15:00,2025-03-30T17:16:00,2.00
35,Taiga,2025-03-31T10:38:00,2025-03-31T10:40:00,3.00
35,Taiga,2025-03-31T17:15:00,2025-03-31T17:16:00,2.00
35,Taiga,2025-04-01T10:37:00,2025-04-01T10:39:00,3.00
35,Taiga,2025-04-01T17:14:00,2025-04-01T17:16:00,3.00
35,Taiga,2025-04-02T10:37:00,2025-04-02T10:38:00,2.00
35,Taiga,2025-04-02T17:13:00,2025-04-02T17:15:00,3.00
35,Taiga,2025-04-03T10:37:00,2025-04-03T10:37:00,1.00
35,Taiga,2025-04-03T17:13:00,2025-04-03T17:15:00,3.00
35,Taiga,2025-04-04T08:58:00,2025-04-04T08:59:00,2.00
35,Taiga,2025-04-04T17:12:00,2025-04-04T17:14:00,3.00
35,Taiga,2025-04-05T08:57:00,2025-04-05T08:59:00,3.00
35,Taiga,2025-04-05T17:12:00,2025-04-05T17:13:00,2.00
35,Taiga,2025-04-06T08:56:00,2025-04-06T08:58:00,3.00
35,Taiga,2025-04-06T15:33:00,2025-04-06T15:34:00,2.00
35,Taiga,2025-04-07T08:56:00,2025-04-07T08:58:00,3.00
35,Taiga,2025-04-07T15:33:00,2025-04-07T15:34:00,2.00
35,Taiga,2025-04-08T08:55:00,2025-04-08T08:57:00,3.00
35,Taiga,2025-04-08T15:32:00,2025-04-08T15:34:00,3.00
35,Taiga,2025-04-09T08:55:00,2025-04-09T08:56:00,2.00
35,Taiga,2025-04-09T15:31:00,2025-04-09T15:33:00,3.00
35,Taiga,2025-04-10T08:55:00,2025-04-10T08:56:00,2.00
35,Taiga,2025-04-10T15:31:00,2025-04-10T15:33:00,3.00
35,Taiga,2025-04-11T07:16:00,2025-04-11T07:17:00,2.00
35,Taiga,2025-04-11T15:30:00,2025-04-11T15:32:00,3.00
35,Taiga,2025-04-12T07:15:00,2025-04-12T07:17:00,3.00
35,Taiga,2025-04-12T15:30:00,2025-04-12T15:31:00,2.00
36,Taiga,2025-03-30T10:29:00,2025-03-30T10:30:00,2.00
36,Taiga,2025-03-30T17:06:00,2025-03-30T17:06:00,1.00
36,Taiga,2025-03-30T18:44:00,2025-03-30T18:44:00,1.00
36,Taiga,2025-03-31T10:28:00,2025-03-31T10:30:00,3.00
36,Taiga,2025-03-31T17:05:00,2025-03-31T17:06:00,2.00
36,Taiga,2025-04-01T10:27:00,2025-04-01T10:29:00,3.00
36,Taiga,2025-04-01T17:04:00,2025-04-01T17:06:00,3.00
36,Taiga,2025-04-02T10:27:00,2025-04-02T10:29:00,3.00
36,Taiga,2025-04-02T17:03:00,2025-04-02T17:05:00,3.00
36,Taiga,2025-04-03T10:27:00,2025-04-03T10:28:00,2.00
36,Taiga,2025-04-03T17:03:00,2025-04-03T17:05:00,3.00
36,Taiga,2025-04-04T08:49:00,2025-04-04T08:49:00,1.00
36,Taiga,2025-04-04T10:27:00,2025-04-04T10:27:00,1.00
36,Taiga,2025-04-04T17:02:00,2025-04-04T17:04:00,3.00
36,Taiga,2025-04-05T08:47:00,2025-04-05T08:49:00,3.00
36,Taiga,2025-04-05T17:02:00,2025-04-05T17:03:00,2.00
36,Taiga,2025-04-06T08:47:00,2025-04-06T08:48:00,2.00
36,Taiga,2025-04-06T15:24:00,2025-04-06T15:24:00,1.00
36,Taiga,2025-04-06T17:02:00,2025-04-06T17:02:00,1.00
36,Taiga,2025-04-07T08:46:00,2025-04-07T08:48:00,3.00
36,Taiga,2025-04-07T15:23:00,2025-04-07T15:24:00,2.00
36,Taiga,2025-04-08T08:45:00,2025-04-08T08:47:00,3.00
36,Taiga,2025-04-08T15:22:00,2025-04-08T15:24:00,3.00
36,Taiga,2025-04-09T08:45:00,2025-04-09T08:47:00,3.00
36,Taiga,2025-04-09T15:22:00,2025-04-09T15:23:00,2.00
36,Taiga,2025-04-10T08:45:00,2025-04-10T08:46:00,2.00
36,Taiga,2025-04-10T15:21:00,2025-04-10T15:23:00,3.00
36,Taiga,2025-04-11T08:45:00,2025-04-11T08:45:00,1.00
36,Taiga,2025-04-11T15:20:00,2025-04-11T15:22:00,3.00
36,Taiga,2025-04-12T07:06:00,2025-04-12T07:07:00,2.00
36,Taiga,2025-04-12T15:20:00,2025-04-12T15:22:00,3.00
37,Taiga,2025-03-30T10:19:00,2025-03-30T10:20:00,2.00
37,Taiga,2025-03-30T18:34:00,2025-03-30T18:35:00,2.00
37,Taiga,2025-03-31T10:18:00,2025-03-31T10:20:00,3.00
37,Taiga,2025-03-31T16:55:00,2025-03-31T16:56:00,2.00
37,Taiga,2025-04-01T10:18:00,2025-04-01T10:19:00,2.00
37,Taiga,2025-04-01T16:54:00,2025-04-01T16:56:00,3.00
37,Taiga,2025-04-02T10:17:00,2025-04-02T10:19:00,3.00
37,Taiga,2025-04-02T16:54:00,2025-04-02T16:55:00,2.00
37,Taiga,2025-04-03T10:17:00,2025-04-03T10:18:00,2.00
37,Taiga,2025-04-03T16:53:00,2025-04-03T16:55:00,3.00
37,Taiga,2025-04-04T10:16:00,2025-04-04T10:17:00,2.00
37,Taiga,2025-04-04T16:53:00,2025-04-04T16:54:00,2.00
37,Taiga,2025-04-05T08:38:00,2025-04-05T08:38:00,1.00
37,Taiga,2025-04-05T16:52:00,2025-04-05T16:54:00,3.00
37,Taiga,2025-04-06T08:37:00,2025-04-06T08:38:00,2.00
37,Taiga,2025-04-06T16:52:00,2025-04-06T16:53:00,2.00
37,Taiga,2025-04-07T08:36:00,2025-04-07T08:38:00,3.00
37,Taiga,2025-04-07T15:14:00,2025-04-07T15:14:00,1.00
37,Taiga,2025-04-07T16:52:00,2025-04-07T16:52:00,1.00
37,Taiga,2025-04-08T08:36:00,2025-04-08T08:38:00,3.00
37,Taiga,2025-04-08T15:13:00,2025-04-08T15:14:00,2.00
37,Taiga,2025-04-09T08:35:00,2025-04-09T08:37:00,3.00
37,Taiga,2025-04-09T15:12:00,2025-04-09T15:13:00,2.00
37,Taiga,2025-04-10T08:35:00,2025-04-10T08:36:00,2.00
37,Taiga,2025-04-10T15:11:00,2025-04-10T15:13:00,3.00
37,Taiga,2025-04-11T08:34:00,2025-04-11T08:36:00,3.00
37,Taiga,2025-04-11T15:11:00,2025-04-11T15:13:00,3.00
37,Taiga,2025-04-12T08:34:00,2025-04-12T08:35:00,2.00
37,Taiga,2025-04-12T15:10:00,2025-04-12T15:12:00,3.00
38,Taiga,2025-03-30T10:09:00,2025-03-30T10:10:00,2.00
38,Taiga,2025-03-30T18:24:00,2025-03-30T18:25:00,2.00
38,Taiga,2025-03-31T10:08:00,2025-03-31T10:10:00,3.00
38,Taiga,2025-03-31T18:24:00,2025-03-31T18:24:00,1.00
38,Taiga,2025-04-01T10:08:00,2025-04-01T10:10:00,3.00
38,Taiga,2025-04-01T16:45:00,2025-04-01T16:46:00,2.00
38,Taiga,2025-04-02T10:07:00,2025-04-02T10:09:00,3.00
38,Taiga,2025-04-02T16:44:00,2025-04-02T16:45:00,2.00
38,Taiga,2025-04-03T10:07:00,2025-04-03T10:08:00,2.00
38,Taiga,2025-04-03T16:43:00,2025-04-03T16:45:00,3.00
38,Taiga,2025-04-04T10:06:00,2025-04-04T10:08:00,3.00
38,Taiga,2025-04-04T16:43:00,2025-04-04T16:45:00,3.00
38,Taiga,2025-04-05T10:06:00,2025-04-05T10:07:00,2.00
38,Taiga,2025-04-05T16:42:00,2025-04-05T16:44:00,3.00
38,Taiga,2025-04-06T08:28:00,2025-04-06T08:28:00,1.00
38,Taiga,2025-04-06T16:42:00,2025-04-06T16:43:00,2.00
38,Taiga,2025-04-07T08:27:00,2025-04-07T08:28:00,2.00
38,Taiga,2025-04-07T16:42:00,2025-04-07T16:42:00,1.00
38,Taiga,2025-04-08T08:26:00,2025-04-08T08:28:00,3.00
38,Taiga,2025-04-08T15:03:00,2025-04-08T15:04:00,2.00
38,Taiga,2025-04-09T08:25:00,2025-04-09T08:27:00,3.00
38,Taiga,2025-04-09T15:02:00,2025-04-09T15:03:00,2.00
38,Taiga,2025-04-10T08:25:00,2025-04-10T08:27:00,3.00
38,Taiga,2025-04-10T15:01:00,2025-04-10T15:03:00,3.00
38,Taiga,2025-04-11T08:24:00,2025-04-11T08:26:00,3.00
38,Taiga,2025-04-11T15:01:00,2025-04-11T15:03:00,3.00
38,Taiga,2025-04-12T08:24:00,2025-04-12T08:25:00,2.00
38,Taiga,2025-04-12T15:00:00,2025-04-12T15:02:00,3.00
39,Taiga,2025-03-30T10:00:00,2025-03-30T10:00:00,1.00
39,Taiga,2025-03-30T11:38:00,2025-03-30T11:38:00,1.00
39,Taiga,2025-03-30T18:14:00,2025-03-30T18:16:00,3.00
39,Taiga,2025-03-31T09:59:00,2025-03-31T10:00:00,2.00
39,Taiga,2025-03-31T18:14:00,2025-03-31T18:15:00,2.00
39,Taiga,2025-04-01T09:58:00,2025-04-01T10:00:00,3.00
39,Taiga,2025-04-01T16:35:00,2025-04-01T16:35:00,1.00
39,Taiga,2025-04-01T18:13:00,2025-04-01T18:14:00,2.00
39,Taiga,2025-04-02T09:57:00,2025-04-02T09:59:00,3.00
39,Taiga,2025-04-02T16:34:00,2025-04-02T16:35:00,2.00
39,Taiga,2025-04-03T09:57:00,2025-04-03T09:59:00,3.00
39,Taiga,2025-04-03T16:34:00,2025-04-03T16:35:00,2.00
39,Taiga,2025-04-04T09:56:00,2025-04-04T09:58:00,3.00
39,Taiga,2025-04-04T16:33:00,2025-04-04T16:35:00,3.00
39,Taiga,2025-04-05T09:56:00,2025-04-05T09:57:00,2.00
39,Taiga,2025-04-05T16:32:00,2025-04-05T16:34:00,3.00
39,Taiga,2025-04-06T09:56:00,2025-04-06T09:57:00,2.00
39,Taiga,2025-04-06T16:32:00,2025-04-06T16:34:00,3.00
39,Taiga,2025-04-07T08:17:00,2025-04-07T08:18:00,2.00
39,Taiga,2025-04-07T16:31:00,2025-04-07T16:33:00,3.00
39,Taiga,2025-04-08T08:16:00,2025-04-08T08:18:00,3.00
39,Taiga,2025-04-08T16:31:00,2025-04-08T16:32:00,2.00
39,Taiga,2025-04-09T08:15:00,2025-04-09T08:17:00,3.00
39,Taiga,2025-04-09T14:53:00,2025-04-09T14:53:00,1.00
39,Taiga,2025-04-10T08:15:00,2025-04-10T08:17:00,3.00
39,Taiga,2025-04-10T14:52:00,2025-04-10T14:53:00,2.00
39,Taiga,2025-04-11T08:14:00,2025-04-11T08:16:00,3.00
39,Taiga,2025-04-11T14:51:00,2025-04-11T14:53:00,3.00
39,Taiga,2025-04-12T08:14:00,2025-04-12T08:16:00,3.00
39,Taiga,2025-04-12T14:50:00,2025-04-12T14:52:00,3.00
40,Taiga,2025-03-30T11:26:00,2025-03-30T11:27:00,2.00
40,Taiga,2025-03-30T19:40:00,2025-03-30T19:41:00,2.00
40,Taiga,2025-03-31T11:25:00,2025-03-31T11:27:00,3.00
40,Taiga,2025-03-31T18:02:00,2025-03-31T18:02:00,1.00
40,Taiga,2025-03-31T19:40:00,2025-03-31T19:40:00,1.00
40,Taiga,2025-04-01T11:24:00,2025-04-01T11:26:00,3.00
40,Taiga,2025-04-01T18:01:00,2025-04-01T18:02:00,2.00
40,Taiga,2025-04-02T11:24:00,2025-04-02T11:25:00,2.00
40,Taiga,2025-04-02T18:00:00,2025-04-02T18:02:00,3.00
40,Taiga,2025-04-03T11:23:00,2025-04-03T11:25:00,3.00
40,Taiga,2025-04-03T18:00:00,2025-04-03T18:02:00,3.00
40,Taiga,2025-04-04T11:23:00,2025-04-04T11:24:00,2.00
40,Taiga,2025-04-04T17:59:00,2025-04-04T18:01:00,3.00
40,Taiga,2025-04-05T09:45:00,2025-04-05T09:45:00,1.00
40,Taiga,2025-04-05T11:23:00,2025-04-05T11:23:00,1.00
40,Taiga,2025-04-05T17:59:00,2025-04-05T18:00:00,2.00
40,Taiga,2025-04-06T09:44:00,2025-04-06T09:45:00,2.00
40,Taiga,2025-04-06T17:58:00,2025-04-06T18:00:00,3.00
40,Taiga,2025-04-07T09:43:00,2025-04-07T09:45:00,3.00
40,Taiga,2025-04-07T16:20:00,2025-04-07T16:20:00,1.00
40,Taiga,2025-04-07T17:58:00,2025-04-07T17:59:00,2.00
40,Taiga,2025-04-08T09:42:00,2025-04-08T09:44:00,3.00
