comm_windows_Boreal.csv

sat_id,ground_station,window_start,window_end,duration_min
0,Boreal,2025-03-30T05:02:00,2025-03-30T05:03:00,2.00
0,Boreal,2025-03-30T14:56:00,2025-03-30T14:57:00,2.00
0,Boreal,2025-03-31T05:02:00,2025-03-31T05:03:00,2.00
0,Boreal,2025-03-31T14:55:00,2025-03-31T14:57:00,3.00
0,Boreal,2025-04-01T05:01:00,2025-04-01T05:03:00,3.00
0,Boreal,2025-04-01T14:55:00,2025-04-01T14:57:00,3.00
0,Boreal,2025-04-02T05:01:00,2025-04-02T05:03:00,3.00
0,Boreal,2025-04-02T14:54:00,2025-04-02T14:56:00,3.00
0,Boreal,2025-04-03T05:01:00,2025-04-03T05:02:00,2.00
0,Boreal,2025-04-03T14:54:00,2025-04-03T14:56:00,3.00
0,Boreal,2025-04-04T05:00:00,2025-04-04T05:02:00,3.00
0,Boreal,2025-04-04T14:54:00,2025-04-04T14:55:00,2.00
0,Boreal,2025-04-05T05:00:00,2025-04-05T05:01:00,2.00
0,Boreal,2025-04-05T14:54:00,2025-04-05T14:55:00,2.00
0,Boreal,2025-04-06T05:01:00,2025-04-06T05:01:00,1.00
0,Boreal,2025-04-06T14:54:00,2025-04-06T14:54:00,1.00
0,Boreal,2025-04-09T03:22:00,2025-04-09T03:23:00,2.00
0,Boreal,2025-04-09T13:16:00,2025-04-09T13:16:00,1.00
0,Boreal,2025-04-10T03:22:00,2025-04-10T03:23:00,2.00
0,Boreal,2025-04-10T13:15:00,2025-04-10T13:16:00,2.00
0,Boreal,2025-04-11T03:21:00,2025-04-11T03:23:00,3.00
0,Boreal,2025-04-11T13:15:00,2025-04-11T13:16:00,2.00
0,Boreal,2025-04-12T03:21:00,2025-04-12T03:22:00,2.00
0,Boreal,2025-04-12T13:14:00,2025-04-12T13:16:00,3.00
1,Boreal,2025-03-30T04:53:00,2025-03-30T04:53:00,1.00
1,Boreal,2025-03-30T14:47:00,2025-03-30T14:47:00,1.00
1,Boreal,2025-03-31T04:52:00,2025-03-31T04:53:00,2.00
1,Boreal,2025-03-31T14:46:00,2025-03-31T14:47:00,2.00
1,Boreal,2025-04-01T04:52:00,2025-04-01T04:53:00,2.00
1,Boreal,2025-04-01T14:45:00,2025-04-01T14:47:00,3.00
1,Boreal,2025-04-02T04:51:00,2025-04-02T04:53:00,3.00
1,Boreal,2025-04-02T14:45:00,2025-04-02T14:47:00,3.00
1,Boreal,2025-04-03T04:51:00,2025-04-03T04:53:00,3.00
1,Boreal,2025-04-03T14:44:00,2025-04-03T14:46:00,3.00
1,Boreal,2025-04-04T04:51:00,2025-04-04T04:52:00,2.00
1,Boreal,2025-04-04T14:44:00,2025-04-04T14:46:00,3.00
1,Boreal,2025-04-05T04:50:00,2025-04-05T04:52:00,3.00
1,Boreal,2025-04-05T14:44:00,2025-04-05T14:45:00,2.00
1,Boreal,2025-04-06T04:50:00,2025-04-06T04:51:00,2.00
1,Boreal,2025-04-06T14:44:00,2025-04-06T14:45:00,2.00
1,Boreal,2025-04-07T04:50:00,2025-04-07T04:51:00,2.00
1,Boreal,2025-04-07T14:44:00,2025-04-07T14:44:00,1.00
1,Boreal,2025-04-10T03:12:00,2025-04-10T03:13:00,2.00
1,Boreal,2025-04-10T13:06:00,2025-04-10T13:06:00,1.00
1,Boreal,2025-04-11T03:12:00,2025-04-11T03:13:00,2.00
1,Boreal,2025-04-11T13:05:00,2025-04-11T13:06:00,2.00
1,Boreal,2025-04-12T03:11:00,2025-04-12T03:13:00,3.00
1,Boreal,2025-04-12T13:05:00,2025-04-12T13:06:00,2.00
2,Boreal,2025-03-31T04:43:00,2025-03-31T04:43:00,1.00
2,Boreal,2025-04-01T04:42:00,2025-04-01T04:43:00,2.00
2,Boreal,2025-04-01T14:36:00,2025-04-01T14:37:00,2.00
2,Boreal,2025-04-02T04:42:00,2025-04-02T04:43:00,2.00
2,Boreal,2025-04-02T14:35:00,2025-04-02T14:37:00,3.00
2,Boreal,2025-04-03T04:41:00,2025-04-03T04:43:00,3.00
2,Boreal,2025-04-03T14:35:00,2025-04-03T14:36:00,2.00
2,Boreal,2025-04-04T04:41:00,2025-04-04T04:43:00,3.00
2,Boreal,2025-04-04T14:34:00,2025-04-04T14:36:00,3.00
2,Boreal,2025-04-05T04:41:00,2025-04-05T04:42:00,2.00
2,Boreal,2025-04-05T14:34:00,2025-04-05T14:36:00,3.00
2,Boreal,2025-04-06T04:40:00,2025-04-06T04:42:00,3.00
2,Boreal,2025-04-06T14:34:00,2025-04-06T14:35:00,2.00
2,Boreal,2025-04-07T04:40:00,2025-04-07T04:41:00,2.00
2,Boreal,2025-04-07T14:34:00,2025-04-07T14:35:00,2.00
2,Boreal,2025-04-08T04:40:00,2025-04-08T04:41:00,2.00
2,Boreal,2025-04-08T14:34:00,2025-04-08T14:34:00,1.00
2,Boreal,2025-04-11T03:03:00,2025-04-11T03:03:00,1.00
2,Boreal,2025-04-12T03:02:00,2025-04-12T03:03:00,2.00
2,Boreal,2025-04-12T12:55:00,2025-04-12T12:56:00,2.00
3,Boreal,2025-04-01T04:33:00,2025-04-01T04:33:00,1.00
3,Boreal,2025-04-02T04:32:00,2025-04-02T04:33:00,2.00
3,Boreal,2025-04-02T14:26:00,2025-04-02T14:27:00,2.00
3,Boreal,2025-04-03T04:32:00,2025-04-03T04:33:00,2.00
3,Boreal,2025-04-03T14:25:00,2025-04-03T14:27:00,3.00
3,Boreal,2025-04-04T04:31:00,2025-04-04T04:33:00,3.00
3,Boreal,2025-04-04T14:25:00,2025-04-04T14:26:00,2.00
3,Boreal,2025-04-05T04:31:00,2025-04-05T04:33:00,3.00
3,Boreal,2025-04-05T14:24:00,2025-04-05T14:26:00,3.00
3,Boreal,2025-04-06T04:31:00,2025-04-06T04:32:00,2.00
3,Boreal,2025-04-06T14:24:00,2025-04-06T14:26:00,3.00
3,Boreal,2025-04-07T04:30:00,2025-04-07T04:32:00,3.00
3,Boreal,2025-04-07T14:24:00,2025-04-07T14:25:00,2.00
3,Boreal,2025-04-08T04:30:00,2025-04-08T04:31:00,2.00
3,Boreal,2025-04-08T14:24:00,2025-04-08T14:25:00,2.00
3,Boreal,2025-04-09T04:30:00,2025-04-09T04:31:00,2.00
3,Boreal,2025-04-09T14:23:00,2025-04-09T14:24:00,2.00
3,Boreal,2025-04-12T02:53:00,2025-04-12T02:53:00,1.00
4,Boreal,2025-03-30T06:01:00,2025-03-30T06:01:00,1.00
4,Boreal,2025-03-30T15:54:00,2025-03-30T15:55:00,2.00
4,Boreal,2025-04-02T04:23:00,2025-04-02T04:23:00,1.00
4,Boreal,2025-04-03T04:22:00,2025-04-03T04:23:00,2.00
4,Boreal,2025-04-03T14:16:00,2025-04-03T14:17:00,2.00
4,Boreal,2025-04-04T04:22:00,2025-04-04T04:23:00,2.00
4,Boreal,2025-04-04T14:15:00,2025-04-04T14:17:00,3.00
4,Boreal,2025-04-05T04:21:00,2025-04-05T04:23:00,3.00
4,Boreal,2025-04-05T14:15:00,2025-04-05T14:16:00,2.00
4,Boreal,2025-04-06T04:21:00,2025-04-06T04:23:00,3.00
4,Boreal,2025-04-06T14:14:00,2025-04-06T14:16:00,3.00
4,Boreal,2025-04-07T04:20:00,2025-04-07T04:22:00,3.00
4,Boreal,2025-04-07T14:14:00,2025-04-07T14:16:00,3.00
4,Boreal,2025-04-08T04:20:00,2025-04-08T04:22:00,3.00
4,Boreal,2025-04-08T14:14:00,2025-04-08T14:15:00,2.00
4,Boreal,2025-04-09T04:20:00,2025-04-09T04:21:00,2.00
4,Boreal,2025-04-09T14:14:00,2025-04-09T14:15:00,2.00
4,Boreal,2025-04-10T04:20:00,2025-04-10T04:21:00,2.00
4,Boreal,2025-04-10T14:13:00,2025-04-10T14:14:00,2.00
5,Boreal,2025-03-30T05:51:00,2025-03-30T05:52:00,2.00
5,Boreal,2025-03-30T15:44:00,2025-03-30T15:46:00,3.00
5,Boreal,2025-03-31T05:51:00,2025-03-31T05:51:00,1.00
5,Boreal,2025-03-31T15:44:00,2025-03-31T15:45:00,2.00
5,Boreal,2025-04-01T15:44:00,2025-04-01T15:44:00,1.00
5,Boreal,2025-04-03T04:13:00,2025-04-03T04:13:00,1.00
5,Boreal,2025-04-04T04:12:00,2025-04-04T04:13:00,2.00
5,Boreal,2025-04-04T14:06:00,2025-04-04T14:06:00,1.00
5,Boreal,2025-04-05T04:12:00,2025-04-05T04:13:00,2.00
5,Boreal,2025-04-05T14:05:00,2025-04-05T14:06:00,2.00
5,Boreal,2025-04-06T04:11:00,2025-04-06T04:13:00,3.00
5,Boreal,2025-04-06T14:05:00,2025-04-06T14:06:00,2.00
5,Boreal,2025-04-07T04:11:00,2025-04-07T04:13:00,3.00
5,Boreal,2025-04-07T14:04:00,2025-04-07T14:06:00,3.00
5,Boreal,2025-04-08T04:10:00,2025-04-08T04:12:00,3.00
5,Boreal,2025-04-08T14:04:00,2025-04-08T14:06:00,3.00
5,Boreal,2025-04-09T04:10:00,2025-04-09T04:12:00,3.00
5,Boreal,2025-04-09T14:04:00,2025-04-09T14:05:00,2.00
5,Boreal,2025-04-10T04:10:00,2025-04-10T04:11:00,2.00
5,Boreal,2025-04-10T14:03:00,2025-04-10T14:05:00,3.00
5,Boreal,2025-04-11T04:10:00,2025-04-11T04:11:00,2.00
5,Boreal,2025-04-11T14:03:00,2025-04-11T14:04:00,2.00
6,Boreal,2025-03-30T05:41:00,2025-03-30T05:42:00,2.00
6,Boreal,2025-03-30T15:34:00,2025-03-30T15:36:00,3.00
6,Boreal,2025-03-31T05:41:00,2025-03-31T05:42:00,2.00
6,Boreal,2025-03-31T15:34:00,2025-03-31T15:36:00,3.00
6,Boreal,2025-04-01T05:41:00,2025-04-01T05:41:00,1.00
6,Boreal,2025-04-01T15:34:00,2025-04-01T15:35:00,2.00
6,Boreal,2025-04-02T15:34:00,2025-04-02T15:34:00,1.00
6,Boreal,2025-04-04T04:03:00,2025-04-04T04:03:00,1.00
6,Boreal,2025-04-05T04:02:00,2025-04-05T04:03:00,2.00
6,Boreal,2025-04-05T13:56:00,2025-04-05T13:56:00,1.00
6,Boreal,2025-04-06T04:02:00,2025-04-06T04:03:00,2.00
6,Boreal,2025-04-06T13:55:00,2025-04-06T13:56:00,2.00
6,Boreal,2025-04-07T04:01:00,2025-04-07T04:03:00,3.00
6,Boreal,2025-04-07T13:55:00,2025-04-07T13:56:00,2.00
6,Boreal,2025-04-08T04:01:00,2025-04-08T04:03:00,3.00
6,Boreal,2025-04-08T13:54:00,2025-04-08T13:56:00,3.00
6,Boreal,2025-04-09T04:00:00,2025-04-09T04:02:00,3.00
6,Boreal,2025-04-09T13:54:00,2025-04-09T13:56:00,3.00
6,Boreal,2025-04-10T04:00:00,2025-04-10T04:02:00,3.00
6,Boreal,2025-04-10T13:54:00,2025-04-10T13:55:00,2.00
6,Boreal,2025-04-11T04:00:00,2025-04-11T04:01:00,2.00
6,Boreal,2025-04-11T13:53:00,2025-04-11T13:55:00,3.00
6,Boreal,2025-04-12T04:00:00,2025-04-12T04:01:00,2.00
6,Boreal,2025-04-12T13:53:00,2025-04-12T13:54:00,2.00
7,Boreal,2025-03-30T05:31:00,2025-03-30T05:33:00,3.00
7,Boreal,2025-03-30T15:24:00,2025-03-30T15:26:00,3.00
7,Boreal,2025-03-31T05:31:00,2025-03-31T05:32:00,2.00
7,Boreal,2025-03-31T15:24:00,2025-03-31T15:26:00,3.00
7,Boreal,2025-04-01T05:31:00,2025-04-01T05:32:00,2.00
7,Boreal,2025-04-01T15:24:00,2025-04-01T15:26:00,3.00
7,Boreal,2025-04-02T05:31:00,2025-04-02T05:31:00,1.00
7,Boreal,2025-04-02T15:24:00,2025-04-02T15:25:00,2.00
7,Boreal,2025-04-03T15:24:00,2025-04-03T15:24:00,1.00
7,Boreal,2025-04-06T03:52:00,2025-04-06T03:53:00,2.00
7,Boreal,2025-04-06T13:46:00,2025-04-06T13:46:00,1.00
7,Boreal,2025-04-07T03:52:00,2025-04-07T03:53:00,2.00
7,Boreal,2025-04-07T13:45:00,2025-04-07T13:46:00,2.00
7,Boreal,2025-04-08T03:51:00,2025-04-08T03:53:00,3.00
7,Boreal,2025-04-08T13:45:00,2025-04-08T13:46:00,2.00
7,Boreal,2025-04-09T03:51:00,2025-04-09T03:53:00,3.00
7,Boreal,2025-04-09T13:44:00,2025-04-09T13:46:00,3.00
7,Boreal,2025-04-10T03:50:00,2025-04-10T03:52:00,3.00
7,Boreal,2025-04-10T13:44:00,2025-04-10T13:46:00,3.00
7,Boreal,2025-04-11T03:50:00,2025-04-11T03:52:00,3.00
7,Boreal,2025-04-11T13:44:00,2025-04-11T13:45:00,2.00
7,Boreal,2025-04-12T03:50:00,2025-04-12T03:51:00,2.00
7,Boreal,2025-04-12T13:43:00,2025-04-12T13:45:00,3.00
8,Boreal,2025-03-30T05:21:00,2025-03-30T05:23:00,3.00
8,Boreal,2025-03-30T15:15:00,2025-03-30T15:17:00,3.00
8,Boreal,2025-03-31T05:21:00,2025-03-31T05:23:00,3.00
8,Boreal,2025-03-31T15:14:00,2025-03-31T15:16:00,3.00
8,Boreal,2025-04-01T05:21:00,2025-04-01T05:22:00,2.00
8,Boreal,2025-04-01T15:14:00,2025-04-01T15:16:00,3.00
8,Boreal,2025-04-02T05:21:00,2025-04-02T05:22:00,2.00
8,Boreal,2025-04-02T15:14:00,2025-04-02T15:16:00,3.00
8,Boreal,2025-04-03T05:21:00,2025-04-03T05:21:00,1.00
8,Boreal,2025-04-03T15:14:00,2025-04-03T15:15:00,2.00
8,Boreal,2025-04-04T15:14:00,2025-04-04T15:14:00,1.00
8,Boreal,2025-04-07T03:42:00,2025-04-07T03:43:00,2.00
8,Boreal,2025-04-07T13:36:00,2025-04-07T13:36:00,1.00
8,Boreal,2025-04-08T03:42:00,2025-04-08T03:43:00,2.00
8,Boreal,2025-04-08T13:35:00,2025-04-08T13:36:00,2.00
8,Boreal,2025-04-09T03:41:00,2025-04-09T03:43:00,3.00
8,Boreal,2025-04-09T13:35:00,2025-04-09T13:36:00,2.00
8,Boreal,2025-04-10T03:41:00,2025-04-10T03:43:00,3.00
8,Boreal,2025-04-10T13:34:00,2025-04-10T13:36:00,3.00
8,Boreal,2025-04-11T03:40:00,2025-04-11T03:42:00,3.00
8,Boreal,2025-04-11T13:34:00,2025-04-11T13:36:00,3.00
8,Boreal,2025-04-12T03:40:00,2025-04-12T03:42:00,3.00
8,Boreal,2025-04-12T13:34:00,2025-04-12T13:35:00,2.00
9,Boreal,2025-03-30T05:12:00,2025-03-30T05:13:00,2.00
9,Boreal,2025-03-30T15:05:00,2025-03-30T15:07:00,3.00
9,Boreal,2025-03-31T05:11:00,2025-03-31T05:13:00,3.00
9,Boreal,2025-03-31T15:05:00,2025-03-31T15:07:00,3.00
9,Boreal,2025-04-01T05:11:00,2025-04-01T05:13:00,3.00
9,Boreal,2025-04-01T15:04:00,2025-04-01T15:06:00,3.00
9,Boreal,2025-04-02T05:11:00,2025-04-02T05:12:00,2.00
9,Boreal,2025-04-02T15:04:00,2025-04-02T15:06:00,3.00
9,Boreal,2025-04-03T05:10:00,2025-04-03T05:12:00,3.00
9,Boreal,2025-04-03T15:04:00,2025-04-03T15:06:00,3.00
9,Boreal,2025-04-04T05:10:00,2025-04-04T05:11:00,2.00
9,Boreal,2025-04-04T15:04:00,2025-04-04T15:05:00,2.00
9,Boreal,2025-04-05T05:11:00,2025-04-05T05:11:00,1.00
9,Boreal,2025-04-05T15:04:00,2025-04-05T15:04:00,1.00
9,Boreal,2025-04-08T03:32:00,2025-04-08T03:33:00,2.00
9,Boreal,2025-04-08T13:26:00,2025-04-08T13:26:00,1.00
9,Boreal,2025-04-09T03:32:00,2025-04-09T03:33:00,2.00
9,Boreal,2025-04-09T13:25:00,2025-04-09T13:26:00,2.00
9,Boreal,2025-04-10T03:31:00,2025-04-10T03:33:00,3.00
9,Boreal,2025-04-10T13:25:00,2025-04-10T13:26:00,2.00
9,Boreal,2025-04-11T03:31:00,2025-04-11T03:33:00,3.00
9,Boreal,2025-04-11T13:24:00,2025-04-11T13:26:00,3.00
9,Boreal,2025-04-12T03:30:00,2025-04-12T03:32:00,3.00
9,Boreal,2025-04-12T13:24:00,2025-04-12T13:26:00,3.00
10,Boreal,2025-03-30T06:38:00,2025-03-30T06:39:00,2.00
10,Boreal,2025-03-30T16:31:00,2025-03-30T16:33:00,3.00
10,Boreal,2025-03-31T06:37:00,2025-03-31T06:39:00,3.00
10,Boreal,2025-03-31T16:31:00,2025-03-31T16:33:00,3.00
10,Boreal,2025-04-01T06:37:00,2025-04-01T06:39:00,3.00
10,Boreal,2025-04-01T16:31:00,2025-04-01T16:32:00,2.00
10,Boreal,2025-04-02T06:37:00,2025-04-02T06:38:00,2.00
10,Boreal,2025-04-02T16:30:00,2025-04-02T16:32:00,3.00
10,Boreal,2025-04-03T06:37:00,2025-04-03T06:37:00,1.00
10,Boreal,2025-04-03T16:30:00,2025-04-03T16:31:00,2.00
10,Boreal,2025-04-06T04:59:00,2025-04-06T04:59:00,1.00
10,Boreal,2025-04-07T04:58:00,2025-04-07T05:00:00,3.00
10,Boreal,2025-04-07T14:52:00,2025-04-07T14:53:00,2.00
10,Boreal,2025-04-08T04:58:00,2025-04-08T04:59:00,2.00
10,Boreal,2025-04-08T14:51:00,2025-04-08T14:53:00,3.00
10,Boreal,2025-04-09T04:57:00,2025-04-09T04:59:00,3.00
10,Boreal,2025-04-09T14:51:00,2025-04-09T14:53:00,3.00
10,Boreal,2025-04-10T04:57:00,2025-04-10T04:59:00,3.00
10,Boreal,2025-04-10T14:51:00,2025-04-10T14:52:00,2.00
10,Boreal,2025-04-11T04:57:00,2025-04-11T04:59:00,3.00
10,Boreal,2025-04-11T14:50:00,2025-04-11T14:52:00,3.00
10,Boreal,2025-04-12T04:57:00,2025-04-12T04:58:00,2.00
10,Boreal,2025-04-12T14:50:00,2025-04-12T14:52:00,3.00
11,Boreal,2025-03-30T06:28:00,2025-03-30T06:30:00,3.00
11,Boreal,2025-03-30T16:22:00,2025-03-30T16:23:00,2.00
11,Boreal,2025-03-31T06:28:00,2025-03-31T06:29:00,2.00
11,Boreal,2025-03-31T16:21:00,2025-03-31T16:23:00,3.00
11,Boreal,2025-04-01T06:27:00,2025-04-01T06:29:00,3.00
11,Boreal,2025-04-01T16:21:00,2025-04-01T16:23:00,3.00
11,Boreal,2025-04-02T06:27:00,2025-04-02T06:29:00,3.00
11,Boreal,2025-04-02T16:21:00,2025-04-02T16:22:00,2.00
11,Boreal,2025-04-03T06:27:00,2025-04-03T06:28:00,2.00
11,Boreal,2025-04-03T16:20:00,2025-04-03T16:22:00,3.00
11,Boreal,2025-04-04T06:27:00,2025-04-04T06:28:00,2.00
11,Boreal,2025-04-04T16:20:00,2025-04-04T16:21:00,2.00
11,Boreal,2025-04-07T04:49:00,2025-04-07T04:49:00,1.00
11,Boreal,2025-04-08T04:48:00,2025-04-08T04:49:00,2.00
11,Boreal,2025-04-08T14:42:00,2025-04-08T14:43:00,2.00
11,Boreal,2025-04-09T04:48:00,2025-04-09T04:49:00,2.00
11,Boreal,2025-04-09T14:41:00,2025-04-09T14:43:00,3.00
11,Boreal,2025-04-10T04:47:00,2025-04-10T04:49:00,3.00
11,Boreal,2025-04-10T14:41:00,2025-04-10T14:43:00,3.00
11,Boreal,2025-04-11T04:47:00,2025-04-11T04:49:00,3.00
11,Boreal,2025-04-11T14:41:00,2025-04-11T14:42:00,2.00
11,Boreal,2025-04-12T04:47:00,2025-04-12T04:49:00,3.00
11,Boreal,2025-04-12T14:40:00,2025-04-12T14:42:00,3.00
12,Boreal,2025-03-30T06:18:00,2025-03-30T06:20:00,3.00
12,Boreal,2025-03-30T16:12:00,2025-03-30T16:13:00,2.00
12,Boreal,2025-03-31T06:18:00,2025-03-31T06:20:00,3.00
12,Boreal,2025-03-31T16:11:00,2025-03-31T16:13:00,3.00
12,Boreal,2025-04-01T06:18:00,2025-04-01T06:19:00,2.00
12,Boreal,2025-04-01T16:11:00,2025-04-01T16:13:00,3.00
12,Boreal,2025-04-02T06:17:00,2025-04-02T06:19:00,3.00
12,Boreal,2025-04-02T16:11:00,2025-04-02T16:13:00,3.00
12,Boreal,2025-04-03T06:17:00,2025-04-03T06:19:00,3.00
12,Boreal,2025-04-03T16:10:00,2025-04-03T16:12:00,3.00
12,Boreal,2025-04-04T06:17:00,2025-04-04T06:18:00,2.00
12,Boreal,2025-04-04T16:10:00,2025-04-04T16:12:00,3.00
12,Boreal,2025-04-05T06:17:00,2025-04-05T06:18:00,2.00
12,Boreal,2025-04-05T16:10:00,2025-04-05T16:11:00,2.00
12,Boreal,2025-04-06T16:10:00,2025-04-06T16:10:00,1.00
12,Boreal,2025-04-09T04:39:00,2025-04-09T04:39:00,1.00
12,Boreal,2025-04-09T14:32:00,2025-04-09T14:33:00,2.00
12,Boreal,2025-04-10T04:38:00,2025-04-10T04:39:00,2.00
12,Boreal,2025-04-10T14:31:00,2025-04-10T14:33:00,3.00
12,Boreal,2025-04-11T04:37:00,2025-04-11T04:39:00,3.00
12,Boreal,2025-04-11T14:31:00,2025-04-11T14:33:00,3.00
12,Boreal,2025-04-12T04:37:00,2025-04-12T04:39:00,3.00
12,Boreal,2025-04-12T14:31:00,2025-04-12T14:32:00,2.00
13,Boreal,2025-03-30T06:09:00,2025-03-30T06:10:00,2.00
13,Boreal,2025-03-30T16:03:00,2025-03-30T16:03:00,1.00
13,Boreal,2025-03-31T06:08:00,2025-03-31T06:10:00,3.00
13,Boreal,2025-03-31T16:02:00,2025-03-31T16:03:00,2.00
13,Boreal,2025-04-01T06:08:00,2025-04-01T06:10:00,3.00
13,Boreal,2025-04-01T16:01:00,2025-04-01T16:03:00,3.00
13,Boreal,2025-04-02T06:08:00,2025-04-02T06:09:00,2.00
13,Boreal,2025-04-02T16:01:00,2025-04-02T16:03:00,3.00
13,Boreal,2025-04-03T06:07:00,2025-04-03T06:09:00,3.00
13,Boreal,2025-04-03T16:01:00,2025-04-03T16:03:00,3.00
13,Boreal,2025-04-04T06:07:00,2025-04-04T06:09:00,3.00
13,Boreal,2025-04-04T16:00:00,2025-04-04T16:02:00,3.00
13,Boreal,2025-04-05T06:07:00,2025-04-05T06:08:00,2.00
13,Boreal,2025-04-05T16:00:00,2025-04-05T16:02:00,3.00
13,Boreal,2025-04-06T06:07:00,2025-04-06T06:08:00,2.00
13,Boreal,2025-04-06T16:00:00,2025-04-06T16:01:00,2.00
13,Boreal,2025-04-07T16:00:00,2025-04-07T16:00:00,1.00
13,Boreal,2025-04-10T04:29:00,2025-04-10T04:29:00,1.00
13,Boreal,2025-04-10T14:22:00,2025-04-10T14:23:00,2.00
13,Boreal,2025-04-11T04:28:00,2025-04-11T04:29:00,2.00
13,Boreal,2025-04-11T14:21:00,2025-04-11T14:23:00,3.00
13,Boreal,2025-04-12T04:27:00,2025-04-12T04:29:00,3.00
13,Boreal,2025-04-12T14:21:00,2025-04-12T14:23:00,3.00
14,Boreal,2025-03-31T05:59:00,2025-03-31T06:00:00,2.00
14,Boreal,2025-03-31T15:53:00,2025-03-31T15:53:00,1.00
14,Boreal,2025-04-01T05:58:00,2025-04-01T06:00:00,3.00
14,Boreal,2025-04-01T15:52:00,2025-04-01T15:53:00,2.00
14,Boreal,2025-04-02T05:58:00,2025-04-02T06:00:00,3.00
14,Boreal,2025-04-02T15:51:00,2025-04-02T15:53:00,3.00
14,Boreal,2025-04-03T05:58:00,2025-04-03T05:59:00,2.00
14,Boreal,2025-04-03T15:51:00,2025-04-03T15:53:00,3.00
14,Boreal,2025-04-04T05:57:00,2025-04-04T05:59:00,3.00
14,Boreal,2025-04-04T15:51:00,2025-04-04T15:53:00,3.00
14,Boreal,2025-04-05T05:57:00,2025-04-05T05:59:00,3.00
14,Boreal,2025-04-05T15:50:00,2025-04-05T15:52:00,3.00
14,Boreal,2025-04-06T05:57:00,2025-04-06T05:58:00,2.00
14,Boreal,2025-04-06T15:50:00,2025-04-06T15:52:00,3.00
14,Boreal,2025-04-07T05:57:00,2025-04-07T05:58:00,2.00
14,Boreal,2025-04-07T15:50:00,2025-04-07T15:51:00,2.00
14,Boreal,2025-04-08T05:57:00,2025-04-08T05:57:00,1.00
14,Boreal,2025-04-08T15:50:00,2025-04-08T15:50:00,1.00
14,Boreal,2025-04-11T04:19:00,2025-04-11T04:19:00,1.00
14,Boreal,2025-04-11T14:12:00,2025-04-11T14:12:00,1.00
14,Boreal,2025-04-12T04:18:00,2025-04-12T04:19:00,2.00
14,Boreal,2025-04-12T14:11:00,2025-04-12T14:13:00,3.00
15,Boreal,2025-04-01T05:49:00,2025-04-01T05:50:00,2.00
15,Boreal,2025-04-01T15:43:00,2025-04-01T15:43:00,1.00
15,Boreal,2025-04-02T05:48:00,2025-04-02T05:50:00,3.00
15,Boreal,2025-04-02T15:42:00,2025-04-02T15:43:00,2.00
15,Boreal,2025-04-03T05:48:00,2025-04-03T05:50:00,3.00
15,Boreal,2025-04-03T15:41:00,2025-04-03T15:43:00,3.00
15,Boreal,2025-04-04T05:47:00,2025-04-04T05:49:00,3.00
15,Boreal,2025-04-04T15:41:00,2025-04-04T15:43:00,3.00
15,Boreal,2025-04-05T05:47:00,2025-04-05T05:49:00,3.00
15,Boreal,2025-04-05T15:41:00,2025-04-05T15:43:00,3.00
15,Boreal,2025-04-06T05:47:00,2025-04-06T05:49:00,3.00
15,Boreal,2025-04-06T15:40:00,2025-04-06T15:42:00,3.00
15,Boreal,2025-04-07T05:47:00,2025-04-07T05:48:00,2.00
15,Boreal,2025-04-07T15:40:00,2025-04-07T15:42:00,3.00
15,Boreal,2025-04-08T05:47:00,2025-04-08T05:48:00,2.00
15,Boreal,2025-04-08T15:40:00,2025-04-08T15:41:00,2.00
15,Boreal,2025-04-09T05:47:00,2025-04-09T05:47:00,1.00
15,Boreal,2025-04-09T15:40:00,2025-04-09T15:40:00,1.00
15,Boreal,2025-04-12T04:09:00,2025-04-12T04:09:00,1.00
15,Boreal,2025-04-12T14:02:00,2025-04-12T14:02:00,1.00
16,Boreal,2025-03-30T17:11:00,2025-03-30T17:11:00,1.00
16,Boreal,2025-04-02T05:39:00,2025-04-02T05:40:00,2.00
16,Boreal,2025-04-02T15:33:00,2025-04-02T15:33:00,1.00
16,Boreal,2025-04-03T05:38:00,2025-04-03T05:40:00,3.00
16,Boreal,2025-04-03T15:32:00,2025-04-03T15:33:00,2.00
16,Boreal,2025-04-04T05:38:00,2025-04-04T05:40:00,3.00
16,Boreal,2025-04-04T15:31:00,2025-04-04T15:33:00,3.00
16,Boreal,2025-04-05T05:37:00,2025-04-05T05:39:00,3.00
16,Boreal,2025-04-05T15:31:00,2025-04-05T15:33:00,3.00
16,Boreal,2025-04-06T05:37:00,2025-04-06T05:39:00,3.00
16,Boreal,2025-04-06T15:31:00,2025-04-06T15:33:00,3.00
16,Boreal,2025-04-07T05:37:00,2025-04-07T05:39:00,3.00
16,Boreal,2025-04-07T15:30:00,2025-04-07T15:32:00,3.00
16,Boreal,2025-04-08T05:37:00,2025-04-08T05:38:00,2.00
16,Boreal,2025-04-08T15:30:00,2025-04-08T15:32:00,3.00
16,Boreal,2025-04-09T05:37:00,2025-04-09T05:38:00,2.00
16,Boreal,2025-04-09T15:30:00,2025-04-09T15:31:00,2.00
16,Boreal,2025-04-10T05:37:00,2025-04-10T05:37:00,1.00
16,Boreal,2025-04-10T15:30:00,2025-04-10T15:30:00,1.00
17,Boreal,2025-03-30T07:07:00,2025-03-30T07:08:00,2.00
17,Boreal,2025-03-30T17:01:00,2025-03-30T17:02:00,2.00
17,Boreal,2025-03-31T07:07:00,2025-03-31T07:07:00,1.00
17,Boreal,2025-03-31T17:01:00,2025-03-31T17:01:00,1.00
17,Boreal,2025-04-03T05:29:00,2025-04-03T05:30:00,2.00
17,Boreal,2025-04-03T15:23:00,2025-04-03T15:23:00,1.00
17,Boreal,2025-04-04T05:28:00,2025-04-04T05:30:00,3.00
17,Boreal,2025-04-04T15:22:00,2025-04-04T15:23:00,2.00
17,Boreal,2025-04-05T05:28:00,2025-04-05T05:30:00,3.00
17,Boreal,2025-04-05T15:21:00,2025-04-05T15:23:00,3.00
17,Boreal,2025-04-06T05:27:00,2025-04-06T05:29:00,3.00
17,Boreal,2025-04-06T15:21:00,2025-04-06T15:23:00,3.00
17,Boreal,2025-04-07T05:27:00,2025-04-07T05:29:00,3.00
17,Boreal,2025-04-07T15:21:00,2025-04-07T15:23:00,3.00
17,Boreal,2025-04-08T05:27:00,2025-04-08T05:29:00,3.00
17,Boreal,2025-04-08T15:20:00,2025-04-08T15:22:00,3.00
17,Boreal,2025-04-09T05:27:00,2025-04-09T05:28:00,2.00
17,Boreal,2025-04-09T15:20:00,2025-04-09T15:22:00,3.00
17,Boreal,2025-04-10T05:27:00,2025-04-10T05:28:00,2.00
17,Boreal,2025-04-10T15:20:00,2025-04-10T15:21:00,2.00
17,Boreal,2025-04-11T05:27:00,2025-04-11T05:27:00,1.00
17,Boreal,2025-04-11T15:20:00,2025-04-11T15:20:00,1.00
18,Boreal,2025-03-30T06:57:00,2025-03-30T06:59:00,3.00
18,Boreal,2025-03-30T16:51:00,2025-03-30T16:52:00,2.00
18,Boreal,2025-03-31T06:57:00,2025-03-31T06:58:00,2.00
18,Boreal,2025-03-31T16:50:00,2025-03-31T16:52:00,3.00
18,Boreal,2025-04-01T06:57:00,2025-04-01T06:57:00,1.00
18,Boreal,2025-04-01T16:50:00,2025-04-01T16:51:00,2.00
18,Boreal,2025-04-04T05:19:00,2025-04-04T05:20:00,2.00
18,Boreal,2025-04-04T15:13:00,2025-04-04T15:13:00,1.00
18,Boreal,2025-04-05T05:18:00,2025-04-05T05:20:00,3.00
18,Boreal,2025-04-05T15:12:00,2025-04-05T15:13:00,2.00
18,Boreal,2025-04-06T05:18:00,2025-04-06T05:19:00,2.00
18,Boreal,2025-04-06T15:11:00,2025-04-06T15:13:00,3.00
18,Boreal,2025-04-07T05:17:00,2025-04-07T05:19:00,3.00
18,Boreal,2025-04-07T15:11:00,2025-04-07T15:13:00,3.00
18,Boreal,2025-04-08T05:17:00,2025-04-08T05:19:00,3.00
18,Boreal,2025-04-08T15:11:00,2025-04-08T15:12:00,2.00
18,Boreal,2025-04-09T05:17:00,2025-04-09T05:19:00,3.00
18,Boreal,2025-04-09T15:10:00,2025-04-09T15:12:00,3.00
18,Boreal,2025-04-10T05:17:00,2025-04-10T05:18:00,2.00
18,Boreal,2025-04-10T15:10:00,2025-04-10T15:12:00,3.00
18,Boreal,2025-04-11T05:17:00,2025-04-11T05:18:00,2.00
18,Boreal,2025-04-11T15:10:00,2025-04-11T15:11:00,2.00
18,Boreal,2025-04-12T05:17:00,2025-04-12T05:17:00,1.00
18,Boreal,2025-04-12T15:10:00,2025-04-12T15:11:00,2.00
19,Boreal,2025-03-30T06:47:00,2025-03-30T06:49:00,3.00
19,Boreal,2025-03-30T16:41:00,2025-03-30T16:43:00,3.00
19,Boreal,2025-03-31T06:47:00,2025-03-31T06:49:00,3.00
19,Boreal,2025-03-31T16:41:00,2025-03-31T16:42:00,2.00
19,Boreal,2025-04-01T06:47:00,2025-04-01T06:48:00,2.00
19,Boreal,2025-04-01T16:40:00,2025-04-01T16:42:00,3.00
19,Boreal,2025-04-02T06:47:00,2025-04-02T06:47:00,1.00
19,Boreal,2025-04-02T16:40:00,2025-04-02T16:41:00,2.00
19,Boreal,2025-04-05T05:09:00,2025-04-05T05:10:00,2.00
19,Boreal,2025-04-05T15:03:00,2025-04-05T15:03:00,1.00
19,Boreal,2025-04-06T05:08:00,2025-04-06T05:10:00,3.00
19,Boreal,2025-04-06T15:02:00,2025-04-06T15:03:00,2.00
19,Boreal,2025-04-07T05:08:00,2025-04-07T05:09:00,2.00
19,Boreal,2025-04-07T15:01:00,2025-04-07T15:03:00,3.00
19,Boreal,2025-04-08T05:07:00,2025-04-08T05:09:00,3.00
19,Boreal,2025-04-08T15:01:00,2025-04-08T15:03:00,3.00
19,Boreal,2025-04-09T05:07:00,2025-04-09T05:09:00,3.00
19,Boreal,2025-04-09T15:01:00,2025-04-09T15:02:00,2.00
19,Boreal,2025-04-10T05:07:00,2025-04-10T05:09:00,3.00
19,Boreal,2025-04-10T15:00:00,2025-04-10T15:02:00,3.00
19,Boreal,2025-04-11T05:07:00,2025-04-11T05:08:00,2.00
19,Boreal,2025-04-11T15:00:00,2025-04-11T15:02:00,3.00
19,Boreal,2025-04-12T05:06:00,2025-04-12T05:08:00,3.00
19,Boreal,2025-04-12T15:00:00,2025-04-12T15:01:00,2.00
20,Boreal,2025-03-30T08:14:00,2025-03-30T08:14:00,1.00
20,Boreal,2025-03-30T16:29:00,2025-03-30T16:31:00,3.00
20,Boreal,2025-03-31T08:13:00,2025-03-31T08:14:00,2.00
20,Boreal,2025-03-31T16:29:00,2025-03-31T16:30:00,2.00
20,Boreal,2025-04-01T08:12:00,2025-04-01T08:14:00,3.00
20,Boreal,2025-04-01T16:28:00,2025-04-01T16:30:00,3.00
20,Boreal,2025-04-02T08:12:00,2025-04-02T08:13:00,2.00
20,Boreal,2025-04-02T16:28:00,2025-04-02T16:29:00,2.00
20,Boreal,2025-04-03T08:11:00,2025-04-03T08:13:00,3.00
20,Boreal,2025-04-04T08:11:00,2025-04-04T08:12:00,2.00
20,Boreal,2025-04-04T14:49:00,2025-04-04T14:50:00,2.00
20,Boreal,2025-04-05T08:11:00,2025-04-05T08:11:00,1.00
20,Boreal,2025-04-05T14:48:00,2025-04-05T14:49:00,2.00
20,Boreal,2025-04-06T14:47:00,2025-04-06T14:49:00,3.00
20,Boreal,2025-04-07T06:31:00,2025-04-07T06:32:00,2.00
20,Boreal,2025-04-07T14:47:00,2025-04-07T14:48:00,2.00
20,Boreal,2025-04-08T06:30:00,2025-04-08T06:32:00,3.00
20,Boreal,2025-04-08T14:46:00,2025-04-08T14:48:00,3.00
20,Boreal,2025-04-09T06:30:00,2025-04-09T06:31:00,2.00
20,Boreal,2025-04-09T14:46:00,2025-04-09T14:47:00,2.00
20,Boreal,2025-04-10T06:29:00,2025-04-10T06:31:00,3.00
20,Boreal,2025-04-10T14:46:00,2025-04-10T14:46:00,1.00
20,Boreal,2025-04-11T06:29:00,2025-04-11T06:30:00,2.00
20,Boreal,2025-04-11T13:07:00,2025-04-11T13:07:00,1.00
20,Boreal,2025-04-12T06:28:00,2025-04-12T06:30:00,3.00
20,Boreal,2025-04-12T13:06:00,2025-04-12T13:07:00,2.00
21,Boreal,2025-03-30T09:43:00,2025-03-30T09:43:00,1.00
21,Boreal,2025-03-30T16:19:00,2025-03-30T16:21:00,3.00
21,Boreal,2025-03-31T08:04:00,2025-03-31T08:04:00,1.00
21,Boreal,2025-03-31T16:19:00,2025-03-31T16:21:00,3.00
21,Boreal,2025-04-01T08:03:00,2025-04-01T08:04:00,2.00
21,Boreal,2025-04-01T16:18:00,2025-04-01T16:20:00,3.00
21,Boreal,2025-04-02T08:02:00,2025-04-02T08:04:00,3.00
21,Boreal,2025-04-02T16:18:00,2025-04-02T16:19:00,2.00
21,Boreal,2025-04-03T08:01:00,2025-04-03T08:03:00,3.00
21,Boreal,2025-04-03T16:18:00,2025-04-03T16:18:00,1.00
21,Boreal,2025-04-04T08:01:00,2025-04-04T08:02:00,2.00
21,Boreal,2025-04-04T14:39:00,2025-04-04T14:39:00,1.00
21,Boreal,2025-04-05T08:00:00,2025-04-05T08:02:00,3.00
21,Boreal,2025-04-05T14:38:00,2025-04-05T14:39:00,2.00
21,Boreal,2025-04-06T08:00:00,2025-04-06T08:01:00,2.00
21,Boreal,2025-04-06T14:37:00,2025-04-06T14:39:00,3.00
21,Boreal,2025-04-07T06:22:00,2025-04-07T06:22:00,1.00
21,Boreal,2025-04-07T14:37:00,2025-04-07T14:39:00,3.00
21,Boreal,2025-04-08T06:21:00,2025-04-08T06:22:00,2.00
21,Boreal,2025-04-08T14:36:00,2025-04-08T14:38:00,3.00
21,Boreal,2025-04-09T06:20:00,2025-04-09T06:22:00,3.00
21,Boreal,2025-04-09T14:36:00,2025-04-09T14:37:00,2.00
21,Boreal,2025-04-10T06:19:00,2025-04-10T06:21:00,3.00
21,Boreal,2025-04-10T14:36:00,2025-04-10T14:36:00,1.00
21,Boreal,2025-04-11T06:19:00,2025-04-11T06:21:00,3.00
21,Boreal,2025-04-12T06:18:00,2025-04-12T06:20:00,3.00
21,Boreal,2025-04-12T12:56:00,2025-04-12T12:57:00,2.00
22,Boreal,2025-03-30T09:32:00,2025-03-30T09:33:00,2.00
22,Boreal,2025-03-30T16:10:00,2025-03-30T16:11:00,2.00
22,Boreal,2025-03-31T16:09:00,2025-03-31T16:11:00,3.00
22,Boreal,2025-04-01T07:53:00,2025-04-01T07:54:00,2.00
22,Boreal,2025-04-01T16:08:00,2025-04-01T16:10:00,3.00
22,Boreal,2025-04-02T07:52:00,2025-04-02T07:54:00,3.00
22,Boreal,2025-04-02T16:08:00,2025-04-02T16:10:00,3.00
22,Boreal,2025-04-03T07:51:00,2025-04-03T07:53:00,3.00
22,Boreal,2025-04-03T16:07:00,2025-04-03T16:09:00,3.00
22,Boreal,2025-04-04T07:51:00,2025-04-04T07:53:00,3.00
22,Boreal,2025-04-04T16:07:00,2025-04-04T16:08:00,2.00
22,Boreal,2025-04-05T07:50:00,2025-04-05T07:52:00,3.00
22,Boreal,2025-04-05T14:29:00,2025-04-05T14:29:00,1.00
22,Boreal,2025-04-06T07:50:00,2025-04-06T07:51:00,2.00
22,Boreal,2025-04-06T14:28:00,2025-04-06T14:29:00,2.00
22,Boreal,2025-04-07T07:50:00,2025-04-07T07:50:00,1.00
22,Boreal,2025-04-07T14:27:00,2025-04-07T14:29:00,3.00
22,Boreal,2025-04-08T06:11:00,2025-04-08T06:12:00,2.00
22,Boreal,2025-04-08T14:26:00,2025-04-08T14:28:00,3.00
22,Boreal,2025-04-09T06:10:00,2025-04-09T06:12:00,3.00
22,Boreal,2025-04-09T14:26:00,2025-04-09T14:28:00,3.00
22,Boreal,2025-04-10T06:09:00,2025-04-10T06:11:00,3.00
22,Boreal,2025-04-10T14:25:00,2025-04-10T14:27:00,3.00
22,Boreal,2025-04-11T06:09:00,2025-04-11T06:11:00,3.00
22,Boreal,2025-04-11T14:25:00,2025-04-11T14:26:00,2.00
22,Boreal,2025-04-12T06:08:00,2025-04-12T06:10:00,3.00
22,Boreal,2025-04-12T12:47:00,2025-04-12T12:47:00,1.00
23,Boreal,2025-03-30T09:22:00,2025-03-30T09:24:00,3.00
23,Boreal,2025-03-30T16:00:00,2025-03-30T16:01:00,2.00
23,Boreal,2025-03-31T09:22:00,2025-03-31T09:23:00,2.00
23,Boreal,2025-03-31T15:59:00,2025-03-31T16:01:00,3.00
23,Boreal,2025-04-01T15:59:00,2025-04-01T16:00:00,2.00
23,Boreal,2025-04-02T07:43:00,2025-04-02T07:44:00,2.00
23,Boreal,2025-04-02T15:58:00,2025-04-02T16:00:00,3.00
23,Boreal,2025-04-03T07:42:00,2025-04-03T07:43:00,2.00
23,Boreal,2025-04-03T15:58:00,2025-04-03T15:59:00,2.00
23,Boreal,2025-04-04T07:41:00,2025-04-04T07:43:00,3.00
23,Boreal,2025-04-04T15:57:00,2025-04-04T15:58:00,2.00
23,Boreal,2025-04-05T07:41:00,2025-04-05T07:42:00,2.00
23,Boreal,2025-04-06T07:40:00,2025-04-06T07:42:00,3.00
23,Boreal,2025-04-06T14:18:00,2025-04-06T14:19:00,2.00
23,Boreal,2025-04-07T07:40:00,2025-04-07T07:41:00,2.00
23,Boreal,2025-04-07T14:17:00,2025-04-07T14:19:00,3.00
23,Boreal,2025-04-08T07:40:00,2025-04-08T07:40:00,1.00
23,Boreal,2025-04-08T14:17:00,2025-04-08T14:18:00,2.00
23,Boreal,2025-04-09T06:01:00,2025-04-09T06:02:00,2.00
23,Boreal,2025-04-09T14:16:00,2025-04-09T14:18:00,3.00
23,Boreal,2025-04-10T06:00:00,2025-04-10T06:01:00,2.00
23,Boreal,2025-04-10T14:16:00,2025-04-10T14:17:00,2.00
23,Boreal,2025-04-11T05:59:00,2025-04-11T06:01:00,3.00
23,Boreal,2025-04-11T14:15:00,2025-04-11T14:17:00,3.00
23,Boreal,2025-04-12T05:59:00,2025-04-12T06:00:00,2.00
23,Boreal,2025-04-12T14:15:00,2025-04-12T14:15:00,1.00
24,Boreal,2025-03-30T09:12:00,2025-03-30T09:14:00,3.00
24,Boreal,2025-03-30T15:51:00,2025-03-30T15:51:00,1.00
24,Boreal,2025-03-31T09:12:00,2025-03-31T09:13:00,2.00
24,Boreal,2025-03-31T15:50:00,2025-03-31T15:51:00,2.00
24,Boreal,2025-04-01T09:12:00,2025-04-01T09:12:00,1.00
24,Boreal,2025-04-01T15:49:00,2025-04-01T15:50:00,2.00
24,Boreal,2025-04-02T07:33:00,2025-04-02T07:33:00,1.00
24,Boreal,2025-04-02T15:48:00,2025-04-02T15:50:00,3.00
24,Boreal,2025-04-03T07:32:00,2025-04-03T07:33:00,2.00
24,Boreal,2025-04-03T15:48:00,2025-04-03T15:49:00,2.00
24,Boreal,2025-04-04T07:31:00,2025-04-04T07:33:00,3.00
24,Boreal,2025-04-04T15:47:00,2025-04-04T15:49:00,3.00
24,Boreal,2025-04-05T07:31:00,2025-04-05T07:33:00,3.00
24,Boreal,2025-04-05T15:47:00,2025-04-05T15:48:00,2.00
24,Boreal,2025-04-06T07:30:00,2025-04-06T07:32:00,3.00
24,Boreal,2025-04-07T07:30:00,2025-04-07T07:31:00,2.00
24,Boreal,2025-04-07T14:08:00,2025-04-07T14:09:00,2.00
24,Boreal,2025-04-08T07:30:00,2025-04-08T07:30:00,1.00
24,Boreal,2025-04-08T14:07:00,2025-04-08T14:08:00,2.00
24,Boreal,2025-04-09T14:06:00,2025-04-09T14:08:00,3.00
24,Boreal,2025-04-10T05:50:00,2025-04-10T05:51:00,2.00
24,Boreal,2025-04-10T14:06:00,2025-04-10T14:08:00,3.00
24,Boreal,2025-04-11T05:49:00,2025-04-11T05:51:00,3.00
24,Boreal,2025-04-11T14:05:00,2025-04-11T14:07:00,3.00
24,Boreal,2025-04-12T05:49:00,2025-04-12T05:51:00,3.00
24,Boreal,2025-04-12T14:05:00,2025-04-12T14:06:00,2.00
25,Boreal,2025-03-30T09:02:00,2025-03-30T09:04:00,3.00
25,Boreal,2025-03-30T17:19:00,2025-03-30T17:19:00,1.00
25,Boreal,2025-03-31T09:02:00,2025-03-31T09:03:00,2.00
25,Boreal,2025-03-31T15:40:00,2025-03-31T15:41:00,2.00
25,Boreal,2025-04-01T09:02:00,2025-04-01T09:03:00,2.00
25,Boreal,2025-04-01T15:39:00,2025-04-01T15:40:00,2.00
25,Boreal,2025-04-02T09:02:00,2025-04-02T09:02:00,1.00
25,Boreal,2025-04-02T15:38:00,2025-04-02T15:40:00,3.00
25,Boreal,2025-04-03T07:23:00,2025-04-03T07:23:00,1.00
25,Boreal,2025-04-03T15:38:00,2025-04-03T15:40:00,3.00
25,Boreal,2025-04-04T07:22:00,2025-04-04T07:23:00,2.00
25,Boreal,2025-04-04T15:37:00,2025-04-04T15:39:00,3.00
25,Boreal,2025-04-05T07:21:00,2025-04-05T07:23:00,3.00
25,Boreal,2025-04-05T15:37:00,2025-04-05T15:38:00,2.00
25,Boreal,2025-04-06T07:20:00,2025-04-06T07:22:00,3.00
25,Boreal,2025-04-06T15:37:00,2025-04-06T15:37:00,1.00
25,Boreal,2025-04-07T07:20:00,2025-04-07T07:22:00,3.00
25,Boreal,2025-04-07T13:58:00,2025-04-07T13:58:00,1.00
25,Boreal,2025-04-08T07:20:00,2025-04-08T07:21:00,2.00
25,Boreal,2025-04-08T13:57:00,2025-04-08T13:58:00,2.00
25,Boreal,2025-04-09T07:20:00,2025-04-09T07:20:00,1.00
25,Boreal,2025-04-09T13:57:00,2025-04-09T13:58:00,2.00
25,Boreal,2025-04-10T05:41:00,2025-04-10T05:41:00,1.00
25,Boreal,2025-04-10T13:56:00,2025-04-10T13:58:00,3.00
25,Boreal,2025-04-11T05:40:00,2025-04-11T05:41:00,2.00
25,Boreal,2025-04-11T13:55:00,2025-04-11T13:57:00,3.00
25,Boreal,2025-04-12T05:39:00,2025-04-12T05:41:00,3.00
25,Boreal,2025-04-12T13:55:00,2025-04-12T13:56:00,2.00
26,Boreal,2025-03-30T08:52:00,2025-03-30T08:54:00,3.00
26,Boreal,2025-03-30T17:09:00,2025-03-30T17:10:00,2.00
26,Boreal,2025-03-31T08:52:00,2025-03-31T08:54:00,3.00
26,Boreal,2025-04-01T08:52:00,2025-04-01T08:53:00,2.00
26,Boreal,2025-04-01T15:30:00,2025-04-01T15:30:00,1.00
26,Boreal,2025-04-02T08:51:00,2025-04-02T08:52:00,2.00
26,Boreal,2025-04-02T15:29:00,2025-04-02T15:30:00,2.00
26,Boreal,2025-04-03T15:28:00,2025-04-03T15:30:00,3.00
26,Boreal,2025-04-04T07:12:00,2025-04-04T07:13:00,2.00
26,Boreal,2025-04-04T15:27:00,2025-04-04T15:29:00,3.00
26,Boreal,2025-04-05T07:11:00,2025-04-05T07:13:00,3.00
26,Boreal,2025-04-05T15:27:00,2025-04-05T15:29:00,3.00
26,Boreal,2025-04-06T07:11:00,2025-04-06T07:12:00,2.00
26,Boreal,2025-04-06T15:27:00,2025-04-06T15:28:00,2.00
26,Boreal,2025-04-07T07:10:00,2025-04-07T07:12:00,3.00
26,Boreal,2025-04-07T15:27:00,2025-04-07T15:27:00,1.00
26,Boreal,2025-04-08T07:10:00,2025-04-08T07:11:00,2.00
26,Boreal,2025-04-08T13:48:00,2025-04-08T13:48:00,1.00
26,Boreal,2025-04-09T07:09:00,2025-04-09T07:10:00,2.00
26,Boreal,2025-04-09T13:47:00,2025-04-09T13:48:00,2.00
26,Boreal,2025-04-10T07:09:00,2025-04-10T07:09:00,1.00
26,Boreal,2025-04-10T13:46:00,2025-04-10T13:48:00,3.00
26,Boreal,2025-04-11T05:30:00,2025-04-11T05:31:00,2.00
26,Boreal,2025-04-11T13:46:00,2025-04-11T13:47:00,2.00
26,Boreal,2025-04-12T05:29:00,2025-04-12T05:31:00,3.00
26,Boreal,2025-04-12T13:45:00,2025-04-12T13:47:00,3.00
27,Boreal,2025-03-30T08:43:00,2025-03-30T08:44:00,2.00
27,Boreal,2025-03-30T16:59:00,2025-03-30T17:00:00,2.00
27,Boreal,2025-03-31T08:42:00,2025-03-31T08:44:00,3.00
27,Boreal,2025-03-31T16:58:00,2025-03-31T16:59:00,2.00
27,Boreal,2025-04-01T08:42:00,2025-04-01T08:43:00,2.00
27,Boreal,2025-04-01T15:20:00,2025-04-01T15:20:00,1.00
27,Boreal,2025-04-02T08:41:00,2025-04-02T08:43:00,3.00
27,Boreal,2025-04-02T15:19:00,2025-04-02T15:20:00,2.00
27,Boreal,2025-04-03T08:41:00,2025-04-03T08:42:00,2.00
27,Boreal,2025-04-03T15:18:00,2025-04-03T15:20:00,3.00
27,Boreal,2025-04-04T07:03:00,2025-04-04T07:03:00,1.00
27,Boreal,2025-04-04T15:18:00,2025-04-04T15:20:00,3.00
27,Boreal,2025-04-05T07:02:00,2025-04-05T07:03:00,2.00
27,Boreal,2025-04-05T15:17:00,2025-04-05T15:19:00,3.00
27,Boreal,2025-04-06T07:01:00,2025-04-06T07:03:00,3.00
27,Boreal,2025-04-06T15:17:00,2025-04-06T15:18:00,2.00
27,Boreal,2025-04-07T07:00:00,2025-04-07T07:02:00,3.00
27,Boreal,2025-04-07T15:16:00,2025-04-07T15:17:00,2.00
27,Boreal,2025-04-08T07:00:00,2025-04-08T07:01:00,2.00
27,Boreal,2025-04-09T06:59:00,2025-04-09T07:01:00,3.00
27,Boreal,2025-04-09T13:37:00,2025-04-09T13:38:00,2.00
27,Boreal,2025-04-10T06:59:00,2025-04-10T07:00:00,2.00
27,Boreal,2025-04-10T13:36:00,2025-04-10T13:38:00,3.00
27,Boreal,2025-04-11T13:36:00,2025-04-11T13:38:00,3.00
27,Boreal,2025-04-12T05:20:00,2025-04-12T05:21:00,2.00
27,Boreal,2025-04-12T13:35:00,2025-04-12T13:37:00,3.00
28,Boreal,2025-03-30T08:33:00,2025-03-30T08:35:00,3.00
28,Boreal,2025-03-30T16:49:00,2025-03-30T16:51:00,3.00
28,Boreal,2025-03-31T08:32:00,2025-03-31T08:34:00,3.00
28,Boreal,2025-03-31T16:48:00,2025-03-31T16:50:00,3.00
28,Boreal,2025-04-01T08:32:00,2025-04-01T08:34:00,3.00
28,Boreal,2025-04-01T16:48:00,2025-04-01T16:49:00,2.00
28,Boreal,2025-04-02T08:31:00,2025-04-02T08:33:00,3.00
28,Boreal,2025-04-02T15:10:00,2025-04-02T15:10:00,1.00
28,Boreal,2025-04-03T08:31:00,2025-04-03T08:32:00,2.00
28,Boreal,2025-04-03T15:09:00,2025-04-03T15:10:00,2.00
28,Boreal,2025-04-04T08:31:00,2025-04-04T08:31:00,1.00
28,Boreal,2025-04-04T15:08:00,2025-04-04T15:10:00,3.00
28,Boreal,2025-04-05T06:52:00,2025-04-05T06:53:00,2.00
28,Boreal,2025-04-05T15:07:00,2025-04-05T15:09:00,3.00
28,Boreal,2025-04-06T06:51:00,2025-04-06T06:53:00,3.00
28,Boreal,2025-04-06T15:07:00,2025-04-06T15:09:00,3.00
28,Boreal,2025-04-07T06:50:00,2025-04-07T06:52:00,3.00
28,Boreal,2025-04-07T15:06:00,2025-04-07T15:08:00,3.00
28,Boreal,2025-04-08T06:50:00,2025-04-08T06:52:00,3.00
28,Boreal,2025-04-08T15:06:00,2025-04-08T15:07:00,2.00
28,Boreal,2025-04-09T06:49:00,2025-04-09T06:51:00,3.00
28,Boreal,2025-04-09T13:28:00,2025-04-09T13:28:00,1.00
28,Boreal,2025-04-10T06:49:00,2025-04-10T06:50:00,2.00
28,Boreal,2025-04-10T13:27:00,2025-04-10T13:28:00,2.00
28,Boreal,2025-04-11T06:49:00,2025-04-11T06:49:00,1.00
28,Boreal,2025-04-11T13:26:00,2025-04-11T13:28:00,3.00
28,Boreal,2025-04-12T13:25:00,2025-04-12T13:27:00,3.00
29,Boreal,2025-03-30T08:23:00,2025-03-30T08:25:00,3.00
29,Boreal,2025-03-30T16:39:00,2025-03-30T16:41:00,3.00
29,Boreal,2025-03-31T08:23:00,2025-03-31T08:24:00,2.00
29,Boreal,2025-03-31T16:38:00,2025-03-31T16:40:00,3.00
29,Boreal,2025-04-01T08:22:00,2025-04-01T08:24:00,3.00
29,Boreal,2025-04-01T16:38:00,2025-04-01T16:39:00,2.00
29,Boreal,2025-04-02T08:21:00,2025-04-02T08:23:00,3.00
29,Boreal,2025-04-02T16:38:00,2025-04-02T16:38:00,1.00
29,Boreal,2025-04-03T08:21:00,2025-04-03T08:23:00,3.00
29,Boreal,2025-04-03T14:59:00,2025-04-03T15:00:00,2.00
29,Boreal,2025-04-04T08:21:00,2025-04-04T08:22:00,2.00
29,Boreal,2025-04-04T14:58:00,2025-04-04T15:00:00,3.00
29,Boreal,2025-04-05T08:21:00,2025-04-05T08:21:00,1.00
29,Boreal,2025-04-05T14:58:00,2025-04-05T14:59:00,2.00
29,Boreal,2025-04-06T06:42:00,2025-04-06T06:42:00,1.00
29,Boreal,2025-04-06T14:57:00,2025-04-06T14:59:00,3.00
29,Boreal,2025-04-07T06:41:00,2025-04-07T06:42:00,2.00
29,Boreal,2025-04-07T14:56:00,2025-04-07T14:58:00,3.00
29,Boreal,2025-04-08T06:40:00,2025-04-08T06:42:00,3.00
29,Boreal,2025-04-08T14:56:00,2025-04-08T14:57:00,2.00
29,Boreal,2025-04-09T06:39:00,2025-04-09T06:41:00,3.00
29,Boreal,2025-04-09T14:56:00,2025-04-09T14:56:00,1.00
29,Boreal,2025-04-10T06:39:00,2025-04-10T06:41:00,3.00
29,Boreal,2025-04-10T13:17:00,2025-04-10T13:18:00,2.00
29,Boreal,2025-04-11T06:39:00,2025-04-11T06:40:00,2.00
29,Boreal,2025-04-11T13:16:00,2025-04-11T13:18:00,3.00
29,Boreal,2025-04-12T06:39:00,2025-04-12T06:39:00,1.00
29,Boreal,2025-04-12T13:16:00,2025-04-12T13:17:00,2.00
30,Boreal,2025-03-30T09:49:00,2025-03-30T09:51:00,3.00
30,Boreal,2025-03-30T18:05:00,2025-03-30T18:07:00,3.00
30,Boreal,2025-03-31T09:49:00,2025-03-31T09:51:00,3.00
30,Boreal,2025-03-31T18:05:00,2025-03-31T18:06:00,2.00
30,Boreal,2025-04-01T09:48:00,2025-04-01T09:50:00,3.00
30,Boreal,2025-04-02T09:48:00,2025-04-02T09:49:00,2.00
30,Boreal,2025-04-02T16:26:00,2025-04-02T16:27:00,2.00
30,Boreal,2025-04-03T09:48:00,2025-04-03T09:49:00,2.00
30,Boreal,2025-04-03T16:25:00,2025-04-03T16:26:00,2.00
30,Boreal,2025-04-04T16:24:00,2025-04-04T16:26:00,3.00
30,Boreal,2025-04-05T08:08:00,2025-04-05T08:09:00,2.00
30,Boreal,2025-04-05T16:24:00,2025-04-05T16:26:00,3.00
30,Boreal,2025-04-06T08:07:00,2025-04-06T08:09:00,3.00
30,Boreal,2025-04-06T16:23:00,2025-04-06T16:25:00,3.00
30,Boreal,2025-04-07T08:07:00,2025-04-07T08:09:00,3.00
30,Boreal,2025-04-07T16:23:00,2025-04-07T16:24:00,2.00
30,Boreal,2025-04-08T08:06:00,2025-04-08T08:08:00,3.00
30,Boreal,2025-04-08T16:23:00,2025-04-08T16:23:00,1.00
30,Boreal,2025-04-09T08:06:00,2025-04-09T08:07:00,2.00
30,Boreal,2025-04-09T14:44:00,2025-04-09T14:44:00,1.00
30,Boreal,2025-04-10T08:05:00,2025-04-10T08:07:00,3.00
30,Boreal,2025-04-10T14:43:00,2025-04-10T14:44:00,2.00
30,Boreal,2025-04-11T08:06:00,2025-04-11T08:06:00,1.00
30,Boreal,2025-04-11T14:42:00,2025-04-11T14:44:00,3.00
30,Boreal,2025-04-12T06:27:00,2025-04-12T06:27:00,1.00
30,Boreal,2025-04-12T14:42:00,2025-04-12T14:44:00,3.00
31,Boreal,2025-03-30T09:40:00,2025-03-30T09:41:00,2.00
31,Boreal,2025-03-30T17:55:00,2025-03-30T17:57:00,3.00
31,Boreal,2025-03-31T09:39:00,2025-03-31T09:41:00,3.00
31,Boreal,2025-03-31T17:55:00,2025-03-31T17:56:00,2.00
31,Boreal,2025-04-01T09:38:00,2025-04-01T09:40:00,3.00
31,Boreal,2025-04-01T17:55:00,2025-04-01T17:55:00,1.00
31,Boreal,2025-04-02T09:38:00,2025-04-02T09:40:00,3.00
31,Boreal,2025-04-03T09:37:00,2025-04-03T09:39:00,3.00
31,Boreal,2025-04-03T16:15:00,2025-04-03T16:16:00,2.00
31,Boreal,2025-04-04T09:37:00,2025-04-04T09:38:00,2.00
31,Boreal,2025-04-04T16:15:00,2025-04-04T16:16:00,2.00
31,Boreal,2025-04-05T16:14:00,2025-04-05T16:16:00,3.00
31,Boreal,2025-04-06T07:58:00,2025-04-06T07:59:00,2.00
31,Boreal,2025-04-06T16:13:00,2025-04-06T16:15:00,3.00
31,Boreal,2025-04-07T07:57:00,2025-04-07T07:59:00,3.00
31,Boreal,2025-04-07T16:13:00,2025-04-07T16:15:00,3.00
31,Boreal,2025-04-08T07:56:00,2025-04-08T07:58:00,3.00
31,Boreal,2025-04-08T16:13:00,2025-04-08T16:14:00,2.00
31,Boreal,2025-04-09T07:56:00,2025-04-09T07:58:00,3.00
31,Boreal,2025-04-10T07:55:00,2025-04-10T07:57:00,3.00
31,Boreal,2025-04-10T14:34:00,2025-04-10T14:34:00,1.00
31,Boreal,2025-04-11T07:55:00,2025-04-11T07:56:00,2.00
31,Boreal,2025-04-11T14:33:00,2025-04-11T14:34:00,2.00
31,Boreal,2025-04-12T14:32:00,2025-04-12T14:34:00,3.00
32,Boreal,2025-03-30T09:30:00,2025-03-30T09:31:00,2.00
32,Boreal,2025-03-30T17:45:00,2025-03-30T17:47:00,3.00
32,Boreal,2025-03-31T09:29:00,2025-03-31T09:31:00,3.00
32,Boreal,2025-03-31T17:45:00,2025-03-31T17:47:00,3.00
32,Boreal,2025-04-01T09:29:00,2025-04-01T09:30:00,2.00
32,Boreal,2025-04-01T17:45:00,2025-04-01T17:46:00,2.00
32,Boreal,2025-04-02T09:28:00,2025-04-02T09:30:00,3.00
32,Boreal,2025-04-02T17:44:00,2025-04-02T17:45:00,2.00
32,Boreal,2025-04-03T09:28:00,2025-04-03T09:29:00,2.00
32,Boreal,2025-04-03T16:06:00,2025-04-03T16:06:00,1.00
32,Boreal,2025-04-04T09:27:00,2025-04-04T09:28:00,2.00
32,Boreal,2025-04-04T16:05:00,2025-04-04T16:06:00,2.00
32,Boreal,2025-04-05T09:27:00,2025-04-05T09:28:00,2.00
32,Boreal,2025-04-05T16:04:00,2025-04-05T16:06:00,3.00
32,Boreal,2025-04-06T07:49:00,2025-04-06T07:49:00,1.00
32,Boreal,2025-04-06T16:04:00,2025-04-06T16:05:00,2.00
32,Boreal,2025-04-07T07:47:00,2025-04-07T07:49:00,3.00
32,Boreal,2025-04-07T16:03:00,2025-04-07T16:05:00,3.00
32,Boreal,2025-04-08T07:47:00,2025-04-08T07:48:00,2.00
32,Boreal,2025-04-08T16:03:00,2025-04-08T16:04:00,2.00
32,Boreal,2025-04-09T07:46:00,2025-04-09T07:48:00,3.00
32,Boreal,2025-04-09T16:02:00,2025-04-09T16:03:00,2.00
32,Boreal,2025-04-10T07:46:00,2025-04-10T07:47:00,2.00
32,Boreal,2025-04-11T07:45:00,2025-04-11T07:47:00,3.00
32,Boreal,2025-04-11T14:23:00,2025-04-11T14:24:00,2.00
32,Boreal,2025-04-12T07:45:00,2025-04-12T07:46:00,2.00
32,Boreal,2025-04-12T14:22:00,2025-04-12T14:24:00,3.00
33,Boreal,2025-03-30T17:36:00,2025-03-30T17:37:00,2.00
33,Boreal,2025-03-31T09:20:00,2025-03-31T09:21:00,2.00
33,Boreal,2025-03-31T17:35:00,2025-03-31T17:37:00,3.00
33,Boreal,2025-04-01T09:19:00,2025-04-01T09:20:00,2.00
33,Boreal,2025-04-01T17:35:00,2025-04-01T17:36:00,2.00
33,Boreal,2025-04-02T09:18:00,2025-04-02T09:20:00,3.00
33,Boreal,2025-04-02T17:34:00,2025-04-02T17:35:00,2.00
33,Boreal,2025-04-03T09:18:00,2025-04-03T09:19:00,2.00
33,Boreal,2025-04-03T17:34:00,2025-04-03T17:34:00,1.00
33,Boreal,2025-04-04T09:17:00,2025-04-04T09:19:00,3.00
33,Boreal,2025-04-04T15:55:00,2025-04-04T15:56:00,2.00
33,Boreal,2025-04-05T09:17:00,2025-04-05T09:18:00,2.00
33,Boreal,2025-04-05T15:54:00,2025-04-05T15:56:00,3.00
33,Boreal,2025-04-06T09:17:00,2025-04-06T09:17:00,1.00
33,Boreal,2025-04-06T15:54:00,2025-04-06T15:55:00,2.00
33,Boreal,2025-04-07T07:38:00,2025-04-07T07:39:00,2.00
33,Boreal,2025-04-07T15:53:00,2025-04-07T15:55:00,3.00
33,Boreal,2025-04-08T07:37:00,2025-04-08T07:38:00,2.00
33,Boreal,2025-04-08T15:53:00,2025-04-08T15:54:00,2.00
33,Boreal,2025-04-09T07:36:00,2025-04-09T07:38:00,3.00
33,Boreal,2025-04-09T15:52:00,2025-04-09T15:54:00,3.00
33,Boreal,2025-04-10T07:36:00,2025-04-10T07:38:00,3.00
33,Boreal,2025-04-10T15:52:00,2025-04-10T15:53:00,2.00
33,Boreal,2025-04-11T07:35:00,2025-04-11T07:37:00,3.00
33,Boreal,2025-04-11T14:14:00,2025-04-11T14:14:00,1.00
33,Boreal,2025-04-12T07:35:00,2025-04-12T07:36:00,2.00
33,Boreal,2025-04-12T14:13:00,2025-04-12T14:14:00,2.00
34,Boreal,2025-03-30T10:49:00,2025-03-30T10:49:00,1.00
34,Boreal,2025-03-30T17:26:00,2025-03-30T17:28:00,3.00
34,Boreal,2025-03-31T17:25:00,2025-03-31T17:27:00,3.00
34,Boreal,2025-04-01T09:09:00,2025-04-01T09:10:00,2.00
34,Boreal,2025-04-01T17:25:00,2025-04-01T17:27:00,3.00
34,Boreal,2025-04-02T09:08:00,2025-04-02T09:10:00,3.00
34,Boreal,2025-04-02T17:24:00,2025-04-02T17:26:00,3.00
34,Boreal,2025-04-03T09:08:00,2025-04-03T09:10:00,3.00
34,Boreal,2025-04-03T17:24:00,2025-04-03T17:25:00,2.00
34,Boreal,2025-04-04T09:07:00,2025-04-04T09:09:00,3.00
34,Boreal,2025-04-05T09:07:00,2025-04-05T09:08:00,2.00
34,Boreal,2025-04-05T15:45:00,2025-04-05T15:46:00,2.00
34,Boreal,2025-04-06T09:07:00,2025-04-06T09:08:00,2.00
34,Boreal,2025-04-06T15:44:00,2025-04-06T15:46:00,3.00
34,Boreal,2025-04-07T15:43:00,2025-04-07T15:45:00,3.00
34,Boreal,2025-04-08T07:27:00,2025-04-08T07:28:00,2.00
34,Boreal,2025-04-08T15:43:00,2025-04-08T15:45:00,3.00
34,Boreal,2025-04-09T07:27:00,2025-04-09T07:28:00,2.00
34,Boreal,2025-04-09T15:42:00,2025-04-09T15:44:00,3.00
34,Boreal,2025-04-10T07:26:00,2025-04-10T07:28:00,3.00
34,Boreal,2025-04-10T15:42:00,2025-04-10T15:43:00,2.00
34,Boreal,2025-04-11T07:25:00,2025-04-11T07:27:00,3.00
34,Boreal,2025-04-11T15:42:00,2025-04-11T15:42:00,1.00
34,Boreal,2025-04-12T07:25:00,2025-04-12T07:27:00,3.00
34,Boreal,2025-04-12T14:03:00,2025-04-12T14:04:00,2.00
35,Boreal,2025-03-30T10:39:00,2025-03-30T10:40:00,2.00
35,Boreal,2025-03-30T17:16:00,2025-03-30T17:18:00,3.00
35,Boreal,2025-03-31T10:39:00,2025-03-31T10:39:00,1.00
35,Boreal,2025-03-31T17:16:00,2025-03-31T17:17:00,2.00
35,Boreal,2025-04-01T09:00:00,2025-04-01T09:00:00,1.00
35,Boreal,2025-04-01T17:15:00,2025-04-01T17:17:00,3.00
35,Boreal,2025-04-02T08:59:00,2025-04-02T09:00:00,2.00
35,Boreal,2025-04-02T17:14:00,2025-04-02T17:16:00,3.00
35,Boreal,2025-04-03T08:58:00,2025-04-03T09:00:00,3.00
35,Boreal,2025-04-03T17:14:00,2025-04-03T17:15:00,2.00
35,Boreal,2025-04-04T08:57:00,2025-04-04T08:59:00,3.00
35,Boreal,2025-04-04T17:14:00,2025-04-04T17:14:00,1.00
35,Boreal,2025-04-05T08:57:00,2025-04-05T08:59:00,3.00
35,Boreal,2025-04-06T08:57:00,2025-04-06T08:58:00,2.00
35,Boreal,2025-04-06T15:34:00,2025-04-06T15:35:00,2.00
35,Boreal,2025-04-07T08:57:00,2025-04-07T08:57:00,1.00
35,Boreal,2025-04-07T15:34:00,2025-04-07T15:35:00,2.00
35,Boreal,2025-04-08T07:18:00,2025-04-08T07:18:00,1.00
35,Boreal,2025-04-08T15:33:00,2025-04-08T15:35:00,3.00
35,Boreal,2025-04-09T07:17:00,2025-04-09T07:18:00,2.00
35,Boreal,2025-04-09T15:32:00,2025-04-09T15:34:00,3.00
35,Boreal,2025-04-10T07:16:00,2025-04-10T07:18:00,3.00
35,Boreal,2025-04-10T15:32:00,2025-04-10T15:34:00,3.00
35,Boreal,2025-04-11T07:15:00,2025-04-11T07:17:00,3.00
35,Boreal,2025-04-11T15:32:00,2025-04-11T15:33:00,2.00
35,Boreal,2025-04-12T07:15:00,2025-04-12T07:17:00,3.00
36,Boreal,2025-03-30T10:29:00,2025-03-30T10:30:00,2.00
36,Boreal,2025-03-30T17:07:00,2025-03-30T17:07:00,1.00
36,Boreal,2025-03-31T10:28:00,2025-03-31T10:29:00,2.00
36,Boreal,2025-03-31T17:06:00,2025-03-31T17:07:00,2.00
36,Boreal,2025-04-01T17:05:00,2025-04-01T17:07:00,3.00
36,Boreal,2025-04-02T08:49:00,2025-04-02T08:50:00,2.00
36,Boreal,2025-04-02T17:05:00,2025-04-02T17:06:00,2.00
36,Boreal,2025-04-03T08:48:00,2025-04-03T08:50:00,3.00
36,Boreal,2025-04-03T17:04:00,2025-04-03T17:06:00,3.00
36,Boreal,2025-04-04T08:48:00,2025-04-04T08:49:00,2.00
36,Boreal,2025-04-04T17:04:00,2025-04-04T17:05:00,2.00
36,Boreal,2025-04-05T08:47:00,2025-04-05T08:49:00,3.00
36,Boreal,2025-04-05T17:04:00,2025-04-05T17:04:00,1.00
36,Boreal,2025-04-06T08:47:00,2025-04-06T08:48:00,2.00
36,Boreal,2025-04-06T15:25:00,2025-04-06T15:25:00,1.00
36,Boreal,2025-04-07T08:46:00,2025-04-07T08:48:00,3.00
36,Boreal,2025-04-07T15:24:00,2025-04-07T15:25:00,2.00
36,Boreal,2025-04-08T08:46:00,2025-04-08T08:47:00,2.00
36,Boreal,2025-04-08T15:23:00,2025-04-08T15:25:00,3.00
36,Boreal,2025-04-09T07:08:00,2025-04-09T07:08:00,1.00
36,Boreal,2025-04-09T15:23:00,2025-04-09T15:25:00,3.00
36,Boreal,2025-04-10T07:07:00,2025-04-10T07:08:00,2.00
36,Boreal,2025-04-10T15:22:00,2025-04-10T15:24:00,3.00
36,Boreal,2025-04-11T07:06:00,2025-04-11T07:08:00,3.00
36,Boreal,2025-04-11T15:22:00,2025-04-11T15:23:00,2.00
36,Boreal,2025-04-12T07:05:00,2025-04-12T07:07:00,3.00
36,Boreal,2025-04-12T15:21:00,2025-04-12T15:22:00,2.00
37,Boreal,2025-03-30T10:19:00,2025-03-30T10:20:00,2.00
37,Boreal,2025-03-31T10:18:00,2025-03-31T10:20:00,3.00
37,Boreal,2025-03-31T16:56:00,2025-03-31T16:57:00,2.00
37,Boreal,2025-04-01T10:18:00,2025-04-01T10:19:00,2.00
37,Boreal,2025-04-01T16:55:00,2025-04-01T16:57:00,3.00
37,Boreal,2025-04-02T16:55:00,2025-04-02T16:57:00,3.00
37,Boreal,2025-04-03T08:39:00,2025-04-03T08:40:00,2.00
37,Boreal,2025-04-03T16:54:00,2025-04-03T16:56:00,3.00
37,Boreal,2025-04-04T08:38:00,2025-04-04T08:40:00,3.00
37,Boreal,2025-04-04T16:54:00,2025-04-04T16:55:00,2.00
37,Boreal,2025-04-05T08:37:00,2025-04-05T08:39:00,3.00
37,Boreal,2025-04-05T16:53:00,2025-04-05T16:55:00,3.00
37,Boreal,2025-04-06T08:37:00,2025-04-06T08:39:00,3.00
37,Boreal,2025-04-07T08:36:00,2025-04-07T08:38:00,3.00
37,Boreal,2025-04-07T15:14:00,2025-04-07T15:15:00,2.00
37,Boreal,2025-04-08T08:36:00,2025-04-08T08:37:00,2.00
37,Boreal,2025-04-08T15:14:00,2025-04-08T15:15:00,2.00
37,Boreal,2025-04-09T08:36:00,2025-04-09T08:36:00,1.00
37,Boreal,2025-04-09T15:13:00,2025-04-09T15:15:00,3.00
37,Boreal,2025-04-10T06:57:00,2025-04-10T06:58:00,2.00
37,Boreal,2025-04-10T15:12:00,2025-04-10T15:14:00,3.00
37,Boreal,2025-04-11T06:56:00,2025-04-11T06:58:00,3.00
37,Boreal,2025-04-11T15:12:00,2025-04-11T15:14:00,3.00
37,Boreal,2025-04-12T06:55:00,2025-04-12T06:57:00,3.00
37,Boreal,2025-04-12T15:11:00,2025-04-12T15:13:00,3.00
38,Boreal,2025-03-30T10:09:00,2025-03-30T10:11:00,3.00
38,Boreal,2025-03-30T18:25:00,2025-03-30T18:26:00,2.00
38,Boreal,2025-03-31T10:08:00,2025-03-31T10:10:00,3.00
38,Boreal,2025-03-31T16:47:00,2025-03-31T16:47:00,1.00
38,Boreal,2025-04-01T10:08:00,2025-04-01T10:09:00,2.00
38,Boreal,2025-04-01T16:46:00,2025-04-01T16:47:00,2.00
38,Boreal,2025-04-02T10:08:00,2025-04-02T10:08:00,1.00
38,Boreal,2025-04-02T16:45:00,2025-04-02T16:47:00,3.00
38,Boreal,2025-04-03T08:30:00,2025-04-03T08:30:00,1.00
38,Boreal,2025-04-03T16:44:00,2025-04-03T16:46:00,3.00
38,Boreal,2025-04-04T08:28:00,2025-04-04T08:30:00,3.00
38,Boreal,2025-04-04T16:44:00,2025-04-04T16:46:00,3.00
38,Boreal,2025-04-05T08:28:00,2025-04-05T08:29:00,2.00
38,Boreal,2025-04-05T16:43:00,2025-04-05T16:45:00,3.00
38,Boreal,2025-04-06T08:27:00,2025-04-06T08:29:00,3.00
38,Boreal,2025-04-06T16:43:00,2025-04-06T16:44:00,2.00
38,Boreal,2025-04-07T08:26:00,2025-04-07T08:28:00,3.00
38,Boreal,2025-04-08T08:26:00,2025-04-08T08:28:00,3.00
38,Boreal,2025-04-08T15:04:00,2025-04-08T15:05:00,2.00
38,Boreal,2025-04-09T08:26:00,2025-04-09T08:27:00,2.00
38,Boreal,2025-04-09T15:03:00,2025-04-09T15:05:00,3.00
38,Boreal,2025-04-10T15:02:00,2025-04-10T15:04:00,3.00
38,Boreal,2025-04-11T06:47:00,2025-04-11T06:48:00,2.00
38,Boreal,2025-04-11T15:02:00,2025-04-11T15:04:00,3.00
38,Boreal,2025-04-12T06:46:00,2025-04-12T06:47:00,2.00
38,Boreal,2025-04-12T15:01:00,2025-04-12T15:03:00,3.00
39,Boreal,2025-03-30T09:59:00,2025-03-30T10:01:00,3.00
39,Boreal,2025-03-30T18:15:00,2025-03-30T18:16:00,2.00
39,Boreal,2025-03-31T09:58:00,2025-03-31T10:00:00,3.00
39,Boreal,2025-03-31T18:15:00,2025-03-31T18:15:00,1.00
39,Boreal,2025-04-01T09:58:00,2025-04-01T10:00:00,3.00
39,Boreal,2025-04-01T16:36:00,2025-04-01T16:37:00,2.00
39,Boreal,2025-04-02T09:58:00,2025-04-02T09:59:00,2.00
39,Boreal,2025-04-02T16:35:00,2025-04-02T16:37:00,3.00
39,Boreal,2025-04-03T09:58:00,2025-04-03T09:58:00,1.00
39,Boreal,2025-04-03T16:35:00,2025-04-03T16:36:00,2.00
39,Boreal,2025-04-04T08:19:00,2025-04-04T08:19:00,1.00
39,Boreal,2025-04-04T16:34:00,2025-04-04T16:36:00,3.00
39,Boreal,2025-04-05T08:18:00,2025-04-05T08:19:00,2.00
39,Boreal,2025-04-05T16:34:00,2025-04-05T16:35:00,2.00
39,Boreal,2025-04-06T08:17:00,2025-04-06T08:19:00,3.00
39,Boreal,2025-04-06T16:33:00,2025-04-06T16:35:00,3.00
39,Boreal,2025-04-07T08:17:00,2025-04-07T08:18:00,2.00
39,Boreal,2025-04-07T16:33:00,2025-04-07T16:34:00,2.00
39,Boreal,2025-04-08T08:16:00,2025-04-08T08:18:00,3.00
39,Boreal,2025-04-09T08:16:00,2025-04-09T08:17:00,2.00
39,Boreal,2025-04-09T14:54:00,2025-04-09T14:55:00,2.00
39,Boreal,2025-04-10T08:16:00,2025-04-10T08:16:00,1.00
39,Boreal,2025-04-10T14:53:00,2025-04-10T14:54:00,2.00
39,Boreal,2025-04-11T06:37:00,2025-04-11T06:37:00,1.00
39,Boreal,2025-04-11T14:52:00,2025-04-11T14:54:00,3.00
39,Boreal,2025-04-12T06:36:00,2025-04-12T06:37:00,2.00
39,Boreal,2025-04-12T14:52:00,2025-04-12T14:53:00,2.00
40,Boreal,2025-03-30T11:25:00,2025-03-30T11:27:00,3.00
40,Boreal,2025-03-30T19:42:00,2025-03-30T19:42:00,1.00
40,Boreal,2025-03-31T11:25:00,2025-03-31T11:26:00,2.00
40,Boreal,2025-03-31T18:03:00,2025-03-31T18:04:00,2.00
40,Boreal,2025-04-01T11:25:00,2025-04-01T11:26:00,2.00
40,Boreal,2025-04-01T18:02:00,2025-04-01T18:03:00,2.00
40,Boreal,2025-04-02T11:25:00,2025-04-02T11:25:00,1.00
40,Boreal,2025-04-02T18:01:00,2025-04-02T18:03:00,3.00
40,Boreal,2025-04-03T09:46:00,2025-04-03T09:46:00,1.00
40,Boreal,2025-04-03T18:01:00,2025-04-03T18:03:00,3.00
40,Boreal,2025-04-04T09:45:00,2025-04-04T09:46:00,2.00
40,Boreal,2025-04-04T18:00:00,2025-04-04T18:02:00,3.00
40,Boreal,2025-04-05T09:44:00,2025-04-05T09:46:00,3.00
40,Boreal,2025-04-05T18:00:00,2025-04-05T18:01:00,2.00
40,Boreal,2025-04-06T09:43:00,2025-04-06T09:45:00,3.00
40,Boreal,2025-04-06T18:00:00,2025-04-06T18:00:00,1.00
40,Boreal,2025-04-07T09:43:00,2025-04-07T09:45:00,3.00
40,Boreal,2025-04-07T16:21:00,2025-04-07T16:21:00,1.00
40,Boreal,2025-04-08T09:43:00,2025-04-08T09:44:00,2.00
40,Boreal,2025-04-08T16:20:00,2025-04-08T16:21:00,2.00
40,Boreal,2025-04-09T09:43:00,2025-04-09T09:43:00,1.00
40,Boreal,2025-04-09T16:19:00,2025-04-09T16:21:00,3.00
40,Boreal,2025-04-10T08:04:00,2025-04-10T08:04:00,1.00
40,Boreal,2025-04-10T16:19:00,2025-04-10T16:21:00,3.00
40,Boreal,2025-04-11T08:03:00,2025-04-11T08:04:00,2.00
40,Boreal,2025-04-11T16:18:00,2025-04-11T16:20:00,3.00
40,Boreal,2025-04-12T08:02:00,2025-04-12T08:04:00,3.00
40,Boreal,2025-04-12T16:18:00,2025-04-12T16:19:00,2.00
41,Boreal,2025-03-30T11:15:00,2025-03-30T11:17:00,3.00
41,Boreal,2025-03-30T19:32:00,2025-03-30T19:33:00,2.00
41,Boreal,2025-03-31T11:15:00,2025-03-31T11:17:00,3.00
41,Boreal,2025-04-01T11:15:00,2025-04-01T11:16:00,2.00
41,Boreal,2025-04-01T17:53:00,2025-04-01T17:53:00,1.00
41,Boreal,2025-04-02T11:14:00,2025-04-02T11:15:00,2.00
41,Boreal,2025-04-02T17:52:00,2025-04-02T17:53:00,2.00
41,Boreal,2025-04-03T17:51:00,2025-04-03T17:53:00,3.00
41,Boreal,2025-04-04T09:35:00,2025-04-04T09:36:00,2.00
41,Boreal,2025-04-04T17:50:00,2025-04-04T17:52:00,3.00
41,Boreal,2025-04-05T09:34:00,2025-04-05T09:36:00,3.00
41,Boreal,2025-04-05T17:50:00,2025-04-05T17:52:00,3.00
41,Boreal,2025-04-06T09:33:00,2025-04-06T09:35:00,3.00
41,Boreal,2025-04-06T17:50:00,2025-04-06T17:51:00,2.00
41,Boreal,2025-04-07T09:33:00,2025-04-07T09:35:00,3.00
41,Boreal,2025-04-07T17:50:00,2025-04-07T17:50:00,1.00
41,Boreal,2025-04-08T09:33:00,2025-04-08T09:34:00,2.00
41,Boreal,2025-04-08T16:11:00,2025-04-08T16:11:00,1.00
41,Boreal,2025-04-09T09:32:00,2025-04-09T09:33:00,2.00
41,Boreal,2025-04-09T16:10:00,2025-04-09T16:11:00,2.00
41,Boreal,2025-04-10T09:32:00,2025-04-10T09:32:00,1.00
41,Boreal,2025-04-10T16:09:00,2025-04-10T16:11:00,3.00
41,Boreal,2025-04-11T07:53:00,2025-04-11T07:54:00,2.00
41,Boreal,2025-04-11T16:08:00,2025-04-11T16:10:00,3.00
41,Boreal,2025-04-12T07:52:00,2025-04-12T07:54:00,3.00
41,Boreal,2025-04-12T16:08:00,2025-04-12T16:10:00,3.00
42,Boreal,2025-03-30T11:06:00,2025-03-30T11:07:00,2.00
42,Boreal,2025-03-30T19:22:00,2025-03-30T19:23:00,2.00
42,Boreal,2025-03-31T11:05:00,2025-03-31T11:07:00,3.00
42,Boreal,2025-03-31T19:21:00,2025-03-31T19:22:00,2.00
42,Boreal,2025-04-01T11:05:00,2025-04-01T11:06:00,2.00
42,Boreal,2025-04-01T17:43:00,2025-04-01T17:43:00,1.00
42,Boreal,2025-04-02T11:04:00,2025-04-02T11:06:00,3.00
42,Boreal,2025-04-02T17:42:00,2025-04-02T17:43:00,2.00
42,Boreal,2025-04-03T11:04:00,2025-04-03T11:05:00,2.00
42,Boreal,2025-04-03T17:41:00,2025-04-03T17:43:00,3.00
42,Boreal,2025-04-04T09:26:00,2025-04-04T09:26:00,1.00
42,Boreal,2025-04-04T17:41:00,2025-04-04T17:42:00,2.00
42,Boreal,2025-04-05T09:25:00,2025-04-05T09:26:00,2.00
42,Boreal,2025-04-05T17:40:00,2025-04-05T17:42:00,3.00
42,Boreal,2025-04-06T09:24:00,2025-04-06T09:25:00,2.00
42,Boreal,2025-04-06T17:40:00,2025-04-06T17:41:00,2.00
42,Boreal,2025-04-07T09:23:00,2025-04-07T09:25:00,3.00
42,Boreal,2025-04-07T17:39:00,2025-04-07T17:40:00,2.00
42,Boreal,2025-04-08T09:23:00,2025-04-08T09:24:00,2.00
42,Boreal,2025-04-09T09:22:00,2025-04-09T09:24:00,3.00
42,Boreal,2025-04-09T16:00:00,2025-04-09T16:01:00,2.00
42,Boreal,2025-04-10T09:22:00,2025-04-10T09:23:00,2.00
42,Boreal,2025-04-10T15:59:00,2025-04-10T16:01:00,3.00
42,Boreal,2025-04-11T15:59:00,2025-04-11T16:01:00,3.00
42,Boreal,2025-04-12T07:43:00,2025-04-12T07:44:00,2.00
42,Boreal,2025-04-12T15:58:00,2025-04-12T16:00:00,3.00
43,Boreal,2025-03-30T10:56:00,2025-03-30T10:58:00,3.00
43,Boreal,2025-03-30T19:12:00,2025-03-30T19:13:00,2.00
43,Boreal,2025-03-31T10:55:00,2025-03-31T10:57:00,3.00
43,Boreal,2025-03-31T19:11:00,2025-03-31T19:13:00,3.00
43,Boreal,2025-04-01T10:55:00,2025-04-01T10:57:00,3.00
43,Boreal,2025-04-01T19:11:00,2025-04-01T19:12:00,2.00
43,Boreal,2025-04-02T10:54:00,2025-04-02T10:56:00,3.00
43,Boreal,2025-04-02T17:33:00,2025-04-02T17:33:00,1.00
43,Boreal,2025-04-03T10:54:00,2025-04-03T10:55:00,2.00
43,Boreal,2025-04-03T17:32:00,2025-04-03T17:33:00,2.00
43,Boreal,2025-04-04T10:54:00,2025-04-04T10:54:00,1.00
43,Boreal,2025-04-04T17:31:00,2025-04-04T17:33:00,3.00
43,Boreal,2025-04-05T09:15:00,2025-04-05T09:16:00,2.00
43,Boreal,2025-04-05T17:30:00,2025-04-05T17:32:00,3.00
43,Boreal,2025-04-06T09:14:00,2025-04-06T09:16:00,3.00
43,Boreal,2025-04-06T17:30:00,2025-04-06T17:32:00,3.00
43,Boreal,2025-04-07T09:13:00,2025-04-07T09:15:00,3.00
43,Boreal,2025-04-07T17:29:00,2025-04-07T17:31:00,3.00
43,Boreal,2025-04-08T09:13:00,2025-04-08T09:15:00,3.00
43,Boreal,2025-04-08T17:29:00,2025-04-08T17:30:00,2.00
43,Boreal,2025-04-09T09:12:00,2025-04-09T09:14:00,3.00
43,Boreal,2025-04-09T15:51:00,2025-04-09T15:51:00,1.00
43,Boreal,2025-04-10T09:12:00,2025-04-10T09:13:00,2.00
