comm_windows_Abisko.csv

sat_id,ground_station,window_start,window_end,duration_min
0,Abisko,2025-03-30T11:30:00,2025-03-30T11:31:00,2.00
0,Abisko,2025-03-30T19:40:00,2025-03-30T19:41:00,2.00
0,Abisko,2025-03-30T21:17:00,2025-03-30T21:17:00,1.00
0,Abisko,2025-03-31T11:29:00,2025-03-31T11:31:00,3.00
0,Abisko,2025-03-31T19:39:00,2025-03-31T19:41:00,3.00
0,Abisko,2025-04-01T11:29:00,2025-04-01T11:31:00,3.00
0,Abisko,2025-04-01T19:39:00,2025-04-01T19:41:00,3.00
0,Abisko,2025-04-02T11:28:00,2025-04-02T11:30:00,3.00
0,Abisko,2025-04-02T19:38:00,2025-04-02T19:40:00,3.00
0,Abisko,2025-04-03T11:28:00,2025-04-03T11:30:00,3.00
0,Abisko,2025-04-03T19:38:00,2025-04-03T19:40:00,3.00
0,Abisko,2025-04-04T11:28:00,2025-04-04T11:30:00,3.00
0,Abisko,2025-04-04T19:38:00,2025-04-04T19:40:00,3.00
0,Abisko,2025-04-05T11:28:00,2025-04-05T11:29:00,2.00
0,Abisko,2025-04-05T19:38:00,2025-04-05T19:39:00,2.00
0,Abisko,2025-04-06T09:51:00,2025-04-06T09:51:00,1.00
0,Abisko,2025-04-06T11:27:00,2025-04-06T11:29:00,3.00
0,Abisko,2025-04-06T19:37:00,2025-04-06T19:39:00,3.00
0,Abisko,2025-04-07T09:51:00,2025-04-07T09:51:00,1.00
0,Abisko,2025-04-07T11:27:00,2025-04-07T11:28:00,2.00
0,Abisko,2025-04-07T19:37:00,2025-04-07T19:39:00,3.00
0,Abisko,2025-04-08T09:50:00,2025-04-08T09:51:00,2.00
0,Abisko,2025-04-08T11:27:00,2025-04-08T11:28:00,2.00
0,Abisko,2025-04-08T18:00:00,2025-04-08T18:01:00,2.00
0,Abisko,2025-04-08T19:37:00,2025-04-08T19:38:00,2.00
0,Abisko,2025-04-09T09:49:00,2025-04-09T09:51:00,3.00
0,Abisko,2025-04-09T11:27:00,2025-04-09T11:28:00,2.00
0,Abisko,2025-04-09T18:00:00,2025-04-09T18:00:00,1.00
0,Abisko,2025-04-09T19:37:00,2025-04-09T19:38:00,2.00
0,Abisko,2025-04-10T09:49:00,2025-04-10T09:51:00,3.00
0,Abisko,2025-04-10T17:59:00,2025-04-10T18:00:00,2.00
0,Abisko,2025-04-10T19:37:00,2025-04-10T19:37:00,1.00
0,Abisko,2025-04-11T09:49:00,2025-04-11T09:50:00,2.00
0,Abisko,2025-04-11T17:59:00,2025-04-11T18:00:00,2.00
0,Abisko,2025-04-12T09:48:00,2025-04-12T09:50:00,3.00
0,Abisko,2025-04-12T17:58:00,2025-04-12T18:00:00,3.00
1,Abisko,2025-03-30T11:20:00,2025-03-30T11:21:00,2.00
1,Abisko,2025-03-30T12:58:00,2025-03-30T12:58:00,1.00
1,Abisko,2025-03-30T19:30:00,2025-03-30T19:31:00,2.00
1,Abisko,2025-03-30T21:07:00,2025-03-30T21:08:00,2.00
1,Abisko,2025-03-31T11:20:00,2025-03-31T11:21:00,2.00
1,Abisko,2025-03-31T19:30:00,2025-03-31T19:31:00,2.00
1,Abisko,2025-03-31T21:07:00,2025-03-31T21:07:00,1.00
1,Abisko,2025-04-01T11:19:00,2025-04-01T11:21:00,3.00
1,Abisko,2025-04-01T19:29:00,2025-04-01T19:31:00,3.00
1,Abisko,2025-04-02T11:19:00,2025-04-02T11:21:00,3.00
1,Abisko,2025-04-02T19:29:00,2025-04-02T19:31:00,3.00
1,Abisko,2025-04-03T11:18:00,2025-04-03T11:20:00,3.00
1,Abisko,2025-04-03T19:28:00,2025-04-03T19:30:00,3.00
1,Abisko,2025-04-04T11:18:00,2025-04-04T11:20:00,3.00
1,Abisko,2025-04-04T19:28:00,2025-04-04T19:30:00,3.00
1,Abisko,2025-04-05T11:18:00,2025-04-05T11:20:00,3.00
1,Abisko,2025-04-05T19:28:00,2025-04-05T19:30:00,3.00
1,Abisko,2025-04-06T11:18:00,2025-04-06T11:19:00,2.00
1,Abisko,2025-04-06T19:28:00,2025-04-06T19:29:00,2.00
1,Abisko,2025-04-07T11:17:00,2025-04-07T11:19:00,3.00
1,Abisko,2025-04-07T19:27:00,2025-04-07T19:29:00,3.00
1,Abisko,2025-04-08T09:41:00,2025-04-08T09:41:00,1.00
1,Abisko,2025-04-08T11:17:00,2025-04-08T11:18:00,2.00
1,Abisko,2025-04-08T19:27:00,2025-04-08T19:29:00,3.00
1,Abisko,2025-04-09T09:40:00,2025-04-09T09:41:00,2.00
1,Abisko,2025-04-09T11:17:00,2025-04-09T11:18:00,2.00
1,Abisko,2025-04-09T17:50:00,2025-04-09T17:50:00,1.00
1,Abisko,2025-04-09T19:27:00,2025-04-09T19:28:00,2.00
1,Abisko,2025-04-10T09:39:00,2025-04-10T09:41:00,3.00
1,Abisko,2025-04-10T11:17:00,2025-04-10T11:18:00,2.00
1,Abisko,2025-04-10T17:50:00,2025-04-10T17:50:00,1.00
1,Abisko,2025-04-10T19:27:00,2025-04-10T19:28:00,2.00
1,Abisko,2025-04-11T09:39:00,2025-04-11T09:41:00,3.00
1,Abisko,2025-04-11T11:17:00,2025-04-11T11:17:00,1.00
1,Abisko,2025-04-11T17:49:00,2025-04-11T17:50:00,2.00
1,Abisko,2025-04-11T19:26:00,2025-04-11T19:27:00,2.00
1,Abisko,2025-04-12T09:39:00,2025-04-12T09:40:00,2.00
1,Abisko,2025-04-12T17:49:00,2025-04-12T17:50:00,2.00
2,Abisko,2025-03-30T11:11:00,2025-03-30T11:12:00,2.00
2,Abisko,2025-03-30T12:48:00,2025-03-30T12:49:00,2.00
2,Abisko,2025-03-30T19:21:00,2025-03-30T19:21:00,1.00
2,Abisko,2025-03-30T20:57:00,2025-03-30T20:59:00,3.00
2,Abisko,2025-03-31T11:10:00,2025-03-31T11:11:00,2.00
2,Abisko,2025-03-31T12:48:00,2025-03-31T12:48:00,1.00
2,Abisko,2025-03-31T19:20:00,2025-03-31T19:21:00,2.00
2,Abisko,2025-03-31T20:57:00,2025-03-31T20:58:00,2.00
2,Abisko,2025-04-01T11:10:00,2025-04-01T11:11:00,2.00
2,Abisko,2025-04-01T19:20:00,2025-04-01T19:21:00,2.00
2,Abisko,2025-04-01T20:57:00,2025-04-01T20:57:00,1.00
2,Abisko,2025-04-02T11:09:00,2025-04-02T11:11:00,3.00
2,Abisko,2025-04-02T19:19:00,2025-04-02T19:21:00,3.00
2,Abisko,2025-04-03T11:09:00,2025-04-03T11:11:00,3.00
2,Abisko,2025-04-03T19:19:00,2025-04-03T19:20:00,2.00
2,Abisko,2025-04-04T11:08:00,2025-04-04T11:10:00,3.00
2,Abisko,2025-04-04T19:18:00,2025-04-04T19:20:00,3.00
2,Abisko,2025-04-05T11:08:00,2025-04-05T11:10:00,3.00
2,Abisko,2025-04-05T19:18:00,2025-04-05T19:20:00,3.00
2,Abisko,2025-04-06T11:08:00,2025-04-06T11:10:00,3.00
2,Abisko,2025-04-06T19:18:00,2025-04-06T19:20:00,3.00
2,Abisko,2025-04-07T11:08:00,2025-04-07T11:09:00,2.00
2,Abisko,2025-04-07T19:17:00,2025-04-07T19:19:00,3.00
2,Abisko,2025-04-08T11:07:00,2025-04-08T11:09:00,3.00
2,Abisko,2025-04-08T19:17:00,2025-04-08T19:19:00,3.00
2,Abisko,2025-04-09T09:31:00,2025-04-09T09:31:00,1.00
2,Abisko,2025-04-09T11:07:00,2025-04-09T11:08:00,2.00
2,Abisko,2025-04-09T19:17:00,2025-04-09T19:19:00,3.00
2,Abisko,2025-04-10T09:30:00,2025-04-10T09:31:00,2.00
2,Abisko,2025-04-10T11:07:00,2025-04-10T11:08:00,2.00
2,Abisko,2025-04-10T17:40:00,2025-04-10T17:40:00,1.00
2,Abisko,2025-04-10T19:17:00,2025-04-10T19:18:00,2.00
2,Abisko,2025-04-11T09:29:00,2025-04-11T09:31:00,3.00
2,Abisko,2025-04-11T11:07:00,2025-04-11T11:08:00,2.00
2,Abisko,2025-04-11T17:40:00,2025-04-11T17:40:00,1.00
2,Abisko,2025-04-11T19:17:00,2025-04-11T19:18:00,2.00
2,Abisko,2025-04-12T09:29:00,2025-04-12T09:31:00,3.00
2,Abisko,2025-04-12T11:07:00,2025-04-12T11:07:00,1.00
2,Abisko,2025-04-12T17:39:00,2025-04-12T17:40:00,2.00
2,Abisko,2025-04-12T19:16:00,2025-04-12T19:17:00,2.00
3,Abisko,2025-03-30T11:01:00,2025-03-30T11:02:00,2.00
3,Abisko,2025-03-30T12:38:00,2025-03-30T12:39:00,2.00
3,Abisko,2025-03-30T19:11:00,2025-03-30T19:11:00,1.00
3,Abisko,2025-03-30T20:47:00,2025-03-30T20:49:00,3.00
3,Abisko,2025-03-31T11:01:00,2025-03-31T11:02:00,2.00
3,Abisko,2025-03-31T12:38:00,2025-03-31T12:39:00,2.00
3,Abisko,2025-03-31T19:11:00,2025-03-31T19:11:00,1.00
3,Abisko,2025-03-31T20:47:00,2025-03-31T20:49:00,3.00
3,Abisko,2025-04-01T11:00:00,2025-04-01T11:01:00,2.00
3,Abisko,2025-04-01T12:38:00,2025-04-01T12:38:00,1.00
3,Abisko,2025-04-01T19:10:00,2025-04-01T19:11:00,2.00
3,Abisko,2025-04-01T20:47:00,2025-04-01T20:48:00,2.00
3,Abisko,2025-04-02T11:00:00,2025-04-02T11:01:00,2.00
3,Abisko,2025-04-02T19:10:00,2025-04-02T19:11:00,2.00
3,Abisko,2025-04-02T20:47:00,2025-04-02T20:47:00,1.00
3,Abisko,2025-04-03T10:59:00,2025-04-03T11:01:00,3.00
3,Abisko,2025-04-03T19:09:00,2025-04-03T19:11:00,3.00
3,Abisko,2025-04-03T20:47:00,2025-04-03T20:47:00,1.00
3,Abisko,2025-04-04T10:59:00,2025-04-04T11:01:00,3.00
3,Abisko,2025-04-04T19:09:00,2025-04-04T19:10:00,2.00
3,Abisko,2025-04-05T10:58:00,2025-04-05T11:00:00,3.00
3,Abisko,2025-04-05T19:08:00,2025-04-05T19:10:00,3.00
3,Abisko,2025-04-06T10:58:00,2025-04-06T11:00:00,3.00
3,Abisko,2025-04-06T19:08:00,2025-04-06T19:10:00,3.00
3,Abisko,2025-04-07T10:58:00,2025-04-07T11:00:00,3.00
3,Abisko,2025-04-07T19:08:00,2025-04-07T19:10:00,3.00
3,Abisko,2025-04-08T10:58:00,2025-04-08T10:59:00,2.00
3,Abisko,2025-04-08T19:07:00,2025-04-08T19:09:00,3.00
3,Abisko,2025-04-09T10:57:00,2025-04-09T10:59:00,3.00
3,Abisko,2025-04-09T19:07:00,2025-04-09T19:09:00,3.00
3,Abisko,2025-04-10T09:21:00,2025-04-10T09:21:00,1.00
3,Abisko,2025-04-10T10:57:00,2025-04-10T10:58:00,2.00
3,Abisko,2025-04-10T19:07:00,2025-04-10T19:09:00,3.00
3,Abisko,2025-04-11T09:20:00,2025-04-11T09:21:00,2.00
3,Abisko,2025-04-11T10:57:00,2025-04-11T10:58:00,2.00
3,Abisko,2025-04-11T17:30:00,2025-04-11T17:30:00,1.00
3,Abisko,2025-04-11T19:07:00,2025-04-11T19:08:00,2.00
3,Abisko,2025-04-12T09:19:00,2025-04-12T09:21:00,3.00
3,Abisko,2025-04-12T10:57:00,2025-04-12T10:58:00,2.00
3,Abisko,2025-04-12T17:30:00,2025-04-12T17:30:00,1.00
3,Abisko,2025-04-12T19:06:00,2025-04-12T19:08:00,3.00
4,Abisko,2025-03-30T12:28:00,2025-03-30T12:29:00,2.00
4,Abisko,2025-03-30T20:38:00,2025-03-30T20:39:00,2.00
4,Abisko,2025-03-31T10:51:00,2025-03-31T10:52:00,2.00
4,Abisko,2025-03-31T12:28:00,2025-03-31T12:29:00,2.00
4,Abisko,2025-03-31T19:01:00,2025-03-31T19:01:00,1.00
4,Abisko,2025-03-31T20:37:00,2025-03-31T20:39:00,3.00
4,Abisko,2025-04-01T10:51:00,2025-04-01T10:51:00,1.00
4,Abisko,2025-04-01T12:28:00,2025-04-01T12:29:00,2.00
4,Abisko,2025-04-01T19:01:00,2025-04-01T19:01:00,1.00
4,Abisko,2025-04-01T20:37:00,2025-04-01T20:39:00,3.00
4,Abisko,2025-04-02T10:50:00,2025-04-02T10:51:00,2.00
4,Abisko,2025-04-02T12:28:00,2025-04-02T12:28:00,1.00
4,Abisko,2025-04-02T19:00:00,2025-04-02T19:01:00,2.00
4,Abisko,2025-04-02T20:37:00,2025-04-02T20:38:00,2.00
4,Abisko,2025-04-03T10:50:00,2025-04-03T10:51:00,2.00
4,Abisko,2025-04-03T19:00:00,2025-04-03T19:01:00,2.00
4,Abisko,2025-04-03T20:37:00,2025-04-03T20:37:00,1.00
4,Abisko,2025-04-04T10:49:00,2025-04-04T10:51:00,3.00
4,Abisko,2025-04-04T18:59:00,2025-04-04T19:01:00,3.00
4,Abisko,2025-04-04T20:37:00,2025-04-04T20:37:00,1.00
4,Abisko,2025-04-05T10:49:00,2025-04-05T10:51:00,3.00
4,Abisko,2025-04-05T18:59:00,2025-04-05T19:00:00,2.00
4,Abisko,2025-04-06T10:48:00,2025-04-06T10:50:00,3.00
4,Abisko,2025-04-06T18:58:00,2025-04-06T19:00:00,3.00
4,Abisko,2025-04-07T10:48:00,2025-04-07T10:50:00,3.00
4,Abisko,2025-04-07T18:58:00,2025-04-07T19:00:00,3.00
4,Abisko,2025-04-08T10:48:00,2025-04-08T10:50:00,3.00
4,Abisko,2025-04-08T18:58:00,2025-04-08T19:00:00,3.00
4,Abisko,2025-04-09T10:48:00,2025-04-09T10:49:00,2.00
4,Abisko,2025-04-09T18:57:00,2025-04-09T18:59:00,3.00
4,Abisko,2025-04-10T10:47:00,2025-04-10T10:49:00,3.00
4,Abisko,2025-04-10T18:57:00,2025-04-10T18:59:00,3.00
4,Abisko,2025-04-11T09:11:00,2025-04-11T09:11:00,1.00
4,Abisko,2025-04-11T10:47:00,2025-04-11T10:48:00,2.00
4,Abisko,2025-04-11T18:57:00,2025-04-11T18:59:00,3.00
4,Abisko,2025-04-12T09:10:00,2025-04-12T09:11:00,2.00
4,Abisko,2025-04-12T10:47:00,2025-04-12T10:48:00,2.00
4,Abisko,2025-04-12T17:20:00,2025-04-12T17:20:00,1.00
4,Abisko,2025-04-12T18:57:00,2025-04-12T18:58:00,2.00
5,Abisko,2025-03-30T12:18:00,2025-03-30T12:20:00,3.00
5,Abisko,2025-03-30T20:28:00,2025-03-30T20:30:00,3.00
5,Abisko,2025-03-31T12:18:00,2025-03-31T12:19:00,2.00
5,Abisko,2025-03-31T20:28:00,2025-03-31T20:29:00,2.00
5,Abisko,2025-04-01T10:41:00,2025-04-01T10:41:00,1.00
5,Abisko,2025-04-01T12:18:00,2025-04-01T12:19:00,2.00
5,Abisko,2025-04-01T20:27:00,2025-04-01T20:29:00,3.00
5,Abisko,2025-04-02T10:41:00,2025-04-02T10:41:00,1.00
5,Abisko,2025-04-02T12:18:00,2025-04-02T12:19:00,2.00
5,Abisko,2025-04-02T18:51:00,2025-04-02T18:51:00,1.00
5,Abisko,2025-04-02T20:27:00,2025-04-02T20:29:00,3.00
5,Abisko,2025-04-03T10:40:00,2025-04-03T10:41:00,2.00
5,Abisko,2025-04-03T12:17:00,2025-04-03T12:18:00,2.00
5,Abisko,2025-04-03T18:50:00,2025-04-03T18:51:00,2.00
5,Abisko,2025-04-03T20:27:00,2025-04-03T20:28:00,2.00
5,Abisko,2025-04-04T10:40:00,2025-04-04T10:41:00,2.00
5,Abisko,2025-04-04T18:50:00,2025-04-04T18:51:00,2.00
5,Abisko,2025-04-04T20:27:00,2025-04-04T20:28:00,2.00
5,Abisko,2025-04-05T10:39:00,2025-04-05T10:41:00,3.00
5,Abisko,2025-04-05T18:49:00,2025-04-05T18:51:00,3.00
5,Abisko,2025-04-05T20:27:00,2025-04-05T20:27:00,1.00
5,Abisko,2025-04-06T10:39:00,2025-04-06T10:41:00,3.00
5,Abisko,2025-04-06T18:49:00,2025-04-06T18:50:00,2.00
5,Abisko,2025-04-07T10:38:00,2025-04-07T10:40:00,3.00
5,Abisko,2025-04-07T18:48:00,2025-04-07T18:50:00,3.00
5,Abisko,2025-04-08T10:38:00,2025-04-08T10:40:00,3.00
5,Abisko,2025-04-08T18:48:00,2025-04-08T18:50:00,3.00
5,Abisko,2025-04-09T10:38:00,2025-04-09T10:40:00,3.00
5,Abisko,2025-04-09T18:48:00,2025-04-09T18:50:00,3.00
5,Abisko,2025-04-10T10:37:00,2025-04-10T10:39:00,3.00
5,Abisko,2025-04-10T18:47:00,2025-04-10T18:49:00,3.00
5,Abisko,2025-04-11T10:37:00,2025-04-11T10:39:00,3.00
5,Abisko,2025-04-11T18:47:00,2025-04-11T18:49:00,3.00
5,Abisko,2025-04-12T09:01:00,2025-04-12T09:01:00,1.00
5,Abisko,2025-04-12T10:37:00,2025-04-12T10:38:00,2.00
5,Abisko,2025-04-12T18:47:00,2025-04-12T18:49:00,3.00
6,Abisko,2025-03-30T12:08:00,2025-03-30T12:10:00,3.00
6,Abisko,2025-03-30T20:18:00,2025-03-30T20:20:00,3.00
6,Abisko,2025-03-31T12:08:00,2025-03-31T12:10:00,3.00
6,Abisko,2025-03-31T20:18:00,2025-03-31T20:20:00,3.00
6,Abisko,2025-04-01T12:08:00,2025-04-01T12:09:00,2.00
6,Abisko,2025-04-01T20:18:00,2025-04-01T20:19:00,2.00
6,Abisko,2025-04-02T10:31:00,2025-04-02T10:31:00,1.00
6,Abisko,2025-04-02T12:08:00,2025-04-02T12:09:00,2.00
6,Abisko,2025-04-02T20:17:00,2025-04-02T20:19:00,3.00
6,Abisko,2025-04-03T10:31:00,2025-04-03T10:31:00,1.00
6,Abisko,2025-04-03T12:07:00,2025-04-03T12:09:00,3.00
6,Abisko,2025-04-03T18:41:00,2025-04-03T18:41:00,1.00
6,Abisko,2025-04-03T20:17:00,2025-04-03T20:19:00,3.00
6,Abisko,2025-04-04T10:30:00,2025-04-04T10:31:00,2.00
6,Abisko,2025-04-04T12:07:00,2025-04-04T12:08:00,2.00
6,Abisko,2025-04-04T18:40:00,2025-04-04T18:41:00,2.00
6,Abisko,2025-04-04T20:17:00,2025-04-04T20:18:00,2.00
6,Abisko,2025-04-05T10:29:00,2025-04-05T10:31:00,3.00
6,Abisko,2025-04-05T12:07:00,2025-04-05T12:07:00,1.00
6,Abisko,2025-04-05T18:40:00,2025-04-05T18:41:00,2.00
6,Abisko,2025-04-05T20:17:00,2025-04-05T20:18:00,2.00
6,Abisko,2025-04-06T10:29:00,2025-04-06T10:31:00,3.00
6,Abisko,2025-04-06T18:39:00,2025-04-06T18:41:00,3.00
6,Abisko,2025-04-06T20:17:00,2025-04-06T20:17:00,1.00
6,Abisko,2025-04-07T10:29:00,2025-04-07T10:30:00,2.00
6,Abisko,2025-04-07T18:39:00,2025-04-07T18:40:00,2.00
6,Abisko,2025-04-08T10:28:00,2025-04-08T10:30:00,3.00
6,Abisko,2025-04-08T18:38:00,2025-04-08T18:40:00,3.00
6,Abisko,2025-04-09T10:28:00,2025-04-09T10:30:00,3.00
6,Abisko,2025-04-09T18:38:00,2025-04-09T18:40:00,3.00
6,Abisko,2025-04-10T10:28:00,2025-04-10T10:30:00,3.00
6,Abisko,2025-04-10T18:38:00,2025-04-10T18:40:00,3.00
6,Abisko,2025-04-11T10:27:00,2025-04-11T10:29:00,3.00
6,Abisko,2025-04-11T18:37:00,2025-04-11T18:39:00,3.00
6,Abisko,2025-04-12T10:27:00,2025-04-12T10:29:00,3.00
6,Abisko,2025-04-12T18:37:00,2025-04-12T18:39:00,3.00
7,Abisko,2025-03-30T11:59:00,2025-03-30T12:00:00,2.00
7,Abisko,2025-03-30T20:09:00,2025-03-30T20:10:00,2.00
7,Abisko,2025-03-31T11:58:00,2025-03-31T12:00:00,3.00
7,Abisko,2025-03-31T20:08:00,2025-03-31T20:10:00,3.00
7,Abisko,2025-04-01T11:58:00,2025-04-01T12:00:00,3.00
7,Abisko,2025-04-01T20:08:00,2025-04-01T20:10:00,3.00
7,Abisko,2025-04-02T11:58:00,2025-04-02T11:59:00,2.00
7,Abisko,2025-04-02T20:08:00,2025-04-02T20:09:00,2.00
7,Abisko,2025-04-03T10:21:00,2025-04-03T10:21:00,1.00
7,Abisko,2025-04-03T11:58:00,2025-04-03T11:59:00,2.00
7,Abisko,2025-04-03T20:07:00,2025-04-03T20:09:00,3.00
7,Abisko,2025-04-04T10:21:00,2025-04-04T10:21:00,1.00
7,Abisko,2025-04-04T11:57:00,2025-04-04T11:59:00,3.00
7,Abisko,2025-04-04T18:31:00,2025-04-04T18:31:00,1.00
7,Abisko,2025-04-04T20:07:00,2025-04-04T20:09:00,3.00
7,Abisko,2025-04-05T10:20:00,2025-04-05T10:21:00,2.00
7,Abisko,2025-04-05T11:57:00,2025-04-05T11:58:00,2.00
7,Abisko,2025-04-05T18:30:00,2025-04-05T18:31:00,2.00
7,Abisko,2025-04-05T20:07:00,2025-04-05T20:08:00,2.00
7,Abisko,2025-04-06T10:19:00,2025-04-06T10:21:00,3.00
7,Abisko,2025-04-06T11:57:00,2025-04-06T11:57:00,1.00
7,Abisko,2025-04-06T18:30:00,2025-04-06T18:31:00,2.00
7,Abisko,2025-04-06T20:07:00,2025-04-06T20:08:00,2.00
7,Abisko,2025-04-07T10:19:00,2025-04-07T10:21:00,3.00
7,Abisko,2025-04-07T18:29:00,2025-04-07T18:30:00,2.00
7,Abisko,2025-04-07T20:07:00,2025-04-07T20:07:00,1.00
7,Abisko,2025-04-08T10:19:00,2025-04-08T10:20:00,2.00
7,Abisko,2025-04-08T18:29:00,2025-04-08T18:30:00,2.00
7,Abisko,2025-04-09T10:18:00,2025-04-09T10:20:00,3.00
7,Abisko,2025-04-09T18:28:00,2025-04-09T18:30:00,3.00
7,Abisko,2025-04-10T10:18:00,2025-04-10T10:20:00,3.00
7,Abisko,2025-04-10T18:28:00,2025-04-10T18:30:00,3.00
7,Abisko,2025-04-11T10:18:00,2025-04-11T10:20:00,3.00
7,Abisko,2025-04-11T18:28:00,2025-04-11T18:30:00,3.00
7,Abisko,2025-04-12T10:17:00,2025-04-12T10:19:00,3.00
7,Abisko,2025-04-12T18:27:00,2025-04-12T18:29:00,3.00
8,Abisko,2025-03-30T11:49:00,2025-03-30T11:51:00,3.00
8,Abisko,2025-03-30T19:59:00,2025-03-30T20:01:00,3.00
8,Abisko,2025-03-31T11:49:00,2025-03-31T11:50:00,2.00
8,Abisko,2025-03-31T19:59:00,2025-03-31T20:00:00,2.00
8,Abisko,2025-04-01T11:48:00,2025-04-01T11:50:00,3.00
8,Abisko,2025-04-01T19:58:00,2025-04-01T20:00:00,3.00
8,Abisko,2025-04-02T11:48:00,2025-04-02T11:50:00,3.00
8,Abisko,2025-04-02T19:58:00,2025-04-02T20:00:00,3.00
8,Abisko,2025-04-03T11:48:00,2025-04-03T11:49:00,2.00
8,Abisko,2025-04-03T19:58:00,2025-04-03T19:59:00,2.00
8,Abisko,2025-04-04T10:11:00,2025-04-04T10:11:00,1.00
8,Abisko,2025-04-04T11:48:00,2025-04-04T11:49:00,2.00
8,Abisko,2025-04-04T19:57:00,2025-04-04T19:59:00,3.00
8,Abisko,2025-04-05T10:11:00,2025-04-05T10:11:00,1.00
8,Abisko,2025-04-05T11:47:00,2025-04-05T11:49:00,3.00
8,Abisko,2025-04-05T18:21:00,2025-04-05T18:21:00,1.00
8,Abisko,2025-04-05T19:57:00,2025-04-05T19:59:00,3.00
8,Abisko,2025-04-06T10:10:00,2025-04-06T10:11:00,2.00
8,Abisko,2025-04-06T11:47:00,2025-04-06T11:48:00,2.00
8,Abisko,2025-04-06T18:20:00,2025-04-06T18:21:00,2.00
8,Abisko,2025-04-06T19:57:00,2025-04-06T19:58:00,2.00
8,Abisko,2025-04-07T10:09:00,2025-04-07T10:11:00,3.00
8,Abisko,2025-04-07T11:47:00,2025-04-07T11:47:00,1.00
8,Abisko,2025-04-07T18:20:00,2025-04-07T18:21:00,2.00
8,Abisko,2025-04-07T19:57:00,2025-04-07T19:58:00,2.00
8,Abisko,2025-04-08T10:09:00,2025-04-08T10:11:00,3.00
8,Abisko,2025-04-08T18:19:00,2025-04-08T18:20:00,2.00
8,Abisko,2025-04-08T19:57:00,2025-04-08T19:57:00,1.00
8,Abisko,2025-04-09T10:09:00,2025-04-09T10:10:00,2.00
8,Abisko,2025-04-09T18:19:00,2025-04-09T18:20:00,2.00
8,Abisko,2025-04-10T10:08:00,2025-04-10T10:10:00,3.00
8,Abisko,2025-04-10T18:18:00,2025-04-10T18:20:00,3.00
8,Abisko,2025-04-11T10:08:00,2025-04-11T10:10:00,3.00
8,Abisko,2025-04-11T18:18:00,2025-04-11T18:20:00,3.00
8,Abisko,2025-04-12T10:08:00,2025-04-12T10:09:00,2.00
8,Abisko,2025-04-12T18:18:00,2025-04-12T18:20:00,3.00
9,Abisko,2025-03-30T11:39:00,2025-03-30T11:41:00,3.00
9,Abisko,2025-03-30T19:49:00,2025-03-30T19:51:00,3.00
9,Abisko,2025-03-31T11:39:00,2025-03-31T11:41:00,3.00
9,Abisko,2025-03-31T19:49:00,2025-03-31T19:51:00,3.00
9,Abisko,2025-04-01T11:38:00,2025-04-01T11:40:00,3.00
9,Abisko,2025-04-01T19:49:00,2025-04-01T19:50:00,2.00
9,Abisko,2025-04-02T11:38:00,2025-04-02T11:40:00,3.00
9,Abisko,2025-04-02T19:48:00,2025-04-02T19:50:00,3.00
9,Abisko,2025-04-03T11:38:00,2025-04-03T11:40:00,3.00
9,Abisko,2025-04-03T19:48:00,2025-04-03T19:50:00,3.00
9,Abisko,2025-04-04T11:38:00,2025-04-04T11:39:00,2.00
9,Abisko,2025-04-04T19:48:00,2025-04-04T19:49:00,2.00
9,Abisko,2025-04-05T10:01:00,2025-04-05T10:01:00,1.00
9,Abisko,2025-04-05T11:38:00,2025-04-05T11:39:00,2.00
9,Abisko,2025-04-05T19:47:00,2025-04-05T19:49:00,3.00
9,Abisko,2025-04-06T10:01:00,2025-04-06T10:01:00,1.00
9,Abisko,2025-04-06T11:37:00,2025-04-06T11:39:00,3.00
9,Abisko,2025-04-06T18:11:00,2025-04-06T18:11:00,1.00
9,Abisko,2025-04-06T19:47:00,2025-04-06T19:49:00,3.00
9,Abisko,2025-04-07T10:00:00,2025-04-07T10:01:00,2.00
9,Abisko,2025-04-07T11:37:00,2025-04-07T11:38:00,2.00
9,Abisko,2025-04-07T18:10:00,2025-04-07T18:11:00,2.00
9,Abisko,2025-04-07T19:47:00,2025-04-07T19:48:00,2.00
9,Abisko,2025-04-08T09:59:00,2025-04-08T10:01:00,3.00
9,Abisko,2025-04-08T11:37:00,2025-04-08T11:38:00,2.00
9,Abisko,2025-04-08T18:10:00,2025-04-08T18:11:00,2.00
9,Abisko,2025-04-08T19:47:00,2025-04-08T19:48:00,2.00
9,Abisko,2025-04-09T09:59:00,2025-04-09T10:01:00,3.00
9,Abisko,2025-04-09T18:09:00,2025-04-09T18:10:00,2.00
9,Abisko,2025-04-09T19:47:00,2025-04-09T19:47:00,1.00
9,Abisko,2025-04-10T09:59:00,2025-04-10T10:00:00,2.00
9,Abisko,2025-04-10T18:09:00,2025-04-10T18:10:00,2.00
9,Abisko,2025-04-11T09:58:00,2025-04-11T10:00:00,3.00
9,Abisko,2025-04-11T18:08:00,2025-04-11T18:10:00,3.00
9,Abisko,2025-04-12T09:58:00,2025-04-12T10:00:00,3.00
9,Abisko,2025-04-12T18:08:00,2025-04-12T18:10:00,3.00
10,Abisko,2025-03-30T13:05:00,2025-03-30T13:07:00,3.00
10,Abisko,2025-03-30T21:15:00,2025-03-30T21:17:00,3.00
10,Abisko,2025-03-31T13:05:00,2025-03-31T13:07:00,3.00
10,Abisko,2025-03-31T21:15:00,2025-03-31T21:17:00,3.00
10,Abisko,2025-04-01T13:05:00,2025-04-01T13:06:00,2.00
10,Abisko,2025-04-01T21:15:00,2025-04-01T21:16:00,2.00
10,Abisko,2025-04-02T13:04:00,2025-04-02T13:06:00,3.00
10,Abisko,2025-04-02T21:14:00,2025-04-02T21:16:00,3.00
10,Abisko,2025-04-03T13:04:00,2025-04-03T13:06:00,3.00
10,Abisko,2025-04-03T21:14:00,2025-04-03T21:16:00,3.00
10,Abisko,2025-04-04T11:27:00,2025-04-04T11:28:00,2.00
10,Abisko,2025-04-04T13:04:00,2025-04-04T13:05:00,2.00
10,Abisko,2025-04-04T21:14:00,2025-04-04T21:15:00,2.00
10,Abisko,2025-04-05T11:27:00,2025-04-05T11:28:00,2.00
10,Abisko,2025-04-05T13:04:00,2025-04-05T13:05:00,2.00
10,Abisko,2025-04-05T19:37:00,2025-04-05T19:37:00,1.00
10,Abisko,2025-04-05T21:13:00,2025-04-05T21:15:00,3.00
10,Abisko,2025-04-06T11:26:00,2025-04-06T11:28:00,3.00
10,Abisko,2025-04-06T13:04:00,2025-04-06T13:04:00,1.00
10,Abisko,2025-04-06T19:36:00,2025-04-06T19:37:00,2.00
10,Abisko,2025-04-06T21:13:00,2025-04-06T21:14:00,2.00
10,Abisko,2025-04-07T11:26:00,2025-04-07T11:27:00,2.00
10,Abisko,2025-04-07T13:04:00,2025-04-07T13:04:00,1.00
10,Abisko,2025-04-07T19:36:00,2025-04-07T19:37:00,2.00
10,Abisko,2025-04-07T21:13:00,2025-04-07T21:14:00,2.00
10,Abisko,2025-04-08T11:25:00,2025-04-08T11:27:00,3.00
10,Abisko,2025-04-08T19:35:00,2025-04-08T19:37:00,3.00
10,Abisko,2025-04-08T21:13:00,2025-04-08T21:13:00,1.00
10,Abisko,2025-04-09T11:25:00,2025-04-09T11:27:00,3.00
10,Abisko,2025-04-09T19:35:00,2025-04-09T19:37:00,3.00
10,Abisko,2025-04-10T11:25:00,2025-04-10T11:27:00,3.00
10,Abisko,2025-04-10T19:35:00,2025-04-10T19:36:00,2.00
10,Abisko,2025-04-11T11:24:00,2025-04-11T11:26:00,3.00
10,Abisko,2025-04-11T19:34:00,2025-04-11T19:36:00,3.00
10,Abisko,2025-04-12T11:24:00,2025-04-12T11:26:00,3.00
10,Abisko,2025-04-12T19:34:00,2025-04-12T19:36:00,3.00
11,Abisko,2025-03-30T12:55:00,2025-03-30T12:57:00,3.00
11,Abisko,2025-03-30T21:06:00,2025-03-30T21:07:00,2.00
11,Abisko,2025-03-31T12:55:00,2025-03-31T12:57:00,3.00
11,Abisko,2025-03-31T21:05:00,2025-03-31T21:07:00,3.00
11,Abisko,2025-04-01T12:55:00,2025-04-01T12:57:00,3.00
11,Abisko,2025-04-01T21:05:00,2025-04-01T21:07:00,3.00
11,Abisko,2025-04-02T12:55:00,2025-04-02T12:56:00,2.00
11,Abisko,2025-04-02T21:05:00,2025-04-02T21:06:00,2.00
11,Abisko,2025-04-03T12:54:00,2025-04-03T12:56:00,3.00
11,Abisko,2025-04-03T21:04:00,2025-04-03T21:06:00,3.00
11,Abisko,2025-04-04T12:54:00,2025-04-04T12:56:00,3.00
11,Abisko,2025-04-04T21:04:00,2025-04-04T21:06:00,3.00
11,Abisko,2025-04-05T11:17:00,2025-04-05T11:18:00,2.00
11,Abisko,2025-04-05T12:54:00,2025-04-05T12:55:00,2.00
11,Abisko,2025-04-05T21:04:00,2025-04-05T21:05:00,2.00
11,Abisko,2025-04-06T11:17:00,2025-04-06T11:18:00,2.00
11,Abisko,2025-04-06T12:54:00,2025-04-06T12:55:00,2.00
11,Abisko,2025-04-06T19:27:00,2025-04-06T19:27:00,1.00
11,Abisko,2025-04-06T21:03:00,2025-04-06T21:05:00,3.00
11,Abisko,2025-04-07T11:16:00,2025-04-07T11:18:00,3.00
11,Abisko,2025-04-07T12:54:00,2025-04-07T12:54:00,1.00
11,Abisko,2025-04-07T19:26:00,2025-04-07T19:27:00,2.00
11,Abisko,2025-04-07T21:03:00,2025-04-07T21:04:00,2.00
11,Abisko,2025-04-08T11:16:00,2025-04-08T11:17:00,2.00
11,Abisko,2025-04-08T12:54:00,2025-04-08T12:54:00,1.00
11,Abisko,2025-04-08T19:26:00,2025-04-08T19:27:00,2.00
11,Abisko,2025-04-08T21:03:00,2025-04-08T21:04:00,2.00
11,Abisko,2025-04-09T11:15:00,2025-04-09T11:17:00,3.00
11,Abisko,2025-04-09T19:25:00,2025-04-09T19:27:00,3.00
11,Abisko,2025-04-09T21:03:00,2025-04-09T21:03:00,1.00
11,Abisko,2025-04-10T11:15:00,2025-04-10T11:17:00,3.00
11,Abisko,2025-04-10T19:25:00,2025-04-10T19:27:00,3.00
11,Abisko,2025-04-11T11:15:00,2025-04-11T11:16:00,2.00
11,Abisko,2025-04-11T19:25:00,2025-04-11T19:26:00,2.00
11,Abisko,2025-04-12T11:14:00,2025-04-12T11:16:00,3.00
11,Abisko,2025-04-12T19:24:00,2025-04-12T19:26:00,3.00
12,Abisko,2025-03-30T12:46:00,2025-03-30T12:48:00,3.00
12,Abisko,2025-03-30T20:56:00,2025-03-30T20:57:00,2.00
12,Abisko,2025-03-31T12:45:00,2025-03-31T12:47:00,3.00
12,Abisko,2025-03-31T20:56:00,2025-03-31T20:57:00,2.00
12,Abisko,2025-04-01T12:45:00,2025-04-01T12:47:00,3.00
12,Abisko,2025-04-01T20:55:00,2025-04-01T20:57:00,3.00
12,Abisko,2025-04-02T12:45:00,2025-04-02T12:47:00,3.00
12,Abisko,2025-04-02T20:55:00,2025-04-02T20:57:00,3.00
12,Abisko,2025-04-03T12:45:00,2025-04-03T12:46:00,2.00
12,Abisko,2025-04-03T20:55:00,2025-04-03T20:56:00,2.00
12,Abisko,2025-04-04T12:44:00,2025-04-04T12:46:00,3.00
12,Abisko,2025-04-04T20:54:00,2025-04-04T20:56:00,3.00
12,Abisko,2025-04-05T12:44:00,2025-04-05T12:46:00,3.00
12,Abisko,2025-04-05T20:54:00,2025-04-05T20:56:00,3.00
12,Abisko,2025-04-06T11:07:00,2025-04-06T11:08:00,2.00
12,Abisko,2025-04-06T12:44:00,2025-04-06T12:45:00,2.00
12,Abisko,2025-04-06T20:54:00,2025-04-06T20:55:00,2.00
12,Abisko,2025-04-07T11:07:00,2025-04-07T11:08:00,2.00
12,Abisko,2025-04-07T12:44:00,2025-04-07T12:45:00,2.00
12,Abisko,2025-04-07T19:17:00,2025-04-07T19:17:00,1.00
12,Abisko,2025-04-07T20:53:00,2025-04-07T20:55:00,3.00
12,Abisko,2025-04-08T11:06:00,2025-04-08T11:07:00,2.00
12,Abisko,2025-04-08T12:44:00,2025-04-08T12:44:00,1.00
12,Abisko,2025-04-08T19:16:00,2025-04-08T19:17:00,2.00
12,Abisko,2025-04-08T20:53:00,2025-04-08T20:54:00,2.00
12,Abisko,2025-04-09T11:06:00,2025-04-09T11:07:00,2.00
12,Abisko,2025-04-09T12:44:00,2025-04-09T12:44:00,1.00
12,Abisko,2025-04-09T19:16:00,2025-04-09T19:17:00,2.00
12,Abisko,2025-04-09T20:53:00,2025-04-09T20:54:00,2.00
12,Abisko,2025-04-10T11:05:00,2025-04-10T11:07:00,3.00
12,Abisko,2025-04-10T19:15:00,2025-04-10T19:17:00,3.00
12,Abisko,2025-04-10T20:53:00,2025-04-10T20:53:00,1.00
12,Abisko,2025-04-11T11:05:00,2025-04-11T11:07:00,3.00
12,Abisko,2025-04-11T19:15:00,2025-04-11T19:17:00,3.00
12,Abisko,2025-04-12T11:05:00,2025-04-12T11:06:00,2.00
12,Abisko,2025-04-12T19:15:00,2025-04-12T19:16:00,2.00
13,Abisko,2025-03-30T12:36:00,2025-03-30T12:38:00,3.00
13,Abisko,2025-03-30T14:14:00,2025-03-30T14:14:00,1.00
13,Abisko,2025-03-30T20:46:00,2025-03-30T20:47:00,2.00
13,Abisko,2025-03-30T22:24:00,2025-03-30T22:24:00,1.00
13,Abisko,2025-03-31T12:36:00,2025-03-31T12:38:00,3.00
13,Abisko,2025-03-31T20:46:00,2025-03-31T20:47:00,2.00
13,Abisko,2025-04-01T12:35:00,2025-04-01T12:37:00,3.00
13,Abisko,2025-04-01T20:46:00,2025-04-01T20:47:00,2.00
13,Abisko,2025-04-02T12:35:00,2025-04-02T12:37:00,3.00
13,Abisko,2025-04-02T20:45:00,2025-04-02T20:47:00,3.00
13,Abisko,2025-04-03T12:35:00,2025-04-03T12:37:00,3.00
13,Abisko,2025-04-03T20:45:00,2025-04-03T20:47:00,3.00
13,Abisko,2025-04-04T12:35:00,2025-04-04T12:36:00,2.00
13,Abisko,2025-04-04T20:44:00,2025-04-04T20:46:00,3.00
13,Abisko,2025-04-05T12:34:00,2025-04-05T12:36:00,3.00
13,Abisko,2025-04-05T20:44:00,2025-04-05T20:46:00,3.00
13,Abisko,2025-04-06T12:34:00,2025-04-06T12:36:00,3.00
13,Abisko,2025-04-06T20:44:00,2025-04-06T20:46:00,3.00
13,Abisko,2025-04-07T10:57:00,2025-04-07T10:58:00,2.00
13,Abisko,2025-04-07T12:34:00,2025-04-07T12:35:00,2.00
13,Abisko,2025-04-07T20:44:00,2025-04-07T20:45:00,2.00
13,Abisko,2025-04-08T10:57:00,2025-04-08T10:58:00,2.00
13,Abisko,2025-04-08T12:34:00,2025-04-08T12:35:00,2.00
13,Abisko,2025-04-08T19:07:00,2025-04-08T19:07:00,1.00
13,Abisko,2025-04-08T20:43:00,2025-04-08T20:45:00,3.00
13,Abisko,2025-04-09T10:56:00,2025-04-09T10:57:00,2.00
13,Abisko,2025-04-09T12:34:00,2025-04-09T12:34:00,1.00
13,Abisko,2025-04-09T19:06:00,2025-04-09T19:07:00,2.00
13,Abisko,2025-04-09T20:43:00,2025-04-09T20:44:00,2.00
13,Abisko,2025-04-10T10:56:00,2025-04-10T10:57:00,2.00
13,Abisko,2025-04-10T12:34:00,2025-04-10T12:34:00,1.00
13,Abisko,2025-04-10T19:06:00,2025-04-10T19:07:00,2.00
13,Abisko,2025-04-10T20:43:00,2025-04-10T20:44:00,2.00
13,Abisko,2025-04-11T10:55:00,2025-04-11T10:57:00,3.00
13,Abisko,2025-04-11T19:05:00,2025-04-11T19:07:00,3.00
13,Abisko,2025-04-11T20:43:00,2025-04-11T20:43:00,1.00
13,Abisko,2025-04-12T10:55:00,2025-04-12T10:57:00,3.00
13,Abisko,2025-04-12T19:05:00,2025-04-12T19:07:00,3.00
14,Abisko,2025-03-30T12:27:00,2025-03-30T12:28:00,2.00
14,Abisko,2025-03-30T14:04:00,2025-03-30T14:05:00,2.00
14,Abisko,2025-03-30T20:37:00,2025-03-30T20:38:00,2.00
14,Abisko,2025-03-30T22:14:00,2025-03-30T22:15:00,2.00
14,Abisko,2025-03-31T12:26:00,2025-03-31T12:28:00,3.00
14,Abisko,2025-03-31T14:04:00,2025-03-31T14:04:00,1.00
14,Abisko,2025-03-31T20:36:00,2025-03-31T20:37:00,2.00
14,Abisko,2025-03-31T22:14:00,2025-03-31T22:14:00,1.00
14,Abisko,2025-04-01T12:26:00,2025-04-01T12:28:00,3.00
14,Abisko,2025-04-01T20:36:00,2025-04-01T20:37:00,2.00
14,Abisko,2025-04-01T22:14:00,2025-04-01T22:14:00,1.00
14,Abisko,2025-04-02T12:25:00,2025-04-02T12:27:00,3.00
14,Abisko,2025-04-02T20:36:00,2025-04-02T20:37:00,2.00
14,Abisko,2025-04-03T12:25:00,2025-04-03T12:27:00,3.00
14,Abisko,2025-04-03T20:35:00,2025-04-03T20:37:00,3.00
14,Abisko,2025-04-04T12:25:00,2025-04-04T12:27:00,3.00
14,Abisko,2025-04-04T20:35:00,2025-04-04T20:37:00,3.00
14,Abisko,2025-04-05T12:24:00,2025-04-05T12:26:00,3.00
14,Abisko,2025-04-05T20:34:00,2025-04-05T20:36:00,3.00
14,Abisko,2025-04-06T12:24:00,2025-04-06T12:26:00,3.00
14,Abisko,2025-04-06T20:34:00,2025-04-06T20:36:00,3.00
14,Abisko,2025-04-07T12:24:00,2025-04-07T12:26:00,3.00
14,Abisko,2025-04-07T20:34:00,2025-04-07T20:36:00,3.00
14,Abisko,2025-04-08T10:48:00,2025-04-08T10:48:00,1.00
14,Abisko,2025-04-08T12:24:00,2025-04-08T12:25:00,2.00
14,Abisko,2025-04-08T20:34:00,2025-04-08T20:35:00,2.00
14,Abisko,2025-04-09T10:47:00,2025-04-09T10:48:00,2.00
14,Abisko,2025-04-09T12:24:00,2025-04-09T12:25:00,2.00
14,Abisko,2025-04-09T18:57:00,2025-04-09T18:57:00,1.00
14,Abisko,2025-04-09T20:33:00,2025-04-09T20:35:00,3.00
14,Abisko,2025-04-10T10:46:00,2025-04-10T10:47:00,2.00
14,Abisko,2025-04-10T12:24:00,2025-04-10T12:24:00,1.00
14,Abisko,2025-04-10T18:56:00,2025-04-10T18:57:00,2.00
14,Abisko,2025-04-10T20:33:00,2025-04-10T20:34:00,2.00
14,Abisko,2025-04-11T10:46:00,2025-04-11T10:47:00,2.00
14,Abisko,2025-04-11T12:24:00,2025-04-11T12:24:00,1.00
14,Abisko,2025-04-11T18:56:00,2025-04-11T18:57:00,2.00
14,Abisko,2025-04-11T20:33:00,2025-04-11T20:34:00,2.00
14,Abisko,2025-04-12T10:45:00,2025-04-12T10:47:00,3.00
14,Abisko,2025-04-12T18:55:00,2025-04-12T18:57:00,3.00
14,Abisko,2025-04-12T20:33:00,2025-04-12T20:33:00,1.00
15,Abisko,2025-03-30T12:17:00,2025-03-30T12:18:00,2.00
15,Abisko,2025-03-30T13:54:00,2025-03-30T13:55:00,2.00
15,Abisko,2025-03-30T20:27:00,2025-03-30T20:27:00,1.00
15,Abisko,2025-03-30T22:04:00,2025-03-30T22:05:00,2.00
15,Abisko,2025-03-31T12:17:00,2025-03-31T12:18:00,2.00
15,Abisko,2025-03-31T13:54:00,2025-03-31T13:55:00,2.00
15,Abisko,2025-03-31T20:27:00,2025-03-31T20:27:00,1.00
15,Abisko,2025-03-31T22:04:00,2025-03-31T22:05:00,2.00
15,Abisko,2025-04-01T12:16:00,2025-04-01T12:18:00,3.00
15,Abisko,2025-04-01T13:54:00,2025-04-01T13:54:00,1.00
15,Abisko,2025-04-01T20:26:00,2025-04-01T20:27:00,2.00
15,Abisko,2025-04-01T22:04:00,2025-04-01T22:04:00,1.00
15,Abisko,2025-04-02T12:16:00,2025-04-02T12:18:00,3.00
15,Abisko,2025-04-02T20:26:00,2025-04-02T20:27:00,2.00
15,Abisko,2025-04-02T22:04:00,2025-04-02T22:04:00,1.00
15,Abisko,2025-04-03T12:15:00,2025-04-03T12:17:00,3.00
15,Abisko,2025-04-03T20:25:00,2025-04-03T20:27:00,3.00
15,Abisko,2025-04-04T12:15:00,2025-04-04T12:17:00,3.00
15,Abisko,2025-04-04T20:25:00,2025-04-04T20:27:00,3.00
15,Abisko,2025-04-05T12:15:00,2025-04-05T12:17:00,3.00
15,Abisko,2025-04-05T20:25:00,2025-04-05T20:27:00,3.00
15,Abisko,2025-04-06T12:14:00,2025-04-06T12:16:00,3.00
15,Abisko,2025-04-06T20:24:00,2025-04-06T20:26:00,3.00
15,Abisko,2025-04-07T12:14:00,2025-04-07T12:16:00,3.00
15,Abisko,2025-04-07T20:24:00,2025-04-07T20:26:00,3.00
15,Abisko,2025-04-08T12:14:00,2025-04-08T12:16:00,3.00
15,Abisko,2025-04-08T20:24:00,2025-04-08T20:26:00,3.00
15,Abisko,2025-04-09T12:14:00,2025-04-09T12:15:00,2.00
15,Abisko,2025-04-09T20:24:00,2025-04-09T20:25:00,2.00
15,Abisko,2025-04-10T10:37:00,2025-04-10T10:38:00,2.00
15,Abisko,2025-04-10T12:14:00,2025-04-10T12:15:00,2.00
15,Abisko,2025-04-10T18:47:00,2025-04-10T18:47:00,1.00
15,Abisko,2025-04-10T20:23:00,2025-04-10T20:25:00,3.00
15,Abisko,2025-04-11T10:36:00,2025-04-11T10:37:00,2.00
15,Abisko,2025-04-11T12:14:00,2025-04-11T12:14:00,1.00
15,Abisko,2025-04-11T18:46:00,2025-04-11T18:47:00,2.00
15,Abisko,2025-04-11T20:23:00,2025-04-11T20:24:00,2.00
15,Abisko,2025-04-12T10:36:00,2025-04-12T10:37:00,2.00
15,Abisko,2025-04-12T12:14:00,2025-04-12T12:14:00,1.00
15,Abisko,2025-04-12T18:46:00,2025-04-12T18:47:00,2.00
15,Abisko,2025-04-12T20:23:00,2025-04-12T20:24:00,2.00
16,Abisko,2025-03-30T12:08:00,2025-03-30T12:08:00,1.00
16,Abisko,2025-03-30T13:44:00,2025-03-30T13:46:00,3.00
16,Abisko,2025-03-30T21:54:00,2025-03-30T21:56:00,3.00
16,Abisko,2025-03-31T12:07:00,2025-03-31T12:08:00,2.00
16,Abisko,2025-03-31T13:44:00,2025-03-31T13:45:00,2.00
16,Abisko,2025-03-31T20:17:00,2025-03-31T20:17:00,1.00
16,Abisko,2025-03-31T21:54:00,2025-03-31T21:55:00,2.00
16,Abisko,2025-04-01T12:07:00,2025-04-01T12:08:00,2.00
16,Abisko,2025-04-01T13:44:00,2025-04-01T13:45:00,2.00
16,Abisko,2025-04-01T20:17:00,2025-04-01T20:17:00,1.00
16,Abisko,2025-04-01T21:54:00,2025-04-01T21:55:00,2.00
16,Abisko,2025-04-02T12:06:00,2025-04-02T12:08:00,3.00
16,Abisko,2025-04-02T13:44:00,2025-04-02T13:44:00,1.00
16,Abisko,2025-04-02T20:16:00,2025-04-02T20:17:00,2.00
16,Abisko,2025-04-02T21:53:00,2025-04-02T21:54:00,2.00
16,Abisko,2025-04-03T12:06:00,2025-04-03T12:07:00,2.00
16,Abisko,2025-04-03T20:16:00,2025-04-03T20:17:00,2.00
16,Abisko,2025-04-03T21:53:00,2025-04-03T21:54:00,2.00
16,Abisko,2025-04-04T12:05:00,2025-04-04T12:07:00,3.00
16,Abisko,2025-04-04T20:15:00,2025-04-04T20:17:00,3.00
16,Abisko,2025-04-05T12:05:00,2025-04-05T12:07:00,3.00
16,Abisko,2025-04-05T20:15:00,2025-04-05T20:17:00,3.00
16,Abisko,2025-04-06T12:05:00,2025-04-06T12:07:00,3.00
16,Abisko,2025-04-06T20:15:00,2025-04-06T20:17:00,3.00
16,Abisko,2025-04-07T12:04:00,2025-04-07T12:06:00,3.00
16,Abisko,2025-04-07T20:14:00,2025-04-07T20:16:00,3.00
16,Abisko,2025-04-08T12:04:00,2025-04-08T12:06:00,3.00
16,Abisko,2025-04-08T20:14:00,2025-04-08T20:16:00,3.00
16,Abisko,2025-04-09T12:04:00,2025-04-09T12:06:00,3.00
16,Abisko,2025-04-09T20:14:00,2025-04-09T20:16:00,3.00
16,Abisko,2025-04-10T12:04:00,2025-04-10T12:05:00,2.00
16,Abisko,2025-04-10T20:14:00,2025-04-10T20:15:00,2.00
16,Abisko,2025-04-11T10:27:00,2025-04-11T10:27:00,1.00
16,Abisko,2025-04-11T12:04:00,2025-04-11T12:05:00,2.00
16,Abisko,2025-04-11T18:37:00,2025-04-11T18:37:00,1.00
16,Abisko,2025-04-11T20:13:00,2025-04-11T20:15:00,3.00
16,Abisko,2025-04-12T10:26:00,2025-04-12T10:27:00,2.00
16,Abisko,2025-04-12T12:03:00,2025-04-12T12:04:00,2.00
16,Abisko,2025-04-12T18:36:00,2025-04-12T18:37:00,2.00
16,Abisko,2025-04-12T20:13:00,2025-04-12T20:14:00,2.00
17,Abisko,2025-03-30T13:34:00,2025-03-30T13:36:00,3.00
17,Abisko,2025-03-30T21:44:00,2025-03-30T21:46:00,3.00
17,Abisko,2025-03-31T11:58:00,2025-03-31T11:58:00,1.00
17,Abisko,2025-03-31T13:34:00,2025-03-31T13:36:00,3.00
17,Abisko,2025-03-31T21:44:00,2025-03-31T21:46:00,3.00
17,Abisko,2025-04-01T11:57:00,2025-04-01T11:58:00,2.00
17,Abisko,2025-04-01T13:34:00,2025-04-01T13:35:00,2.00
17,Abisko,2025-04-01T20:07:00,2025-04-01T20:07:00,1.00
17,Abisko,2025-04-01T21:44:00,2025-04-01T21:45:00,2.00
17,Abisko,2025-04-02T11:57:00,2025-04-02T11:58:00,2.00
17,Abisko,2025-04-02T13:34:00,2025-04-02T13:35:00,2.00
17,Abisko,2025-04-02T20:07:00,2025-04-02T20:07:00,1.00
17,Abisko,2025-04-02T21:44:00,2025-04-02T21:45:00,2.00
17,Abisko,2025-04-03T11:56:00,2025-04-03T11:58:00,3.00
17,Abisko,2025-04-03T13:34:00,2025-04-03T13:34:00,1.00
17,Abisko,2025-04-03T20:06:00,2025-04-03T20:07:00,2.00
17,Abisko,2025-04-03T21:43:00,2025-04-03T21:44:00,2.00
17,Abisko,2025-04-04T11:56:00,2025-04-04T11:57:00,2.00
17,Abisko,2025-04-04T20:06:00,2025-04-04T20:07:00,2.00
17,Abisko,2025-04-04T21:43:00,2025-04-04T21:44:00,2.00
17,Abisko,2025-04-05T11:55:00,2025-04-05T11:57:00,3.00
17,Abisko,2025-04-05T20:05:00,2025-04-05T20:07:00,3.00
17,Abisko,2025-04-06T11:55:00,2025-04-06T11:57:00,3.00
17,Abisko,2025-04-06T20:05:00,2025-04-06T20:07:00,3.00
17,Abisko,2025-04-07T11:55:00,2025-04-07T11:57:00,3.00
17,Abisko,2025-04-07T20:05:00,2025-04-07T20:07:00,3.00
17,Abisko,2025-04-08T11:54:00,2025-04-08T11:56:00,3.00
17,Abisko,2025-04-08T20:04:00,2025-04-08T20:06:00,3.00
17,Abisko,2025-04-09T11:54:00,2025-04-09T11:56:00,3.00
17,Abisko,2025-04-09T20:04:00,2025-04-09T20:06:00,3.00
17,Abisko,2025-04-10T11:54:00,2025-04-10T11:56:00,3.00
17,Abisko,2025-04-10T20:04:00,2025-04-10T20:06:00,3.00
17,Abisko,2025-04-11T11:54:00,2025-04-11T11:55:00,2.00
17,Abisko,2025-04-11T20:03:00,2025-04-11T20:05:00,3.00
17,Abisko,2025-04-12T10:17:00,2025-04-12T10:17:00,1.00
17,Abisko,2025-04-12T11:54:00,2025-04-12T11:55:00,2.00
17,Abisko,2025-04-12T18:27:00,2025-04-12T18:27:00,1.00
17,Abisko,2025-04-12T20:03:00,2025-04-12T20:05:00,3.00
18,Abisko,2025-03-30T13:25:00,2025-03-30T13:26:00,2.00
18,Abisko,2025-03-30T21:35:00,2025-03-30T21:36:00,2.00
18,Abisko,2025-03-31T13:24:00,2025-03-31T13:26:00,3.00
18,Abisko,2025-03-31T21:34:00,2025-03-31T21:36:00,3.00
18,Abisko,2025-04-01T11:48:00,2025-04-01T11:48:00,1.00
18,Abisko,2025-04-01T13:24:00,2025-04-01T13:26:00,3.00
18,Abisko,2025-04-01T21:34:00,2025-04-01T21:36:00,3.00
18,Abisko,2025-04-02T11:47:00,2025-04-02T11:48:00,2.00
18,Abisko,2025-04-02T13:24:00,2025-04-02T13:25:00,2.00
18,Abisko,2025-04-02T19:57:00,2025-04-02T19:57:00,1.00
18,Abisko,2025-04-02T21:34:00,2025-04-02T21:35:00,2.00
18,Abisko,2025-04-03T11:47:00,2025-04-03T11:48:00,2.00
18,Abisko,2025-04-03T13:24:00,2025-04-03T13:25:00,2.00
18,Abisko,2025-04-03T19:57:00,2025-04-03T19:57:00,1.00
18,Abisko,2025-04-03T21:34:00,2025-04-03T21:35:00,2.00
18,Abisko,2025-04-04T11:46:00,2025-04-04T11:48:00,3.00
18,Abisko,2025-04-04T13:24:00,2025-04-04T13:24:00,1.00
18,Abisko,2025-04-04T19:56:00,2025-04-04T19:57:00,2.00
18,Abisko,2025-04-04T21:33:00,2025-04-04T21:34:00,2.00
18,Abisko,2025-04-05T11:46:00,2025-04-05T11:47:00,2.00
18,Abisko,2025-04-05T19:56:00,2025-04-05T19:57:00,2.00
18,Abisko,2025-04-05T21:33:00,2025-04-05T21:34:00,2.00
18,Abisko,2025-04-06T11:45:00,2025-04-06T11:47:00,3.00
18,Abisko,2025-04-06T19:55:00,2025-04-06T19:57:00,3.00
18,Abisko,2025-04-07T11:45:00,2025-04-07T11:47:00,3.00
18,Abisko,2025-04-07T19:55:00,2025-04-07T19:57:00,3.00
18,Abisko,2025-04-08T11:45:00,2025-04-08T11:47:00,3.00
18,Abisko,2025-04-08T19:55:00,2025-04-08T19:57:00,3.00
18,Abisko,2025-04-09T11:44:00,2025-04-09T11:46:00,3.00
18,Abisko,2025-04-09T19:54:00,2025-04-09T19:56:00,3.00
18,Abisko,2025-04-10T11:44:00,2025-04-10T11:46:00,3.00
18,Abisko,2025-04-10T19:54:00,2025-04-10T19:56:00,3.00
18,Abisko,2025-04-11T11:44:00,2025-04-11T11:46:00,3.00
18,Abisko,2025-04-11T19:54:00,2025-04-11T19:56:00,3.00
18,Abisko,2025-04-12T11:44:00,2025-04-12T11:45:00,2.00
18,Abisko,2025-04-12T19:53:00,2025-04-12T19:55:00,3.00
19,Abisko,2025-03-30T13:15:00,2025-03-30T13:17:00,3.00
19,Abisko,2025-03-30T21:25:00,2025-03-30T21:27:00,3.00
19,Abisko,2025-03-31T13:15:00,2025-03-31T13:16:00,2.00
19,Abisko,2025-03-31T21:25:00,2025-03-31T21:26:00,2.00
19,Abisko,2025-04-01T13:14:00,2025-04-01T13:16:00,3.00
19,Abisko,2025-04-01T21:24:00,2025-04-01T21:26:00,3.00
19,Abisko,2025-04-02T11:38:00,2025-04-02T11:38:00,1.00
19,Abisko,2025-04-02T13:14:00,2025-04-02T13:16:00,3.00
19,Abisko,2025-04-02T21:24:00,2025-04-02T21:26:00,3.00
19,Abisko,2025-04-03T11:37:00,2025-04-03T11:38:00,2.00
19,Abisko,2025-04-03T13:14:00,2025-04-03T13:15:00,2.00
19,Abisko,2025-04-03T19:47:00,2025-04-03T19:47:00,1.00
19,Abisko,2025-04-03T21:24:00,2025-04-03T21:25:00,2.00
19,Abisko,2025-04-04T11:37:00,2025-04-04T11:38:00,2.00
19,Abisko,2025-04-04T13:14:00,2025-04-04T13:15:00,2.00
19,Abisko,2025-04-04T19:47:00,2025-04-04T19:47:00,1.00
19,Abisko,2025-04-04T21:24:00,2025-04-04T21:25:00,2.00
19,Abisko,2025-04-05T11:36:00,2025-04-05T11:38:00,3.00
19,Abisko,2025-04-05T13:14:00,2025-04-05T13:14:00,1.00
19,Abisko,2025-04-05T19:46:00,2025-04-05T19:47:00,2.00
19,Abisko,2025-04-05T21:23:00,2025-04-05T21:24:00,2.00
19,Abisko,2025-04-06T11:36:00,2025-04-06T11:37:00,2.00
19,Abisko,2025-04-06T13:14:00,2025-04-06T13:14:00,1.00
19,Abisko,2025-04-06T19:46:00,2025-04-06T19:47:00,2.00
19,Abisko,2025-04-06T21:23:00,2025-04-06T21:24:00,2.00
19,Abisko,2025-04-07T11:35:00,2025-04-07T11:37:00,3.00
19,Abisko,2025-04-07T19:45:00,2025-04-07T19:47:00,3.00
19,Abisko,2025-04-08T11:35:00,2025-04-08T11:37:00,3.00
19,Abisko,2025-04-08T19:45:00,2025-04-08T19:47:00,3.00
19,Abisko,2025-04-09T11:35:00,2025-04-09T11:37:00,3.00
19,Abisko,2025-04-09T19:45:00,2025-04-09T19:46:00,2.00
19,Abisko,2025-04-10T11:34:00,2025-04-10T11:36:00,3.00
19,Abisko,2025-04-10T19:44:00,2025-04-10T19:46:00,3.00
19,Abisko,2025-04-11T11:34:00,2025-04-11T11:36:00,3.00
19,Abisko,2025-04-11T19:44:00,2025-04-11T19:46:00,3.00
19,Abisko,2025-04-12T11:34:00,2025-04-12T11:35:00,2.00
19,Abisko,2025-04-12T19:44:00,2025-04-12T19:46:00,3.00
20,Abisko,2025-03-30T16:19:00,2025-03-30T16:20:00,2.00
20,Abisko,2025-03-30T17:57:00,2025-03-30T17:59:00,3.00
20,Abisko,2025-03-30T19:35:00,2025-03-30T19:37:00,3.00
20,Abisko,2025-03-30T21:13:00,2025-03-30T21:15:00,3.00
20,Abisko,2025-03-31T16:18:00,2025-03-31T16:20:00,3.00
20,Abisko,2025-03-31T17:56:00,2025-03-31T17:58:00,3.00
20,Abisko,2025-03-31T19:35:00,2025-03-31T19:36:00,2.00
20,Abisko,2025-03-31T21:13:00,2025-03-31T21:14:00,2.00
20,Abisko,2025-04-01T16:17:00,2025-04-01T16:19:00,3.00
20,Abisko,2025-04-01T17:56:00,2025-04-01T17:58:00,3.00
20,Abisko,2025-04-01T19:34:00,2025-04-01T19:36:00,3.00
20,Abisko,2025-04-01T21:13:00,2025-04-01T21:13:00,1.00
20,Abisko,2025-04-02T14:40:00,2025-04-02T14:40:00,1.00
20,Abisko,2025-04-02T16:17:00,2025-04-02T16:19:00,3.00
20,Abisko,2025-04-02T17:55:00,2025-04-02T17:57:00,3.00
20,Abisko,2025-04-02T19:33:00,2025-04-02T19:35:00,3.00
20,Abisko,2025-04-03T14:39:00,2025-04-03T14:40:00,2.00
20,Abisko,2025-04-03T16:16:00,2025-04-03T16:18:00,3.00
20,Abisko,2025-04-03T17:55:00,2025-04-03T17:57:00,3.00
20,Abisko,2025-04-03T19:33:00,2025-04-03T19:35:00,3.00
20,Abisko,2025-04-04T14:38:00,2025-04-04T14:39:00,2.00
20,Abisko,2025-04-04T16:16:00,2025-04-04T16:18:00,3.00
20,Abisko,2025-04-04T17:54:00,2025-04-04T17:56:00,3.00
20,Abisko,2025-04-04T19:32:00,2025-04-04T19:34:00,3.00
20,Abisko,2025-04-05T14:37:00,2025-04-05T14:39:00,3.00
20,Abisko,2025-04-05T16:15:00,2025-04-05T16:17:00,3.00
20,Abisko,2025-04-05T17:54:00,2025-04-05T17:56:00,3.00
20,Abisko,2025-04-05T19:32:00,2025-04-05T19:34:00,3.00
20,Abisko,2025-04-06T14:37:00,2025-04-06T14:38:00,2.00
20,Abisko,2025-04-06T16:15:00,2025-04-06T16:17:00,3.00
20,Abisko,2025-04-06T17:53:00,2025-04-06T17:55:00,3.00
20,Abisko,2025-04-06T19:32:00,2025-04-06T19:33:00,2.00
20,Abisko,2025-04-07T14:36:00,2025-04-07T14:38:00,3.00
20,Abisko,2025-04-07T16:14:00,2025-04-07T16:16:00,3.00
20,Abisko,2025-04-07T17:53:00,2025-04-07T17:55:00,3.00
20,Abisko,2025-04-07T19:31:00,2025-04-07T19:32:00,2.00
20,Abisko,2025-04-08T14:35:00,2025-04-08T14:37:00,3.00
20,Abisko,2025-04-08T16:14:00,2025-04-08T16:16:00,3.00
20,Abisko,2025-04-08T17:52:00,2025-04-08T17:54:00,3.00
20,Abisko,2025-04-08T19:31:00,2025-04-08T19:31:00,1.00
20,Abisko,2025-04-09T12:58:00,2025-04-09T12:58:00,1.00
20,Abisko,2025-04-09T14:35:00,2025-04-09T14:37:00,3.00
20,Abisko,2025-04-09T16:13:00,2025-04-09T16:15:00,3.00
20,Abisko,2025-04-09T17:52:00,2025-04-09T17:53:00,2.00
20,Abisko,2025-04-10T12:57:00,2025-04-10T12:58:00,2.00
20,Abisko,2025-04-10T14:34:00,2025-04-10T14:36:00,3.00
20,Abisko,2025-04-10T16:13:00,2025-04-10T16:15:00,3.00
20,Abisko,2025-04-10T17:51:00,2025-04-10T17:53:00,3.00
20,Abisko,2025-04-11T12:56:00,2025-04-11T12:57:00,2.00
20,Abisko,2025-04-11T14:34:00,2025-04-11T14:36:00,3.00
20,Abisko,2025-04-11T16:12:00,2025-04-11T16:14:00,3.00
20,Abisko,2025-04-11T17:50:00,2025-04-11T17:52:00,3.00
20,Abisko,2025-04-12T12:55:00,2025-04-12T12:57:00,3.00
20,Abisko,2025-04-12T14:33:00,2025-04-12T14:35:00,3.00
20,Abisko,2025-04-12T16:12:00,2025-04-12T16:14:00,3.00
20,Abisko,2025-04-12T17:50:00,2025-04-12T17:52:00,3.00
21,Abisko,2025-03-30T16:09:00,2025-03-30T16:10:00,2.00
21,Abisko,2025-03-30T17:47:00,2025-03-30T17:49:00,3.00
21,Abisko,2025-03-30T19:25:00,2025-03-30T19:27:00,3.00
21,Abisko,2025-03-30T21:04:00,2025-03-30T21:05:00,2.00
21,Abisko,2025-03-31T16:08:00,2025-03-31T16:10:00,3.00
21,Abisko,2025-03-31T17:46:00,2025-03-31T17:48:00,3.00
21,Abisko,2025-03-31T19:25:00,2025-03-31T19:27:00,3.00
21,Abisko,2025-03-31T21:03:00,2025-03-31T21:04:00,2.00
21,Abisko,2025-04-01T16:08:00,2025-04-01T16:09:00,2.00
21,Abisko,2025-04-01T17:46:00,2025-04-01T17:48:00,3.00
21,Abisko,2025-04-01T19:24:00,2025-04-01T19:26:00,3.00
21,Abisko,2025-04-01T21:03:00,2025-04-01T21:03:00,1.00
21,Abisko,2025-04-02T14:30:00,2025-04-02T14:30:00,1.00
21,Abisko,2025-04-02T16:07:00,2025-04-02T16:09:00,3.00
21,Abisko,2025-04-02T17:45:00,2025-04-02T17:47:00,3.00
21,Abisko,2025-04-02T19:24:00,2025-04-02T19:26:00,3.00
21,Abisko,2025-04-03T14:29:00,2025-04-03T14:30:00,2.00
21,Abisko,2025-04-03T16:06:00,2025-04-03T16:08:00,3.00
21,Abisko,2025-04-03T17:45:00,2025-04-03T17:47:00,3.00
21,Abisko,2025-04-03T19:23:00,2025-04-03T19:25:00,3.00
21,Abisko,2025-04-04T14:28:00,2025-04-04T14:29:00,2.00
21,Abisko,2025-04-04T16:06:00,2025-04-04T16:08:00,3.00
21,Abisko,2025-04-04T17:44:00,2025-04-04T17:46:00,3.00
21,Abisko,2025-04-04T19:23:00,2025-04-04T19:24:00,2.00
21,Abisko,2025-04-05T14:28:00,2025-04-05T14:29:00,2.00
21,Abisko,2025-04-05T16:05:00,2025-04-05T16:07:00,3.00
21,Abisko,2025-04-05T17:44:00,2025-04-05T17:46:00,3.00
21,Abisko,2025-04-05T19:22:00,2025-04-05T19:24:00,3.00
21,Abisko,2025-04-06T14:27:00,2025-04-06T14:29:00,3.00
21,Abisko,2025-04-06T16:05:00,2025-04-06T16:07:00,3.00
21,Abisko,2025-04-06T17:43:00,2025-04-06T17:45:00,3.00
21,Abisko,2025-04-06T19:22:00,2025-04-06T19:23:00,2.00
21,Abisko,2025-04-07T14:26:00,2025-04-07T14:28:00,3.00
21,Abisko,2025-04-07T16:04:00,2025-04-07T16:06:00,3.00
21,Abisko,2025-04-07T17:43:00,2025-04-07T17:45:00,3.00
21,Abisko,2025-04-07T19:21:00,2025-04-07T19:22:00,2.00
21,Abisko,2025-04-08T14:26:00,2025-04-08T14:28:00,3.00
21,Abisko,2025-04-08T16:04:00,2025-04-08T16:06:00,3.00
21,Abisko,2025-04-08T17:42:00,2025-04-08T17:44:00,3.00
21,Abisko,2025-04-08T19:21:00,2025-04-08T19:22:00,2.00
21,Abisko,2025-04-09T14:25:00,2025-04-09T14:27:00,3.00
21,Abisko,2025-04-09T16:03:00,2025-04-09T16:05:00,3.00
21,Abisko,2025-04-09T17:42:00,2025-04-09T17:44:00,3.00
21,Abisko,2025-04-09T19:21:00,2025-04-09T19:21:00,1.00
21,Abisko,2025-04-10T12:47:00,2025-04-10T12:48:00,2.00
21,Abisko,2025-04-10T14:25:00,2025-04-10T14:26:00,2.00
21,Abisko,2025-04-10T16:03:00,2025-04-10T16:05:00,3.00
21,Abisko,2025-04-10T17:41:00,2025-04-10T17:43:00,3.00
21,Abisko,2025-04-11T12:46:00,2025-04-11T12:47:00,2.00
21,Abisko,2025-04-11T14:24:00,2025-04-11T14:26:00,3.00
21,Abisko,2025-04-11T16:02:00,2025-04-11T16:04:00,3.00
21,Abisko,2025-04-11T17:41:00,2025-04-11T17:43:00,3.00
21,Abisko,2025-04-12T12:46:00,2025-04-12T12:47:00,2.00
21,Abisko,2025-04-12T14:23:00,2025-04-12T14:25:00,3.00
21,Abisko,2025-04-12T16:02:00,2025-04-12T16:04:00,3.00
21,Abisko,2025-04-12T17:40:00,2025-04-12T17:42:00,3.00
22,Abisko,2025-03-30T15:59:00,2025-03-30T16:01:00,3.00
22,Abisko,2025-03-30T17:37:00,2025-03-30T17:39:00,3.00
22,Abisko,2025-03-30T19:15:00,2025-03-30T19:17:00,3.00
22,Abisko,2025-03-30T20:54:00,2025-03-30T20:55:00,2.00
22,Abisko,2025-03-31T15:58:00,2025-03-31T16:00:00,3.00
22,Abisko,2025-03-31T17:37:00,2025-03-31T17:38:00,2.00
22,Abisko,2025-03-31T19:15:00,2025-03-31T19:17:00,3.00
22,Abisko,2025-03-31T20:53:00,2025-03-31T20:55:00,3.00
22,Abisko,2025-04-01T15:58:00,2025-04-01T16:00:00,3.00
22,Abisko,2025-04-01T17:36:00,2025-04-01T17:38:00,3.00
22,Abisko,2025-04-01T19:14:00,2025-04-01T19:16:00,3.00
22,Abisko,2025-04-01T20:53:00,2025-04-01T20:54:00,2.00
22,Abisko,2025-04-02T15:57:00,2025-04-02T15:59:00,3.00
22,Abisko,2025-04-02T17:36:00,2025-04-02T17:37:00,2.00
22,Abisko,2025-04-02T19:14:00,2025-04-02T19:16:00,3.00
22,Abisko,2025-04-02T20:53:00,2025-04-02T20:53:00,1.00
22,Abisko,2025-04-03T14:20:00,2025-04-03T14:20:00,1.00
22,Abisko,2025-04-03T15:57:00,2025-04-03T15:59:00,3.00
22,Abisko,2025-04-03T17:35:00,2025-04-03T17:37:00,3.00
22,Abisko,2025-04-03T19:13:00,2025-04-03T19:15:00,3.00
22,Abisko,2025-04-04T14:19:00,2025-04-04T14:19:00,1.00
22,Abisko,2025-04-04T15:56:00,2025-04-04T15:58:00,3.00
22,Abisko,2025-04-04T17:35:00,2025-04-04T17:36:00,2.00
22,Abisko,2025-04-04T19:13:00,2025-04-04T19:15:00,3.00
22,Abisko,2025-04-05T14:18:00,2025-04-05T14:19:00,2.00
22,Abisko,2025-04-05T15:56:00,2025-04-05T15:57:00,2.00
22,Abisko,2025-04-05T17:34:00,2025-04-05T17:36:00,3.00
22,Abisko,2025-04-05T19:12:00,2025-04-05T19:14:00,3.00
22,Abisko,2025-04-06T14:17:00,2025-04-06T14:19:00,3.00
22,Abisko,2025-04-06T15:55:00,2025-04-06T15:57:00,3.00
22,Abisko,2025-04-06T17:34:00,2025-04-06T17:35:00,2.00
22,Abisko,2025-04-06T19:12:00,2025-04-06T19:13:00,2.00
22,Abisko,2025-04-07T14:16:00,2025-04-07T14:18:00,3.00
22,Abisko,2025-04-07T15:55:00,2025-04-07T15:56:00,2.00
22,Abisko,2025-04-07T17:33:00,2025-04-07T17:35:00,3.00
22,Abisko,2025-04-07T19:11:00,2025-04-07T19:13:00,3.00
22,Abisko,2025-04-08T14:16:00,2025-04-08T14:18:00,3.00
22,Abisko,2025-04-08T15:54:00,2025-04-08T15:56:00,3.00
22,Abisko,2025-04-08T17:32:00,2025-04-08T17:34:00,3.00
22,Abisko,2025-04-08T19:11:00,2025-04-08T19:12:00,2.00
22,Abisko,2025-04-09T14:15:00,2025-04-09T14:17:00,3.00
22,Abisko,2025-04-09T15:54:00,2025-04-09T15:55:00,2.00
22,Abisko,2025-04-09T17:32:00,2025-04-09T17:34:00,3.00
22,Abisko,2025-04-09T19:11:00,2025-04-09T19:11:00,1.00
22,Abisko,2025-04-10T12:38:00,2025-04-10T12:38:00,1.00
22,Abisko,2025-04-10T14:15:00,2025-04-10T14:17:00,3.00
22,Abisko,2025-04-10T15:53:00,2025-04-10T15:55:00,3.00
22,Abisko,2025-04-10T17:31:00,2025-04-10T17:33:00,3.00
22,Abisko,2025-04-10T19:10:00,2025-04-10T19:10:00,1.00
22,Abisko,2025-04-11T12:37:00,2025-04-11T12:37:00,1.00
22,Abisko,2025-04-11T14:14:00,2025-04-11T14:16:00,3.00
22,Abisko,2025-04-11T15:53:00,2025-04-11T15:54:00,2.00
22,Abisko,2025-04-11T17:31:00,2025-04-11T17:33:00,3.00
22,Abisko,2025-04-12T12:36:00,2025-04-12T12:37:00,2.00
22,Abisko,2025-04-12T14:14:00,2025-04-12T14:16:00,3.00
22,Abisko,2025-04-12T15:52:00,2025-04-12T15:54:00,3.00
22,Abisko,2025-04-12T17:30:00,2025-04-12T17:32:00,3.00
23,Abisko,2025-03-30T15:49:00,2025-03-30T15:51:00,3.00
23,Abisko,2025-03-30T17:27:00,2025-03-30T17:29:00,3.00
23,Abisko,2025-03-30T19:06:00,2025-03-30T19:07:00,2.00
23,Abisko,2025-03-30T20:44:00,2025-03-30T20:46:00,3.00
23,Abisko,2025-03-31T15:49:00,2025-03-31T15:50:00,2.00
23,Abisko,2025-03-31T17:27:00,2025-03-31T17:29:00,3.00
23,Abisko,2025-03-31T19:05:00,2025-03-31T19:07:00,3.00
23,Abisko,2025-03-31T20:43:00,2025-03-31T20:45:00,3.00
23,Abisko,2025-04-01T15:48:00,2025-04-01T15:50:00,3.00
23,Abisko,2025-04-01T17:26:00,2025-04-01T17:28:00,3.00
23,Abisko,2025-04-01T19:05:00,2025-04-01T19:06:00,2.00
23,Abisko,2025-04-01T20:43:00,2025-04-01T20:44:00,2.00
23,Abisko,2025-04-02T15:47:00,2025-04-02T15:49:00,3.00
23,Abisko,2025-04-02T17:26:00,2025-04-02T17:28:00,3.00
23,Abisko,2025-04-02T19:04:00,2025-04-02T19:06:00,3.00
23,Abisko,2025-04-02T20:43:00,2025-04-02T20:43:00,1.00
23,Abisko,2025-04-03T15:47:00,2025-04-03T15:49:00,3.00
23,Abisko,2025-04-03T17:25:00,2025-04-03T17:27:00,3.00
23,Abisko,2025-04-03T19:03:00,2025-04-03T19:05:00,3.00
23,Abisko,2025-04-03T20:42:00,2025-04-03T20:42:00,1.00
23,Abisko,2025-04-04T14:09:00,2025-04-04T14:09:00,1.00
23,Abisko,2025-04-04T15:46:00,2025-04-04T15:48:00,3.00
23,Abisko,2025-04-04T17:25:00,2025-04-04T17:26:00,2.00
23,Abisko,2025-04-04T19:03:00,2025-04-04T19:05:00,3.00
23,Abisko,2025-04-05T14:08:00,2025-04-05T14:09:00,2.00
23,Abisko,2025-04-05T15:46:00,2025-04-05T15:48:00,3.00
23,Abisko,2025-04-05T17:24:00,2025-04-05T17:26:00,3.00
23,Abisko,2025-04-05T19:02:00,2025-04-05T19:04:00,3.00
23,Abisko,2025-04-06T14:07:00,2025-04-06T14:09:00,3.00
23,Abisko,2025-04-06T15:45:00,2025-04-06T15:47:00,3.00
23,Abisko,2025-04-06T17:24:00,2025-04-06T17:25:00,2.00
23,Abisko,2025-04-06T19:02:00,2025-04-06T19:04:00,3.00
23,Abisko,2025-04-07T14:07:00,2025-04-07T14:08:00,2.00
23,Abisko,2025-04-07T15:45:00,2025-04-07T15:47:00,3.00
23,Abisko,2025-04-07T17:23:00,2025-04-07T17:25:00,3.00
23,Abisko,2025-04-07T19:01:00,2025-04-07T19:03:00,3.00
23,Abisko,2025-04-08T14:06:00,2025-04-08T14:08:00,3.00
23,Abisko,2025-04-08T15:44:00,2025-04-08T15:46:00,3.00
23,Abisko,2025-04-08T17:23:00,2025-04-08T17:24:00,2.00
23,Abisko,2025-04-08T19:01:00,2025-04-08T19:02:00,2.00
23,Abisko,2025-04-09T14:05:00,2025-04-09T14:07:00,3.00
23,Abisko,2025-04-09T15:44:00,2025-04-09T15:46:00,3.00
23,Abisko,2025-04-09T17:22:00,2025-04-09T17:24:00,3.00
23,Abisko,2025-04-09T19:01:00,2025-04-09T19:02:00,2.00
23,Abisko,2025-04-10T14:05:00,2025-04-10T14:07:00,3.00
23,Abisko,2025-04-10T15:43:00,2025-04-10T15:45:00,3.00
23,Abisko,2025-04-10T17:22:00,2025-04-10T17:23:00,2.00
23,Abisko,2025-04-10T19:00:00,2025-04-10T19:01:00,2.00
23,Abisko,2025-04-11T12:27:00,2025-04-11T12:27:00,1.00
23,Abisko,2025-04-11T14:04:00,2025-04-11T14:06:00,3.00
23,Abisko,2025-04-11T15:43:00,2025-04-11T15:45:00,3.00
23,Abisko,2025-04-11T17:21:00,2025-04-11T17:23:00,3.00
23,Abisko,2025-04-12T12:26:00,2025-04-12T12:27:00,2.00
23,Abisko,2025-04-12T14:04:00,2025-04-12T14:06:00,3.00
23,Abisko,2025-04-12T15:42:00,2025-04-12T15:44:00,3.00
23,Abisko,2025-04-12T17:20:00,2025-04-12T17:22:00,3.00
24,Abisko,2025-03-30T15:40:00,2025-03-30T15:41:00,2.00
24,Abisko,2025-03-30T17:17:00,2025-03-30T17:19:00,3.00
24,Abisko,2025-03-30T18:56:00,2025-03-30T18:58:00,3.00
24,Abisko,2025-03-30T20:34:00,2025-03-30T20:36:00,3.00
24,Abisko,2025-03-31T15:39:00,2025-03-31T15:40:00,2.00
24,Abisko,2025-03-31T17:17:00,2025-03-31T17:19:00,3.00
24,Abisko,2025-03-31T18:55:00,2025-03-31T18:57:00,3.00
24,Abisko,2025-03-31T20:34:00,2025-03-31T20:35:00,2.00
24,Abisko,2025-04-01T15:38:00,2025-04-01T15:40:00,3.00
24,Abisko,2025-04-01T17:16:00,2025-04-01T17:18:00,3.00
24,Abisko,2025-04-01T18:55:00,2025-04-01T18:57:00,3.00
24,Abisko,2025-04-01T20:33:00,2025-04-01T20:35:00,3.00
24,Abisko,2025-04-02T15:38:00,2025-04-02T15:39:00,2.00
24,Abisko,2025-04-02T17:16:00,2025-04-02T17:18:00,3.00
24,Abisko,2025-04-02T18:54:00,2025-04-02T18:56:00,3.00
24,Abisko,2025-04-02T20:33:00,2025-04-02T20:34:00,2.00
24,Abisko,2025-04-03T15:37:00,2025-04-03T15:39:00,3.00
24,Abisko,2025-04-03T17:15:00,2025-04-03T17:17:00,3.00
24,Abisko,2025-04-03T18:54:00,2025-04-03T18:56:00,3.00
24,Abisko,2025-04-03T20:32:00,2025-04-03T20:33:00,2.00
24,Abisko,2025-04-04T15:36:00,2025-04-04T15:38:00,3.00
24,Abisko,2025-04-04T17:15:00,2025-04-04T17:17:00,3.00
24,Abisko,2025-04-04T18:53:00,2025-04-04T18:55:00,3.00
24,Abisko,2025-04-04T20:32:00,2025-04-04T20:32:00,1.00
24,Abisko,2025-04-05T13:59:00,2025-04-05T13:59:00,1.00
24,Abisko,2025-04-05T15:36:00,2025-04-05T15:38:00,3.00
24,Abisko,2025-04-05T17:14:00,2025-04-05T17:16:00,3.00
24,Abisko,2025-04-05T18:53:00,2025-04-05T18:55:00,3.00
24,Abisko,2025-04-06T13:58:00,2025-04-06T13:59:00,2.00
24,Abisko,2025-04-06T15:35:00,2025-04-06T15:37:00,3.00
24,Abisko,2025-04-06T17:14:00,2025-04-06T17:16:00,3.00
24,Abisko,2025-04-06T18:52:00,2025-04-06T18:54:00,3.00
24,Abisko,2025-04-07T13:57:00,2025-04-07T13:58:00,2.00
24,Abisko,2025-04-07T15:35:00,2025-04-07T15:37:00,3.00
24,Abisko,2025-04-07T17:13:00,2025-04-07T17:15:00,3.00
24,Abisko,2025-04-07T18:52:00,2025-04-07T18:53:00,2.00
24,Abisko,2025-04-08T13:56:00,2025-04-08T13:58:00,3.00
24,Abisko,2025-04-08T15:34:00,2025-04-08T15:36:00,3.00
24,Abisko,2025-04-08T17:13:00,2025-04-08T17:15:00,3.00
24,Abisko,2025-04-08T18:51:00,2025-04-08T18:53:00,3.00
24,Abisko,2025-04-09T13:56:00,2025-04-09T13:57:00,2.00
24,Abisko,2025-04-09T15:34:00,2025-04-09T15:36:00,3.00
24,Abisko,2025-04-09T17:12:00,2025-04-09T17:14:00,3.00
24,Abisko,2025-04-09T18:51:00,2025-04-09T18:52:00,2.00
24,Abisko,2025-04-10T13:55:00,2025-04-10T13:57:00,3.00
24,Abisko,2025-04-10T15:33:00,2025-04-10T15:35:00,3.00
24,Abisko,2025-04-10T17:12:00,2025-04-10T17:14:00,3.00
24,Abisko,2025-04-10T18:50:00,2025-04-10T18:51:00,2.00
24,Abisko,2025-04-11T13:55:00,2025-04-11T13:56:00,2.00
24,Abisko,2025-04-11T15:33:00,2025-04-11T15:35:00,3.00
24,Abisko,2025-04-11T17:11:00,2025-04-11T17:13:00,3.00
24,Abisko,2025-04-11T18:50:00,2025-04-11T18:50:00,1.00
24,Abisko,2025-04-12T12:17:00,2025-04-12T12:17:00,1.00
24,Abisko,2025-04-12T13:54:00,2025-04-12T13:56:00,3.00
24,Abisko,2025-04-12T15:32:00,2025-04-12T15:34:00,3.00
24,Abisko,2025-04-12T17:11:00,2025-04-12T17:13:00,3.00
25,Abisko,2025-03-30T15:30:00,2025-03-30T15:31:00,2.00
25,Abisko,2025-03-30T17:08:00,2025-03-30T17:09:00,2.00
25,Abisko,2025-03-30T18:46:00,2025-03-30T18:48:00,3.00
25,Abisko,2025-03-30T20:24:00,2025-03-30T20:26:00,3.00
25,Abisko,2025-03-31T15:29:00,2025-03-31T15:31:00,3.00
25,Abisko,2025-03-31T17:07:00,2025-03-31T17:09:00,3.00
25,Abisko,2025-03-31T18:45:00,2025-03-31T18:47:00,3.00
25,Abisko,2025-03-31T20:24:00,2025-03-31T20:25:00,2.00
25,Abisko,2025-04-01T15:29:00,2025-04-01T15:30:00,2.00
25,Abisko,2025-04-01T17:07:00,2025-04-01T17:08:00,2.00
25,Abisko,2025-04-01T18:45:00,2025-04-01T18:47:00,3.00
25,Abisko,2025-04-01T20:23:00,2025-04-01T20:25:00,3.00
25,Abisko,2025-04-02T15:28:00,2025-04-02T15:30:00,3.00
25,Abisko,2025-04-02T17:06:00,2025-04-02T17:08:00,3.00
25,Abisko,2025-04-02T18:44:00,2025-04-02T18:46:00,3.00
25,Abisko,2025-04-02T20:23:00,2025-04-02T20:24:00,2.00
25,Abisko,2025-04-03T15:27:00,2025-04-03T15:29:00,3.00
25,Abisko,2025-04-03T17:06:00,2025-04-03T17:07:00,2.00
25,Abisko,2025-04-03T18:44:00,2025-04-03T18:46:00,3.00
25,Abisko,2025-04-03T20:22:00,2025-04-03T20:23:00,2.00
25,Abisko,2025-04-04T15:27:00,2025-04-04T15:29:00,3.00
25,Abisko,2025-04-04T17:05:00,2025-04-04T17:07:00,3.00
25,Abisko,2025-04-04T18:43:00,2025-04-04T18:45:00,3.00
25,Abisko,2025-04-04T20:22:00,2025-04-04T20:23:00,2.00
25,Abisko,2025-04-05T13:49:00,2025-04-05T13:49:00,1.00
25,Abisko,2025-04-05T15:26:00,2025-04-05T15:28:00,3.00
25,Abisko,2025-04-05T17:05:00,2025-04-05T17:06:00,2.00
25,Abisko,2025-04-05T18:43:00,2025-04-05T18:45:00,3.00
25,Abisko,2025-04-06T13:48:00,2025-04-06T13:49:00,2.00
25,Abisko,2025-04-06T15:26:00,2025-04-06T15:28:00,3.00
25,Abisko,2025-04-06T17:04:00,2025-04-06T17:06:00,3.00
25,Abisko,2025-04-06T18:42:00,2025-04-06T18:44:00,3.00
25,Abisko,2025-04-07T13:47:00,2025-04-07T13:49:00,3.00
25,Abisko,2025-04-07T15:25:00,2025-04-07T15:27:00,3.00
25,Abisko,2025-04-07T17:03:00,2025-04-07T17:05:00,3.00
25,Abisko,2025-04-07T18:42:00,2025-04-07T18:44:00,3.00
25,Abisko,2025-04-08T13:47:00,2025-04-08T13:48:00,2.00
25,Abisko,2025-04-08T15:25:00,2025-04-08T15:26:00,2.00
25,Abisko,2025-04-08T17:03:00,2025-04-08T17:05:00,3.00
25,Abisko,2025-04-08T18:41:00,2025-04-08T18:43:00,3.00
25,Abisko,2025-04-09T13:46:00,2025-04-09T13:48:00,3.00
25,Abisko,2025-04-09T15:24:00,2025-04-09T15:26:00,3.00
25,Abisko,2025-04-09T17:02:00,2025-04-09T17:04:00,3.00
