comm_windows_Amazon_Forest.csv

sat_id,ground_station,window_start,window_end,duration_min
0,Amazon_Forest,2025-03-30T04:01:00,2025-03-30T04:01:00,1.00
0,Amazon_Forest,2025-04-05T14:20:00,2025-04-05T14:21:00,2.00
0,Amazon_Forest,2025-04-06T02:21:00,2025-04-06T02:22:00,2.00
0,Amazon_Forest,2025-04-06T14:19:00,2025-04-06T14:21:00,3.00
0,Amazon_Forest,2025-04-07T02:21:00,2025-04-07T02:22:00,2.00
0,Amazon_Forest,2025-04-07T14:19:00,2025-04-07T14:20:00,2.00
0,Amazon_Forest,2025-04-08T02:20:00,2025-04-08T02:22:00,3.00
0,Amazon_Forest,2025-04-08T14:18:00,2025-04-08T14:20:00,3.00
0,Amazon_Forest,2025-04-09T02:20:00,2025-04-09T02:21:00,2.00
0,Amazon_Forest,2025-04-09T14:19:00,2025-04-09T14:19:00,1.00
0,Amazon_Forest,2025-04-10T02:20:00,2025-04-10T02:20:00,1.00
1,Amazon_Forest,2025-03-30T03:51:00,2025-03-30T03:52:00,2.00
1,Amazon_Forest,2025-03-30T15:49:00,2025-03-30T15:50:00,2.00
1,Amazon_Forest,2025-03-31T03:51:00,2025-03-31T03:51:00,1.00
1,Amazon_Forest,2025-04-06T14:10:00,2025-04-06T14:11:00,2.00
1,Amazon_Forest,2025-04-07T02:11:00,2025-04-07T02:12:00,2.00
1,Amazon_Forest,2025-04-07T14:09:00,2025-04-07T14:11:00,3.00
1,Amazon_Forest,2025-04-08T02:11:00,2025-04-08T02:12:00,2.00
1,Amazon_Forest,2025-04-08T14:09:00,2025-04-08T14:10:00,2.00
1,Amazon_Forest,2025-04-09T02:10:00,2025-04-09T02:12:00,3.00
1,Amazon_Forest,2025-04-09T14:08:00,2025-04-09T14:10:00,3.00
1,Amazon_Forest,2025-04-10T02:10:00,2025-04-10T02:12:00,3.00
1,Amazon_Forest,2025-04-10T14:08:00,2025-04-10T14:09:00,2.00
1,Amazon_Forest,2025-04-11T02:10:00,2025-04-11T02:11:00,2.00
2,Amazon_Forest,2025-03-30T03:41:00,2025-03-30T03:43:00,3.00
2,Amazon_Forest,2025-03-30T15:39:00,2025-03-30T15:40:00,2.00
2,Amazon_Forest,2025-03-31T03:41:00,2025-03-31T03:42:00,2.00
2,Amazon_Forest,2025-03-31T15:39:00,2025-03-31T15:40:00,2.00
2,Amazon_Forest,2025-04-01T03:41:00,2025-04-01T03:41:00,1.00
2,Amazon_Forest,2025-04-07T14:00:00,2025-04-07T14:00:00,1.00
2,Amazon_Forest,2025-04-08T02:01:00,2025-04-08T02:02:00,2.00
2,Amazon_Forest,2025-04-08T13:59:00,2025-04-08T14:01:00,3.00
2,Amazon_Forest,2025-04-09T02:01:00,2025-04-09T02:02:00,2.00
2,Amazon_Forest,2025-04-09T13:59:00,2025-04-09T14:00:00,2.00
2,Amazon_Forest,2025-04-10T02:00:00,2025-04-10T02:02:00,3.00
2,Amazon_Forest,2025-04-10T13:58:00,2025-04-10T14:00:00,3.00
2,Amazon_Forest,2025-04-11T02:00:00,2025-04-11T02:02:00,3.00
2,Amazon_Forest,2025-04-11T13:58:00,2025-04-11T13:59:00,2.00
2,Amazon_Forest,2025-04-12T02:00:00,2025-04-12T02:01:00,2.00
3,Amazon_Forest,2025-03-30T03:31:00,2025-03-30T03:33:00,3.00
3,Amazon_Forest,2025-03-30T15:29:00,2025-03-30T15:31:00,3.00
3,Amazon_Forest,2025-03-31T03:31:00,2025-03-31T03:33:00,3.00
3,Amazon_Forest,2025-03-31T15:29:00,2025-03-31T15:30:00,2.00
3,Amazon_Forest,2025-04-01T03:30:00,2025-04-01T03:32:00,3.00
3,Amazon_Forest,2025-04-01T15:29:00,2025-04-01T15:30:00,2.00
3,Amazon_Forest,2025-04-02T03:31:00,2025-04-02T03:31:00,1.00
3,Amazon_Forest,2025-04-08T13:50:00,2025-04-08T13:50:00,1.00
3,Amazon_Forest,2025-04-09T01:52:00,2025-04-09T01:52:00,1.00
3,Amazon_Forest,2025-04-09T13:49:00,2025-04-09T13:51:00,3.00
3,Amazon_Forest,2025-04-10T01:51:00,2025-04-10T01:52:00,2.00
3,Amazon_Forest,2025-04-10T13:49:00,2025-04-10T13:50:00,2.00
3,Amazon_Forest,2025-04-11T01:50:00,2025-04-11T01:52:00,3.00
3,Amazon_Forest,2025-04-11T13:48:00,2025-04-11T13:50:00,3.00
3,Amazon_Forest,2025-04-12T01:50:00,2025-04-12T01:52:00,3.00
3,Amazon_Forest,2025-04-12T13:48:00,2025-04-12T13:49:00,2.00
4,Amazon_Forest,2025-03-30T03:22:00,2025-03-30T03:23:00,2.00
4,Amazon_Forest,2025-03-30T15:20:00,2025-03-30T15:21:00,2.00
4,Amazon_Forest,2025-03-31T03:21:00,2025-03-31T03:23:00,3.00
4,Amazon_Forest,2025-03-31T15:19:00,2025-03-31T15:21:00,3.00
4,Amazon_Forest,2025-04-01T03:21:00,2025-04-01T03:23:00,3.00
4,Amazon_Forest,2025-04-01T15:19:00,2025-04-01T15:20:00,2.00
4,Amazon_Forest,2025-04-02T03:20:00,2025-04-02T03:22:00,3.00
4,Amazon_Forest,2025-04-02T15:19:00,2025-04-02T15:20:00,2.00
4,Amazon_Forest,2025-04-03T03:21:00,2025-04-03T03:21:00,1.00
4,Amazon_Forest,2025-04-09T13:40:00,2025-04-09T13:40:00,1.00
4,Amazon_Forest,2025-04-10T01:42:00,2025-04-10T01:42:00,1.00
4,Amazon_Forest,2025-04-10T13:39:00,2025-04-10T13:40:00,2.00
4,Amazon_Forest,2025-04-11T01:41:00,2025-04-11T01:42:00,2.00
4,Amazon_Forest,2025-04-11T13:39:00,2025-04-11T13:40:00,2.00
4,Amazon_Forest,2025-04-12T01:40:00,2025-04-12T01:42:00,3.00
4,Amazon_Forest,2025-04-12T13:38:00,2025-04-12T13:40:00,3.00
5,Amazon_Forest,2025-03-30T15:11:00,2025-03-30T15:11:00,1.00
5,Amazon_Forest,2025-03-31T03:12:00,2025-03-31T03:12:00,1.00
5,Amazon_Forest,2025-03-31T15:10:00,2025-03-31T15:11:00,2.00
5,Amazon_Forest,2025-04-01T03:11:00,2025-04-01T03:13:00,3.00
5,Amazon_Forest,2025-04-01T15:09:00,2025-04-01T15:11:00,3.00
5,Amazon_Forest,2025-04-02T03:11:00,2025-04-02T03:13:00,3.00
5,Amazon_Forest,2025-04-02T15:09:00,2025-04-02T15:10:00,2.00
5,Amazon_Forest,2025-04-03T03:10:00,2025-04-03T03:12:00,3.00
5,Amazon_Forest,2025-04-03T15:09:00,2025-04-03T15:10:00,2.00
5,Amazon_Forest,2025-04-04T03:10:00,2025-04-04T03:11:00,2.00
5,Amazon_Forest,2025-04-10T13:30:00,2025-04-10T13:30:00,1.00
5,Amazon_Forest,2025-04-11T01:32:00,2025-04-11T01:32:00,1.00
5,Amazon_Forest,2025-04-11T13:29:00,2025-04-11T13:30:00,2.00
5,Amazon_Forest,2025-04-12T01:31:00,2025-04-12T01:32:00,2.00
5,Amazon_Forest,2025-04-12T13:29:00,2025-04-12T13:30:00,2.00
6,Amazon_Forest,2025-04-01T03:02:00,2025-04-01T03:02:00,1.00
6,Amazon_Forest,2025-04-01T15:00:00,2025-04-01T15:01:00,2.00
6,Amazon_Forest,2025-04-02T03:01:00,2025-04-02T03:03:00,3.00
6,Amazon_Forest,2025-04-02T14:59:00,2025-04-02T15:01:00,3.00
6,Amazon_Forest,2025-04-03T03:01:00,2025-04-03T03:02:00,2.00
6,Amazon_Forest,2025-04-03T14:59:00,2025-04-03T15:00:00,2.00
6,Amazon_Forest,2025-04-04T03:00:00,2025-04-04T03:02:00,3.00
6,Amazon_Forest,2025-04-04T14:59:00,2025-04-04T15:00:00,2.00
6,Amazon_Forest,2025-04-05T03:00:00,2025-04-05T03:01:00,2.00
6,Amazon_Forest,2025-04-12T13:19:00,2025-04-12T13:20:00,2.00
7,Amazon_Forest,2025-04-02T02:52:00,2025-04-02T02:52:00,1.00
7,Amazon_Forest,2025-04-02T14:50:00,2025-04-02T14:51:00,2.00
7,Amazon_Forest,2025-04-03T02:51:00,2025-04-03T02:53:00,3.00
7,Amazon_Forest,2025-04-03T14:49:00,2025-04-03T14:51:00,3.00
7,Amazon_Forest,2025-04-04T02:51:00,2025-04-04T02:52:00,2.00
7,Amazon_Forest,2025-04-04T14:49:00,2025-04-04T14:50:00,2.00
7,Amazon_Forest,2025-04-05T02:50:00,2025-04-05T02:52:00,3.00
7,Amazon_Forest,2025-04-05T14:49:00,2025-04-05T14:50:00,2.00
7,Amazon_Forest,2025-04-06T02:50:00,2025-04-06T02:51:00,2.00
8,Amazon_Forest,2025-04-03T14:40:00,2025-04-03T14:41:00,2.00
8,Amazon_Forest,2025-04-04T02:41:00,2025-04-04T02:43:00,3.00
8,Amazon_Forest,2025-04-04T14:39:00,2025-04-04T14:41:00,3.00
8,Amazon_Forest,2025-04-05T02:41:00,2025-04-05T02:42:00,2.00
8,Amazon_Forest,2025-04-05T14:39:00,2025-04-05T14:40:00,2.00
8,Amazon_Forest,2025-04-06T02:40:00,2025-04-06T02:42:00,3.00
8,Amazon_Forest,2025-04-06T14:39:00,2025-04-06T14:40:00,2.00
8,Amazon_Forest,2025-04-07T02:40:00,2025-04-07T02:41:00,2.00
8,Amazon_Forest,2025-04-07T14:39:00,2025-04-07T14:39:00,1.00
9,Amazon_Forest,2025-04-04T14:30:00,2025-04-04T14:31:00,2.00
9,Amazon_Forest,2025-04-05T02:31:00,2025-04-05T02:32:00,2.00
9,Amazon_Forest,2025-04-05T14:29:00,2025-04-05T14:31:00,3.00
9,Amazon_Forest,2025-04-06T02:31:00,2025-04-06T02:32:00,2.00
9,Amazon_Forest,2025-04-06T14:29:00,2025-04-06T14:30:00,2.00
9,Amazon_Forest,2025-04-07T02:30:00,2025-04-07T02:32:00,3.00
9,Amazon_Forest,2025-04-07T14:28:00,2025-04-07T14:30:00,3.00
9,Amazon_Forest,2025-04-08T02:30:00,2025-04-08T02:31:00,2.00
9,Amazon_Forest,2025-04-08T14:29:00,2025-04-08T14:29:00,1.00
10,Amazon_Forest,2025-04-02T15:57:00,2025-04-02T15:57:00,1.00
10,Amazon_Forest,2025-04-03T03:58:00,2025-04-03T03:59:00,2.00
10,Amazon_Forest,2025-04-03T15:56:00,2025-04-03T15:57:00,2.00
10,Amazon_Forest,2025-04-04T03:57:00,2025-04-04T03:59:00,3.00
10,Amazon_Forest,2025-04-04T15:55:00,2025-04-04T15:57:00,3.00
10,Amazon_Forest,2025-04-05T03:57:00,2025-04-05T03:59:00,3.00
10,Amazon_Forest,2025-04-05T15:55:00,2025-04-05T15:57:00,3.00
10,Amazon_Forest,2025-04-06T03:57:00,2025-04-06T03:58:00,2.00
10,Amazon_Forest,2025-04-06T15:55:00,2025-04-06T15:56:00,2.00
10,Amazon_Forest,2025-04-07T03:57:00,2025-04-07T03:57:00,1.00
11,Amazon_Forest,2025-04-03T15:47:00,2025-04-03T15:47:00,1.00
11,Amazon_Forest,2025-04-04T03:48:00,2025-04-04T03:49:00,2.00
11,Amazon_Forest,2025-04-04T15:46:00,2025-04-04T15:47:00,2.00
11,Amazon_Forest,2025-04-05T03:47:00,2025-04-05T03:49:00,3.00
11,Amazon_Forest,2025-04-05T15:45:00,2025-04-05T15:47:00,3.00
11,Amazon_Forest,2025-04-06T03:47:00,2025-04-06T03:49:00,3.00
11,Amazon_Forest,2025-04-06T15:45:00,2025-04-06T15:47:00,3.00
11,Amazon_Forest,2025-04-07T03:47:00,2025-04-07T03:48:00,2.00
11,Amazon_Forest,2025-04-07T15:45:00,2025-04-07T15:46:00,2.00
11,Amazon_Forest,2025-04-08T03:47:00,2025-04-08T03:48:00,2.00
12,Amazon_Forest,2025-04-04T15:37:00,2025-04-04T15:37:00,1.00
12,Amazon_Forest,2025-04-05T03:38:00,2025-04-05T03:39:00,2.00
12,Amazon_Forest,2025-04-05T15:36:00,2025-04-05T15:37:00,2.00
12,Amazon_Forest,2025-04-06T03:37:00,2025-04-06T03:39:00,3.00
12,Amazon_Forest,2025-04-06T15:35:00,2025-04-06T15:37:00,3.00
12,Amazon_Forest,2025-04-07T03:37:00,2025-04-07T03:39:00,3.00
12,Amazon_Forest,2025-04-07T15:35:00,2025-04-07T15:37:00,3.00
12,Amazon_Forest,2025-04-08T03:37:00,2025-04-08T03:38:00,2.00
12,Amazon_Forest,2025-04-08T15:35:00,2025-04-08T15:36:00,2.00
12,Amazon_Forest,2025-04-09T03:37:00,2025-04-09T03:38:00,2.00
13,Amazon_Forest,2025-03-30T05:07:00,2025-03-30T05:08:00,2.00
13,Amazon_Forest,2025-04-05T15:27:00,2025-04-05T15:27:00,1.00
13,Amazon_Forest,2025-04-06T03:28:00,2025-04-06T03:29:00,2.00
13,Amazon_Forest,2025-04-06T15:26:00,2025-04-06T15:27:00,2.00
13,Amazon_Forest,2025-04-07T03:27:00,2025-04-07T03:29:00,3.00
13,Amazon_Forest,2025-04-07T15:25:00,2025-04-07T15:27:00,3.00
13,Amazon_Forest,2025-04-08T03:27:00,2025-04-08T03:29:00,3.00
13,Amazon_Forest,2025-04-08T15:25:00,2025-04-08T15:27:00,3.00
13,Amazon_Forest,2025-04-09T03:27:00,2025-04-09T03:28:00,2.00
13,Amazon_Forest,2025-04-09T15:25:00,2025-04-09T15:26:00,2.00
13,Amazon_Forest,2025-04-10T03:27:00,2025-04-10T03:28:00,2.00
14,Amazon_Forest,2025-03-30T04:57:00,2025-03-30T04:59:00,3.00
14,Amazon_Forest,2025-03-30T16:55:00,2025-03-30T16:57:00,3.00
14,Amazon_Forest,2025-03-31T04:57:00,2025-03-31T04:58:00,2.00
14,Amazon_Forest,2025-04-07T15:16:00,2025-04-07T15:17:00,2.00
14,Amazon_Forest,2025-04-08T03:17:00,2025-04-08T03:19:00,3.00
14,Amazon_Forest,2025-04-08T15:15:00,2025-04-08T15:17:00,3.00
14,Amazon_Forest,2025-04-09T03:17:00,2025-04-09T03:19:00,3.00
14,Amazon_Forest,2025-04-09T15:15:00,2025-04-09T15:17:00,3.00
14,Amazon_Forest,2025-04-10T03:17:00,2025-04-10T03:18:00,2.00
14,Amazon_Forest,2025-04-10T15:15:00,2025-04-10T15:16:00,2.00
14,Amazon_Forest,2025-04-11T03:16:00,2025-04-11T03:18:00,3.00
14,Amazon_Forest,2025-04-11T15:15:00,2025-04-11T15:15:00,1.00
15,Amazon_Forest,2025-03-30T04:47:00,2025-03-30T04:49:00,3.00
15,Amazon_Forest,2025-03-30T16:45:00,2025-03-30T16:47:00,3.00
15,Amazon_Forest,2025-03-31T04:47:00,2025-03-31T04:49:00,3.00
15,Amazon_Forest,2025-03-31T16:45:00,2025-03-31T16:47:00,3.00
15,Amazon_Forest,2025-04-01T04:47:00,2025-04-01T04:48:00,2.00
15,Amazon_Forest,2025-04-08T15:06:00,2025-04-08T15:07:00,2.00
15,Amazon_Forest,2025-04-09T03:07:00,2025-04-09T03:09:00,3.00
15,Amazon_Forest,2025-04-09T15:05:00,2025-04-09T15:07:00,3.00
15,Amazon_Forest,2025-04-10T03:07:00,2025-04-10T03:09:00,3.00
15,Amazon_Forest,2025-04-10T15:05:00,2025-04-10T15:07:00,3.00
15,Amazon_Forest,2025-04-11T03:07:00,2025-04-11T03:08:00,2.00
15,Amazon_Forest,2025-04-11T15:05:00,2025-04-11T15:06:00,2.00
15,Amazon_Forest,2025-04-12T03:06:00,2025-04-12T03:08:00,3.00
15,Amazon_Forest,2025-04-12T15:05:00,2025-04-12T15:05:00,1.00
16,Amazon_Forest,2025-03-30T04:38:00,2025-03-30T04:39:00,2.00
16,Amazon_Forest,2025-03-30T16:36:00,2025-03-30T16:38:00,3.00
16,Amazon_Forest,2025-03-31T04:37:00,2025-03-31T04:39:00,3.00
16,Amazon_Forest,2025-03-31T16:35:00,2025-03-31T16:37:00,3.00
16,Amazon_Forest,2025-04-01T04:37:00,2025-04-01T04:39:00,3.00
16,Amazon_Forest,2025-04-01T16:35:00,2025-04-01T16:37:00,3.00
16,Amazon_Forest,2025-04-02T04:37:00,2025-04-02T04:38:00,2.00
16,Amazon_Forest,2025-04-02T16:36:00,2025-04-02T16:36:00,1.00
16,Amazon_Forest,2025-04-09T14:56:00,2025-04-09T14:57:00,2.00
16,Amazon_Forest,2025-04-10T02:58:00,2025-04-10T02:59:00,2.00
16,Amazon_Forest,2025-04-10T14:55:00,2025-04-10T14:57:00,3.00
16,Amazon_Forest,2025-04-11T02:57:00,2025-04-11T02:59:00,3.00
16,Amazon_Forest,2025-04-11T14:55:00,2025-04-11T14:57:00,3.00
16,Amazon_Forest,2025-04-12T02:56:00,2025-04-12T02:58:00,3.00
16,Amazon_Forest,2025-04-12T14:55:00,2025-04-12T14:56:00,2.00
17,Amazon_Forest,2025-03-30T16:27:00,2025-03-30T16:28:00,2.00
17,Amazon_Forest,2025-03-31T04:28:00,2025-03-31T04:29:00,2.00
17,Amazon_Forest,2025-03-31T16:26:00,2025-03-31T16:28:00,3.00
17,Amazon_Forest,2025-04-01T04:27:00,2025-04-01T04:29:00,3.00
17,Amazon_Forest,2025-04-01T16:25:00,2025-04-01T16:27:00,3.00
17,Amazon_Forest,2025-04-02T04:27:00,2025-04-02T04:29:00,3.00
17,Amazon_Forest,2025-04-02T16:25:00,2025-04-02T16:27:00,3.00
17,Amazon_Forest,2025-04-03T04:27:00,2025-04-03T04:28:00,2.00
17,Amazon_Forest,2025-04-03T16:26:00,2025-04-03T16:26:00,1.00
17,Amazon_Forest,2025-04-04T04:27:00,2025-04-04T04:27:00,1.00
17,Amazon_Forest,2025-04-10T14:46:00,2025-04-10T14:47:00,2.00
17,Amazon_Forest,2025-04-11T02:48:00,2025-04-11T02:49:00,2.00
17,Amazon_Forest,2025-04-11T14:45:00,2025-04-11T14:47:00,3.00
17,Amazon_Forest,2025-04-12T02:47:00,2025-04-12T02:49:00,3.00
17,Amazon_Forest,2025-04-12T14:45:00,2025-04-12T14:47:00,3.00
18,Amazon_Forest,2025-03-31T16:17:00,2025-03-31T16:17:00,1.00
18,Amazon_Forest,2025-04-01T04:18:00,2025-04-01T04:19:00,2.00
18,Amazon_Forest,2025-04-01T16:16:00,2025-04-01T16:17:00,2.00
18,Amazon_Forest,2025-04-02T04:17:00,2025-04-02T04:19:00,3.00
18,Amazon_Forest,2025-04-02T16:15:00,2025-04-02T16:17:00,3.00
18,Amazon_Forest,2025-04-03T04:17:00,2025-04-03T04:19:00,3.00
18,Amazon_Forest,2025-04-03T16:15:00,2025-04-03T16:17:00,3.00
18,Amazon_Forest,2025-04-04T04:17:00,2025-04-04T04:18:00,2.00
18,Amazon_Forest,2025-04-04T16:15:00,2025-04-04T16:16:00,2.00
18,Amazon_Forest,2025-04-05T04:17:00,2025-04-05T04:17:00,1.00
18,Amazon_Forest,2025-04-11T14:36:00,2025-04-11T14:37:00,2.00
18,Amazon_Forest,2025-04-12T02:38:00,2025-04-12T02:38:00,1.00
18,Amazon_Forest,2025-04-12T14:35:00,2025-04-12T14:37:00,3.00
19,Amazon_Forest,2025-04-01T16:07:00,2025-04-01T16:07:00,1.00
19,Amazon_Forest,2025-04-02T04:08:00,2025-04-02T04:09:00,2.00
19,Amazon_Forest,2025-04-02T16:06:00,2025-04-02T16:07:00,2.00
19,Amazon_Forest,2025-04-03T04:07:00,2025-04-03T04:09:00,3.00
19,Amazon_Forest,2025-04-03T16:05:00,2025-04-03T16:07:00,3.00
19,Amazon_Forest,2025-04-04T04:07:00,2025-04-04T04:09:00,3.00
19,Amazon_Forest,2025-04-04T16:05:00,2025-04-04T16:07:00,3.00
19,Amazon_Forest,2025-04-05T04:07:00,2025-04-05T04:08:00,2.00
19,Amazon_Forest,2025-04-05T16:05:00,2025-04-05T16:06:00,2.00
19,Amazon_Forest,2025-04-06T04:07:00,2025-04-06T04:07:00,1.00
19,Amazon_Forest,2025-04-12T14:26:00,2025-04-12T14:27:00,2.00
20,Amazon_Forest,2025-03-30T17:33:00,2025-03-30T17:34:00,2.00
20,Amazon_Forest,2025-03-31T05:34:00,2025-03-31T05:35:00,2.00
20,Amazon_Forest,2025-03-31T17:32:00,2025-03-31T17:34:00,3.00
20,Amazon_Forest,2025-04-01T05:33:00,2025-04-01T05:35:00,3.00
20,Amazon_Forest,2025-04-01T17:31:00,2025-04-01T17:33:00,3.00
20,Amazon_Forest,2025-04-02T05:33:00,2025-04-02T05:34:00,2.00
20,Amazon_Forest,2025-04-06T15:51:00,2025-04-06T15:52:00,2.00
20,Amazon_Forest,2025-04-07T03:53:00,2025-04-07T03:53:00,1.00
20,Amazon_Forest,2025-04-07T15:50:00,2025-04-07T15:52:00,3.00
20,Amazon_Forest,2025-04-08T03:51:00,2025-04-08T03:53:00,3.00
20,Amazon_Forest,2025-04-08T15:49:00,2025-04-08T15:51:00,3.00
20,Amazon_Forest,2025-04-09T03:51:00,2025-04-09T03:52:00,2.00
20,Amazon_Forest,2025-04-10T03:51:00,2025-04-10T03:51:00,1.00
21,Amazon_Forest,2025-03-31T17:22:00,2025-03-31T17:24:00,3.00
21,Amazon_Forest,2025-04-01T05:24:00,2025-04-01T05:25:00,2.00
21,Amazon_Forest,2025-04-01T17:21:00,2025-04-01T17:23:00,3.00
21,Amazon_Forest,2025-04-02T05:23:00,2025-04-02T05:25:00,3.00
21,Amazon_Forest,2025-04-02T17:21:00,2025-04-02T17:22:00,2.00
21,Amazon_Forest,2025-04-03T05:23:00,2025-04-03T05:24:00,2.00
21,Amazon_Forest,2025-04-07T15:40:00,2025-04-07T15:41:00,2.00
21,Amazon_Forest,2025-04-08T03:42:00,2025-04-08T03:43:00,2.00
21,Amazon_Forest,2025-04-08T15:39:00,2025-04-08T15:41:00,3.00
21,Amazon_Forest,2025-04-09T03:41:00,2025-04-09T03:43:00,3.00
21,Amazon_Forest,2025-04-09T15:39:00,2025-04-09T15:40:00,2.00
21,Amazon_Forest,2025-04-10T03:40:00,2025-04-10T03:42:00,3.00
22,Amazon_Forest,2025-03-31T17:13:00,2025-03-31T17:13:00,1.00
22,Amazon_Forest,2025-04-01T17:12:00,2025-04-01T17:13:00,2.00
22,Amazon_Forest,2025-04-02T05:13:00,2025-04-02T05:15:00,3.00
22,Amazon_Forest,2025-04-02T17:11:00,2025-04-02T17:13:00,3.00
22,Amazon_Forest,2025-04-03T05:12:00,2025-04-03T05:14:00,3.00
22,Amazon_Forest,2025-04-03T17:11:00,2025-04-03T17:11:00,1.00
22,Amazon_Forest,2025-04-04T05:12:00,2025-04-04T05:13:00,2.00
22,Amazon_Forest,2025-04-08T15:30:00,2025-04-08T15:31:00,2.00
22,Amazon_Forest,2025-04-09T03:31:00,2025-04-09T03:33:00,3.00
22,Amazon_Forest,2025-04-09T15:29:00,2025-04-09T15:31:00,3.00
22,Amazon_Forest,2025-04-10T03:30:00,2025-04-10T03:32:00,3.00
22,Amazon_Forest,2025-04-10T15:29:00,2025-04-10T15:30:00,2.00
22,Amazon_Forest,2025-04-11T03:30:00,2025-04-11T03:31:00,2.00
23,Amazon_Forest,2025-04-01T17:02:00,2025-04-01T17:03:00,2.00
23,Amazon_Forest,2025-04-02T05:04:00,2025-04-02T05:04:00,1.00
23,Amazon_Forest,2025-04-02T17:01:00,2025-04-02T17:03:00,3.00
23,Amazon_Forest,2025-04-03T05:03:00,2025-04-03T05:04:00,2.00
23,Amazon_Forest,2025-04-03T17:01:00,2025-04-03T17:02:00,2.00
23,Amazon_Forest,2025-04-04T05:02:00,2025-04-04T05:04:00,3.00
23,Amazon_Forest,2025-04-05T05:02:00,2025-04-05T05:02:00,1.00
23,Amazon_Forest,2025-04-08T15:21:00,2025-04-08T15:21:00,1.00
23,Amazon_Forest,2025-04-09T15:19:00,2025-04-09T15:21:00,3.00
23,Amazon_Forest,2025-04-10T03:21:00,2025-04-10T03:22:00,2.00
23,Amazon_Forest,2025-04-10T15:19:00,2025-04-10T15:20:00,2.00
23,Amazon_Forest,2025-04-11T03:20:00,2025-04-11T03:22:00,3.00
23,Amazon_Forest,2025-04-11T15:19:00,2025-04-11T15:19:00,1.00
23,Amazon_Forest,2025-04-12T03:20:00,2025-04-12T03:21:00,2.00
24,Amazon_Forest,2025-04-02T16:52:00,2025-04-02T16:53:00,2.00
24,Amazon_Forest,2025-04-03T04:53:00,2025-04-03T04:54:00,2.00
24,Amazon_Forest,2025-04-03T16:51:00,2025-04-03T16:53:00,3.00
24,Amazon_Forest,2025-04-04T04:52:00,2025-04-04T04:54:00,3.00
24,Amazon_Forest,2025-04-04T16:50:00,2025-04-04T16:52:00,3.00
24,Amazon_Forest,2025-04-05T04:52:00,2025-04-05T04:53:00,2.00
24,Amazon_Forest,2025-04-09T15:10:00,2025-04-09T15:11:00,2.00
24,Amazon_Forest,2025-04-10T03:12:00,2025-04-10T03:12:00,1.00
24,Amazon_Forest,2025-04-10T15:09:00,2025-04-10T15:11:00,3.00
24,Amazon_Forest,2025-04-11T03:10:00,2025-04-11T03:12:00,3.00
24,Amazon_Forest,2025-04-11T15:08:00,2025-04-11T15:10:00,3.00
24,Amazon_Forest,2025-04-12T03:10:00,2025-04-12T03:12:00,3.00
25,Amazon_Forest,2025-03-30T06:24:00,2025-03-30T06:24:00,1.00
25,Amazon_Forest,2025-04-03T16:41:00,2025-04-03T16:43:00,3.00
25,Amazon_Forest,2025-04-04T04:43:00,2025-04-04T04:44:00,2.00
25,Amazon_Forest,2025-04-04T16:40:00,2025-04-04T16:42:00,3.00
25,Amazon_Forest,2025-04-05T04:42:00,2025-04-05T04:44:00,3.00
25,Amazon_Forest,2025-04-05T16:40:00,2025-04-05T16:41:00,2.00
25,Amazon_Forest,2025-04-06T04:42:00,2025-04-06T04:43:00,2.00
25,Amazon_Forest,2025-04-10T14:59:00,2025-04-10T15:01:00,3.00
25,Amazon_Forest,2025-04-11T03:01:00,2025-04-11T03:02:00,2.00
25,Amazon_Forest,2025-04-11T14:58:00,2025-04-11T15:00:00,3.00
25,Amazon_Forest,2025-04-12T03:00:00,2025-04-12T03:02:00,3.00
25,Amazon_Forest,2025-04-12T14:58:00,2025-04-12T15:00:00,3.00
26,Amazon_Forest,2025-03-30T06:14:00,2025-03-30T06:15:00,2.00
26,Amazon_Forest,2025-04-03T16:32:00,2025-04-03T16:32:00,1.00
26,Amazon_Forest,2025-04-04T04:34:00,2025-04-04T04:34:00,1.00
26,Amazon_Forest,2025-04-04T16:31:00,2025-04-04T16:32:00,2.00
26,Amazon_Forest,2025-04-05T04:32:00,2025-04-05T04:34:00,3.00
26,Amazon_Forest,2025-04-05T16:30:00,2025-04-05T16:32:00,3.00
26,Amazon_Forest,2025-04-06T04:32:00,2025-04-06T04:33:00,2.00
26,Amazon_Forest,2025-04-06T16:30:00,2025-04-06T16:30:00,1.00
26,Amazon_Forest,2025-04-07T04:32:00,2025-04-07T04:32:00,1.00
26,Amazon_Forest,2025-04-11T14:49:00,2025-04-11T14:50:00,2.00
26,Amazon_Forest,2025-04-12T02:50:00,2025-04-12T02:52:00,3.00
26,Amazon_Forest,2025-04-12T14:48:00,2025-04-12T14:50:00,3.00
27,Amazon_Forest,2025-03-30T06:04:00,2025-03-30T06:06:00,3.00
27,Amazon_Forest,2025-03-30T18:02:00,2025-03-30T18:03:00,2.00
27,Amazon_Forest,2025-03-31T06:03:00,2025-03-31T06:05:00,3.00
27,Amazon_Forest,2025-04-04T16:21:00,2025-04-04T16:22:00,2.00
27,Amazon_Forest,2025-04-05T04:23:00,2025-04-05T04:24:00,2.00
27,Amazon_Forest,2025-04-05T16:20:00,2025-04-05T16:22:00,3.00
27,Amazon_Forest,2025-04-06T04:22:00,2025-04-06T04:24:00,3.00
27,Amazon_Forest,2025-04-06T16:20:00,2025-04-06T16:21:00,2.00
27,Amazon_Forest,2025-04-07T04:21:00,2025-04-07T04:23:00,3.00
27,Amazon_Forest,2025-04-11T14:40:00,2025-04-11T14:40:00,1.00
27,Amazon_Forest,2025-04-12T14:38:00,2025-04-12T14:40:00,3.00
28,Amazon_Forest,2025-03-30T05:54:00,2025-03-30T05:56:00,3.00
28,Amazon_Forest,2025-03-30T17:52:00,2025-03-30T17:54:00,3.00
28,Amazon_Forest,2025-03-31T05:53:00,2025-03-31T05:55:00,3.00
28,Amazon_Forest,2025-03-31T17:52:00,2025-03-31T17:52:00,1.00
28,Amazon_Forest,2025-04-01T05:53:00,2025-04-01T05:54:00,2.00
28,Amazon_Forest,2025-04-05T16:11:00,2025-04-05T16:12:00,2.00
28,Amazon_Forest,2025-04-06T04:12:00,2025-04-06T04:13:00,2.00
28,Amazon_Forest,2025-04-06T16:10:00,2025-04-06T16:12:00,3.00
28,Amazon_Forest,2025-04-07T04:11:00,2025-04-07T04:13:00,3.00
28,Amazon_Forest,2025-04-07T16:10:00,2025-04-07T16:11:00,2.00
28,Amazon_Forest,2025-04-08T04:11:00,2025-04-08T04:12:00,2.00
28,Amazon_Forest,2025-04-12T14:29:00,2025-04-12T14:30:00,2.00
29,Amazon_Forest,2025-03-30T05:45:00,2025-03-30T05:45:00,1.00
29,Amazon_Forest,2025-03-30T17:42:00,2025-03-30T17:44:00,3.00
29,Amazon_Forest,2025-03-31T05:44:00,2025-03-31T05:45:00,2.00
29,Amazon_Forest,2025-03-31T17:42:00,2025-03-31T17:43:00,2.00
29,Amazon_Forest,2025-04-01T05:43:00,2025-04-01T05:45:00,3.00
29,Amazon_Forest,2025-04-02T05:43:00,2025-04-02T05:43:00,1.00
29,Amazon_Forest,2025-04-06T16:00:00,2025-04-06T16:02:00,3.00
29,Amazon_Forest,2025-04-07T04:02:00,2025-04-07T04:03:00,2.00
29,Amazon_Forest,2025-04-07T16:00:00,2025-04-07T16:01:00,2.00
29,Amazon_Forest,2025-04-08T04:01:00,2025-04-08T04:03:00,3.00
29,Amazon_Forest,2025-04-08T16:00:00,2025-04-08T16:00:00,1.00
29,Amazon_Forest,2025-04-09T04:01:00,2025-04-09T04:02:00,2.00
30,Amazon_Forest,2025-03-30T07:10:00,2025-03-30T07:12:00,3.00
30,Amazon_Forest,2025-03-30T19:08:00,2025-03-30T19:10:00,3.00
30,Amazon_Forest,2025-03-31T07:10:00,2025-03-31T07:11:00,2.00
30,Amazon_Forest,2025-04-01T07:10:00,2025-04-01T07:10:00,1.00
30,Amazon_Forest,2025-04-04T17:28:00,2025-04-04T17:28:00,1.00
30,Amazon_Forest,2025-04-05T17:27:00,2025-04-05T17:29:00,3.00
30,Amazon_Forest,2025-04-06T05:28:00,2025-04-06T05:30:00,3.00
30,Amazon_Forest,2025-04-06T17:26:00,2025-04-06T17:28:00,3.00
30,Amazon_Forest,2025-04-07T05:28:00,2025-04-07T05:30:00,3.00
30,Amazon_Forest,2025-04-07T17:26:00,2025-04-07T17:27:00,2.00
30,Amazon_Forest,2025-04-08T05:28:00,2025-04-08T05:28:00,1.00
30,Amazon_Forest,2025-04-12T15:45:00,2025-04-12T15:47:00,3.00
31,Amazon_Forest,2025-03-30T07:01:00,2025-03-30T07:02:00,2.00
31,Amazon_Forest,2025-03-30T18:58:00,2025-03-30T19:00:00,3.00
31,Amazon_Forest,2025-03-31T07:00:00,2025-03-31T07:02:00,3.00
31,Amazon_Forest,2025-03-31T18:58:00,2025-03-31T18:59:00,2.00
31,Amazon_Forest,2025-04-01T07:00:00,2025-04-01T07:01:00,2.00
31,Amazon_Forest,2025-04-05T17:18:00,2025-04-05T17:18:00,1.00
31,Amazon_Forest,2025-04-06T05:19:00,2025-04-06T05:20:00,2.00
31,Amazon_Forest,2025-04-06T17:17:00,2025-04-06T17:18:00,2.00
31,Amazon_Forest,2025-04-07T05:18:00,2025-04-07T05:20:00,3.00
31,Amazon_Forest,2025-04-07T17:16:00,2025-04-07T17:18:00,3.00
31,Amazon_Forest,2025-04-08T05:17:00,2025-04-08T05:19:00,3.00
31,Amazon_Forest,2025-04-09T05:18:00,2025-04-09T05:18:00,1.00
31,Amazon_Forest,2025-04-12T15:36:00,2025-04-12T15:36:00,1.00
32,Amazon_Forest,2025-03-30T18:49:00,2025-03-30T18:50:00,2.00
32,Amazon_Forest,2025-03-31T06:50:00,2025-03-31T06:52:00,3.00
32,Amazon_Forest,2025-03-31T18:48:00,2025-03-31T18:50:00,3.00
32,Amazon_Forest,2025-04-01T06:50:00,2025-04-01T06:51:00,2.00
32,Amazon_Forest,2025-04-01T18:48:00,2025-04-01T18:49:00,2.00
32,Amazon_Forest,2025-04-02T06:49:00,2025-04-02T06:50:00,2.00
32,Amazon_Forest,2025-04-06T17:07:00,2025-04-06T17:08:00,2.00
32,Amazon_Forest,2025-04-07T05:09:00,2025-04-07T05:10:00,2.00
32,Amazon_Forest,2025-04-07T17:06:00,2025-04-07T17:08:00,3.00
32,Amazon_Forest,2025-04-08T05:08:00,2025-04-08T05:09:00,2.00
32,Amazon_Forest,2025-04-08T17:06:00,2025-04-08T17:07:00,2.00
32,Amazon_Forest,2025-04-09T05:07:00,2025-04-09T05:09:00,3.00
33,Amazon_Forest,2025-03-30T18:40:00,2025-03-30T18:40:00,1.00
33,Amazon_Forest,2025-03-31T06:41:00,2025-03-31T06:41:00,1.00
33,Amazon_Forest,2025-03-31T18:38:00,2025-03-31T18:40:00,3.00
33,Amazon_Forest,2025-04-01T06:40:00,2025-04-01T06:42:00,3.00
33,Amazon_Forest,2025-04-01T18:38:00,2025-04-01T18:39:00,2.00
33,Amazon_Forest,2025-04-02T06:39:00,2025-04-02T06:41:00,3.00
33,Amazon_Forest,2025-04-02T18:38:00,2025-04-02T18:38:00,1.00
33,Amazon_Forest,2025-04-03T06:39:00,2025-04-03T06:40:00,2.00
33,Amazon_Forest,2025-04-07T16:56:00,2025-04-07T16:58:00,3.00
33,Amazon_Forest,2025-04-08T04:58:00,2025-04-08T04:59:00,2.00
33,Amazon_Forest,2025-04-08T16:56:00,2025-04-08T16:58:00,3.00
33,Amazon_Forest,2025-04-09T04:57:00,2025-04-09T04:59:00,3.00
33,Amazon_Forest,2025-04-09T16:56:00,2025-04-09T16:57:00,2.00
33,Amazon_Forest,2025-04-10T04:57:00,2025-04-10T04:58:00,2.00
34,Amazon_Forest,2025-03-31T18:29:00,2025-03-31T18:30:00,2.00
34,Amazon_Forest,2025-04-01T06:30:00,2025-04-01T06:31:00,2.00
34,Amazon_Forest,2025-04-01T18:28:00,2025-04-01T18:30:00,3.00
34,Amazon_Forest,2025-04-02T06:29:00,2025-04-02T06:31:00,3.00
34,Amazon_Forest,2025-04-02T18:28:00,2025-04-02T18:29:00,2.00
34,Amazon_Forest,2025-04-03T06:29:00,2025-04-03T06:30:00,2.00
34,Amazon_Forest,2025-04-07T16:47:00,2025-04-07T16:48:00,2.00
34,Amazon_Forest,2025-04-08T04:49:00,2025-04-08T04:49:00,1.00
34,Amazon_Forest,2025-04-08T16:46:00,2025-04-08T16:48:00,3.00
34,Amazon_Forest,2025-04-09T04:48:00,2025-04-09T04:49:00,2.00
34,Amazon_Forest,2025-04-09T16:45:00,2025-04-09T16:47:00,3.00
34,Amazon_Forest,2025-04-10T04:47:00,2025-04-10T04:49:00,3.00
34,Amazon_Forest,2025-04-10T16:46:00,2025-04-10T16:46:00,1.00
34,Amazon_Forest,2025-04-11T04:47:00,2025-04-11T04:47:00,1.00
35,Amazon_Forest,2025-04-01T18:18:00,2025-04-01T18:20:00,3.00
35,Amazon_Forest,2025-04-02T06:20:00,2025-04-02T06:21:00,2.00
35,Amazon_Forest,2025-04-02T18:18:00,2025-04-02T18:19:00,2.00
35,Amazon_Forest,2025-04-03T06:19:00,2025-04-03T06:21:00,3.00
35,Amazon_Forest,2025-04-03T18:17:00,2025-04-03T18:18:00,2.00
35,Amazon_Forest,2025-04-04T06:19:00,2025-04-04T06:20:00,2.00
35,Amazon_Forest,2025-04-08T16:37:00,2025-04-08T16:38:00,2.00
35,Amazon_Forest,2025-04-09T04:38:00,2025-04-09T04:39:00,2.00
35,Amazon_Forest,2025-04-09T16:36:00,2025-04-09T16:37:00,2.00
35,Amazon_Forest,2025-04-10T04:37:00,2025-04-10T04:39:00,3.00
35,Amazon_Forest,2025-04-10T16:35:00,2025-04-10T16:37:00,3.00
35,Amazon_Forest,2025-04-11T04:37:00,2025-04-11T04:38:00,2.00
36,Amazon_Forest,2025-04-01T18:09:00,2025-04-01T18:09:00,1.00
36,Amazon_Forest,2025-04-02T18:08:00,2025-04-02T18:10:00,3.00
36,Amazon_Forest,2025-04-03T06:09:00,2025-04-03T06:11:00,3.00
36,Amazon_Forest,2025-04-03T18:07:00,2025-04-03T18:09:00,3.00
36,Amazon_Forest,2025-04-04T06:09:00,2025-04-04T06:10:00,2.00
36,Amazon_Forest,2025-04-04T18:07:00,2025-04-04T18:08:00,2.00
36,Amazon_Forest,2025-04-05T06:09:00,2025-04-05T06:09:00,1.00
36,Amazon_Forest,2025-04-09T16:26:00,2025-04-09T16:27:00,2.00
36,Amazon_Forest,2025-04-10T04:28:00,2025-04-10T04:29:00,2.00
36,Amazon_Forest,2025-04-10T16:25:00,2025-04-10T16:27:00,3.00
36,Amazon_Forest,2025-04-11T04:27:00,2025-04-11T04:29:00,3.00
36,Amazon_Forest,2025-04-11T16:25:00,2025-04-11T16:26:00,2.00
36,Amazon_Forest,2025-04-12T04:26:00,2025-04-12T04:28:00,3.00
37,Amazon_Forest,2025-04-02T17:59:00,2025-04-02T17:59:00,1.00
37,Amazon_Forest,2025-04-03T06:00:00,2025-04-03T06:01:00,2.00
37,Amazon_Forest,2025-04-03T17:57:00,2025-04-03T17:59:00,3.00
37,Amazon_Forest,2025-04-04T05:59:00,2025-04-04T06:01:00,3.00
37,Amazon_Forest,2025-04-04T17:57:00,2025-04-04T17:59:00,3.00
37,Amazon_Forest,2025-04-05T05:58:00,2025-04-05T06:00:00,3.00
37,Amazon_Forest,2025-04-05T17:57:00,2025-04-05T17:57:00,1.00
37,Amazon_Forest,2025-04-06T05:59:00,2025-04-06T05:59:00,1.00
37,Amazon_Forest,2025-04-10T16:16:00,2025-04-10T16:17:00,2.00
37,Amazon_Forest,2025-04-11T04:17:00,2025-04-11T04:19:00,3.00
37,Amazon_Forest,2025-04-11T16:15:00,2025-04-11T16:17:00,3.00
37,Amazon_Forest,2025-04-12T04:16:00,2025-04-12T04:18:00,3.00
37,Amazon_Forest,2025-04-12T16:15:00,2025-04-12T16:16:00,2.00
38,Amazon_Forest,2025-03-30T07:30:00,2025-03-30T07:31:00,2.00
38,Amazon_Forest,2025-04-03T17:48:00,2025-04-03T17:49:00,2.00
38,Amazon_Forest,2025-04-04T05:49:00,2025-04-04T05:50:00,2.00
38,Amazon_Forest,2025-04-04T17:47:00,2025-04-04T17:49:00,3.00
38,Amazon_Forest,2025-04-05T05:48:00,2025-04-05T05:50:00,3.00
38,Amazon_Forest,2025-04-05T17:47:00,2025-04-05T17:48:00,2.00
38,Amazon_Forest,2025-04-06T05:48:00,2025-04-06T05:50:00,3.00
38,Amazon_Forest,2025-04-10T16:06:00,2025-04-10T16:07:00,2.00
38,Amazon_Forest,2025-04-11T04:08:00,2025-04-11T04:08:00,1.00
38,Amazon_Forest,2025-04-11T16:05:00,2025-04-11T16:07:00,3.00
38,Amazon_Forest,2025-04-12T04:07:00,2025-04-12T04:08:00,2.00
38,Amazon_Forest,2025-04-12T16:05:00,2025-04-12T16:06:00,2.00
39,Amazon_Forest,2025-03-30T07:20:00,2025-03-30T07:22:00,3.00
39,Amazon_Forest,2025-03-30T19:19:00,2025-03-30T19:19:00,1.00
39,Amazon_Forest,2025-03-31T07:20:00,2025-03-31T07:21:00,2.00
39,Amazon_Forest,2025-04-04T17:37:00,2025-04-04T17:39:00,3.00
39,Amazon_Forest,2025-04-05T05:39:00,2025-04-05T05:40:00,2.00
39,Amazon_Forest,2025-04-05T17:37:00,2025-04-05T17:39:00,3.00
39,Amazon_Forest,2025-04-06T05:38:00,2025-04-06T05:40:00,3.00
39,Amazon_Forest,2025-04-06T17:36:00,2025-04-06T17:37:00,2.00
39,Amazon_Forest,2025-04-07T05:38:00,2025-04-07T05:39:00,2.00
39,Amazon_Forest,2025-04-11T15:56:00,2025-04-11T15:57:00,2.00
39,Amazon_Forest,2025-04-12T03:57:00,2025-04-12T03:58:00,2.00
39,Amazon_Forest,2025-04-12T15:55:00,2025-04-12T15:57:00,3.00
40,Amazon_Forest,2025-03-30T08:47:00,2025-03-30T08:47:00,1.00
40,Amazon_Forest,2025-04-03T19:04:00,2025-04-03T19:06:00,3.00
40,Amazon_Forest,2025-04-04T07:06:00,2025-04-04T07:07:00,2.00
40,Amazon_Forest,2025-04-04T19:03:00,2025-04-04T19:05:00,3.00
40,Amazon_Forest,2025-04-05T07:05:00,2025-04-05T07:07:00,3.00
40,Amazon_Forest,2025-04-05T19:03:00,2025-04-05T19:04:00,2.00
40,Amazon_Forest,2025-04-06T07:05:00,2025-04-06T07:06:00,2.00
40,Amazon_Forest,2025-04-10T17:22:00,2025-04-10T17:24:00,3.00
40,Amazon_Forest,2025-04-11T05:24:00,2025-04-11T05:25:00,2.00
40,Amazon_Forest,2025-04-11T17:21:00,2025-04-11T17:23:00,3.00
40,Amazon_Forest,2025-04-12T05:23:00,2025-04-12T05:25:00,3.00
40,Amazon_Forest,2025-04-12T17:21:00,2025-04-12T17:22:00,2.00
41,Amazon_Forest,2025-03-30T08:37:00,2025-03-30T08:38:00,2.00
41,Amazon_Forest,2025-04-03T18:55:00,2025-04-03T18:55:00,1.00
41,Amazon_Forest,2025-04-04T06:57:00,2025-04-04T06:57:00,1.00
41,Amazon_Forest,2025-04-04T18:54:00,2025-04-04T18:55:00,2.00
41,Amazon_Forest,2025-04-05T06:55:00,2025-04-05T06:57:00,3.00
41,Amazon_Forest,2025-04-05T18:53:00,2025-04-05T18:55:00,3.00
41,Amazon_Forest,2025-04-06T06:55:00,2025-04-06T06:56:00,2.00
41,Amazon_Forest,2025-04-06T18:53:00,2025-04-06T18:53:00,1.00
41,Amazon_Forest,2025-04-07T06:55:00,2025-04-07T06:55:00,1.00
41,Amazon_Forest,2025-04-11T17:12:00,2025-04-11T17:13:00,2.00
41,Amazon_Forest,2025-04-12T05:13:00,2025-04-12T05:15:00,3.00
41,Amazon_Forest,2025-04-12T17:11:00,2025-04-12T17:13:00,3.00
42,Amazon_Forest,2025-03-30T08:27:00,2025-03-30T08:28:00,2.00
42,Amazon_Forest,2025-03-30T20:25:00,2025-03-30T20:26:00,2.00
42,Amazon_Forest,2025-03-31T08:26:00,2025-03-31T08:28:00,3.00
42,Amazon_Forest,2025-04-04T18:44:00,2025-04-04T18:45:00,2.00
42,Amazon_Forest,2025-04-05T06:46:00,2025-04-05T06:47:00,2.00
42,Amazon_Forest,2025-04-05T18:43:00,2025-04-05T18:45:00,3.00
42,Amazon_Forest,2025-04-06T06:45:00,2025-04-06T06:47:00,3.00
42,Amazon_Forest,2025-04-06T18:43:00,2025-04-06T18:44:00,2.00
42,Amazon_Forest,2025-04-07T06:44:00,2025-04-07T06:46:00,3.00
42,Amazon_Forest,2025-04-11T17:03:00,2025-04-11T17:03:00,1.00
42,Amazon_Forest,2025-04-12T05:04:00,2025-04-12T05:04:00,1.00
42,Amazon_Forest,2025-04-12T17:01:00,2025-04-12T17:03:00,3.00
43,Amazon_Forest,2025-03-30T08:17:00,2025-03-30T08:19:00,3.00
43,Amazon_Forest,2025-03-30T20:15:00,2025-03-30T20:17:00,3.00
43,Amazon_Forest,2025-03-31T08:16:00,2025-03-31T08:18:00,3.00
43,Amazon_Forest,2025-03-31T20:15:00,2025-03-31T20:15:00,1.00
43,Amazon_Forest,2025-04-01T08:16:00,2025-04-01T08:17:00,2.00
43,Amazon_Forest,2025-04-05T18:34:00,2025-04-05T18:35:00,2.00
43,Amazon_Forest,2025-04-06T06:35:00,2025-04-06T06:36:00,2.00
43,Amazon_Forest,2025-04-06T18:33:00,2025-04-06T18:35:00,3.00
43,Amazon_Forest,2025-04-07T06:34:00,2025-04-07T06:36:00,3.00
43,Amazon_Forest,2025-04-07T18:33:00,2025-04-07T18:34:00,2.00
43,Amazon_Forest,2025-04-08T06:34:00,2025-04-08T06:35:00,2.00
43,Amazon_Forest,2025-04-12T16:52:00,2025-04-12T16:53:00,2.00
44,Amazon_Forest,2025-03-30T08:08:00,2025-03-30T08:08:00,1.00
44,Amazon_Forest,2025-03-30T20:05:00,2025-03-30T20:07:00,3.00
44,Amazon_Forest,2025-03-31T08:07:00,2025-03-31T08:08:00,2.00
44,Amazon_Forest,2025-03-31T20:05:00,2025-03-31T20:06:00,2.00
44,Amazon_Forest,2025-04-01T08:06:00,2025-04-01T08:08:00,3.00
44,Amazon_Forest,2025-04-02T08:06:00,2025-04-02T08:06:00,1.00
44,Amazon_Forest,2025-04-06T18:23:00,2025-04-06T18:25:00,3.00
44,Amazon_Forest,2025-04-07T06:25:00,2025-04-07T06:26:00,2.00
44,Amazon_Forest,2025-04-07T18:23:00,2025-04-07T18:24:00,2.00
44,Amazon_Forest,2025-04-08T06:24:00,2025-04-08T06:26:00,3.00
44,Amazon_Forest,2025-04-08T18:23:00,2025-04-08T18:23:00,1.00
44,Amazon_Forest,2025-04-09T06:24:00,2025-04-09T06:25:00,2.00
45,Amazon_Forest,2025-03-30T19:56:00,2025-03-30T19:57:00,2.00
45,Amazon_Forest,2025-03-31T07:57:00,2025-03-31T07:58:00,2.00
45,Amazon_Forest,2025-03-31T19:55:00,2025-03-31T19:57:00,3.00
45,Amazon_Forest,2025-04-01T07:56:00,2025-04-01T07:58:00,3.00
45,Amazon_Forest,2025-04-01T19:54:00,2025-04-01T19:56:00,3.00
45,Amazon_Forest,2025-04-02T07:56:00,2025-04-02T07:57:00,2.00
45,Amazon_Forest,2025-04-06T18:14:00,2025-04-06T18:15:00,2.00
45,Amazon_Forest,2025-04-07T06:16:00,2025-04-07T06:16:00,1.00
45,Amazon_Forest,2025-04-07T18:13:00,2025-04-07T18:15:00,3.00
45,Amazon_Forest,2025-04-08T06:14:00,2025-04-08T06:16:00,3.00
45,Amazon_Forest,2025-04-08T18:12:00,2025-04-08T18:14:00,3.00
45,Amazon_Forest,2025-04-09T06:14:00,2025-04-09T06:15:00,2.00
45,Amazon_Forest,2025-04-10T06:14:00,2025-04-10T06:14:00,1.00
46,Amazon_Forest,2025-03-31T19:45:00,2025-03-31T19:47:00,3.00
46,Amazon_Forest,2025-04-01T07:47:00,2025-04-01T07:48:00,2.00
46,Amazon_Forest,2025-04-01T19:44:00,2025-04-01T19:46:00,3.00
46,Amazon_Forest,2025-04-02T07:46:00,2025-04-02T07:48:00,3.00
46,Amazon_Forest,2025-04-02T19:44:00,2025-04-02T19:45:00,2.00
46,Amazon_Forest,2025-04-03T07:45:00,2025-04-03T07:47:00,3.00
46,Amazon_Forest,2025-04-07T18:03:00,2025-04-07T18:04:00,2.00
46,Amazon_Forest,2025-04-08T06:05:00,2025-04-08T06:06:00,2.00
46,Amazon_Forest,2025-04-08T18:02:00,2025-04-08T18:04:00,3.00
46,Amazon_Forest,2025-04-09T06:04:00,2025-04-09T06:06:00,3.00
46,Amazon_Forest,2025-04-09T18:02:00,2025-04-09T18:03:00,2.00
46,Amazon_Forest,2025-04-10T06:03:00,2025-04-10T06:05:00,3.00
47,Amazon_Forest,2025-03-31T19:36:00,2025-03-31T19:36:00,1.00
47,Amazon_Forest,2025-04-01T19:35:00,2025-04-01T19:36:00,2.00
47,Amazon_Forest,2025-04-02T07:36:00,2025-04-02T07:38:00,3.00
47,Amazon_Forest,2025-04-02T19:34:00,2025-04-02T19:36:00,3.00
47,Amazon_Forest,2025-04-03T07:35:00,2025-04-03T07:37:00,3.00
47,Amazon_Forest,2025-04-03T19:34:00,2025-04-03T19:34:00,1.00
47,Amazon_Forest,2025-04-04T07:35:00,2025-04-04T07:36:00,2.00
47,Amazon_Forest,2025-04-08T17:53:00,2025-04-08T17:54:00,2.00
47,Amazon_Forest,2025-04-09T05:54:00,2025-04-09T05:56:00,3.00
47,Amazon_Forest,2025-04-09T17:52:00,2025-04-09T17:54:00,3.00
47,Amazon_Forest,2025-04-10T05:53:00,2025-04-10T05:55:00,3.00
47,Amazon_Forest,2025-04-10T17:52:00,2025-04-10T17:53:00,2.00
47,Amazon_Forest,2025-04-11T05:53:00,2025-04-11T05:54:00,2.00
48,Amazon_Forest,2025-04-01T19:25:00,2025-04-01T19:26:00,2.00
48,Amazon_Forest,2025-04-02T07:27:00,2025-04-02T07:27:00,1.00
48,Amazon_Forest,2025-04-02T19:24:00,2025-04-02T19:26:00,3.00
48,Amazon_Forest,2025-04-03T07:26:00,2025-04-03T07:27:00,2.00
48,Amazon_Forest,2025-04-03T19:24:00,2025-04-03T19:25:00,2.00
48,Amazon_Forest,2025-04-04T07:25:00,2025-04-04T07:27:00,3.00
48,Amazon_Forest,2025-04-08T17:44:00,2025-04-08T17:44:00,1.00
48,Amazon_Forest,2025-04-09T17:42:00,2025-04-09T17:44:00,3.00
48,Amazon_Forest,2025-04-10T05:44:00,2025-04-10T05:45:00,2.00
48,Amazon_Forest,2025-04-10T17:42:00,2025-04-10T17:43:00,2.00
48,Amazon_Forest,2025-04-11T05:43:00,2025-04-11T05:45:00,3.00
48,Amazon_Forest,2025-04-11T17:42:00,2025-04-11T17:42:00,1.00
48,Amazon_Forest,2025-04-12T05:43:00,2025-04-12T05:44:00,2.00
49,Amazon_Forest,2025-04-02T19:15:00,2025-04-02T19:16:00,2.00
49,Amazon_Forest,2025-04-03T07:16:00,2025-04-03T07:17:00,2.00
49,Amazon_Forest,2025-04-03T19:14:00,2025-04-03T19:16:00,3.00
49,Amazon_Forest,2025-04-04T07:15:00,2025-04-04T07:17:00,3.00
49,Amazon_Forest,2025-04-04T19:13:00,2025-04-04T19:15:00,3.00
49,Amazon_Forest,2025-04-05T07:15:00,2025-04-05T07:16:00,2.00
49,Amazon_Forest,2025-04-09T17:33:00,2025-04-09T17:34:00,2.00
49,Amazon_Forest,2025-04-10T05:35:00,2025-04-10T05:35:00,1.00
49,Amazon_Forest,2025-04-10T17:32:00,2025-04-10T17:34:00,3.00
49,Amazon_Forest,2025-04-11T05:33:00,2025-04-11T05:35:00,3.00
49,Amazon_Forest,2025-04-11T17:31:00,2025-04-11T17:33:00,3.00
49,Amazon_Forest,2025-04-12T05:33:00,2025-04-12T05:34:00,2.00
50,Amazon_Forest,2025-04-01T20:41:00,2025-04-01T20:43:00,3.00
50,Amazon_Forest,2025-04-02T08:43:00,2025-04-02T08:44:00,2.00
50,Amazon_Forest,2025-04-02T20:40:00,2025-04-02T20:42:00,3.00
50,Amazon_Forest,2025-04-03T08:42:00,2025-04-03T08:44:00,3.00
50,Amazon_Forest,2025-04-03T20:40:00,2025-04-03T20:41:00,2.00
50,Amazon_Forest,2025-04-04T08:42:00,2025-04-04T08:43:00,2.00
50,Amazon_Forest,2025-04-08T19:00:00,2025-04-08T19:01:00,2.00
50,Amazon_Forest,2025-04-09T07:01:00,2025-04-09T07:02:00,2.00
50,Amazon_Forest,2025-04-09T18:59:00,2025-04-09T19:00:00,2.00
50,Amazon_Forest,2025-04-10T07:00:00,2025-04-10T07:02:00,3.00
50,Amazon_Forest,2025-04-10T18:58:00,2025-04-10T19:00:00,3.00
50,Amazon_Forest,2025-04-11T07:00:00,2025-04-11T07:01:00,2.00
51,Amazon_Forest,2025-04-01T20:32:00,2025-04-01T20:32:00,1.00
51,Amazon_Forest,2025-04-02T20:31:00,2025-04-02T20:32:00,2.00
51,Amazon_Forest,2025-04-03T08:32:00,2025-04-03T08:34:00,3.00
51,Amazon_Forest,2025-04-03T20:30:00,2025-04-03T20:32:00,3.00
51,Amazon_Forest,2025-04-04T08:32:00,2025-04-04T08:33:00,2.00
51,Amazon_Forest,2025-04-04T20:30:00,2025-04-04T20:31:00,2.00
51,Amazon_Forest,2025-04-05T08:31:00,2025-04-05T08:32:00,2.00
51,Amazon_Forest,2025-04-09T18:49:00,2025-04-09T18:50:00,2.00
51,Amazon_Forest,2025-04-10T06:51:00,2025-04-10T06:52:00,2.00
51,Amazon_Forest,2025-04-10T18:48:00,2025-04-10T18:50:00,3.00
51,Amazon_Forest,2025-04-11T06:50:00,2025-04-11T06:52:00,3.00
51,Amazon_Forest,2025-04-11T18:48:00,2025-04-11T18:49:00,2.00
51,Amazon_Forest,2025-04-12T06:49:00,2025-04-12T06:51:00,3.00
52,Amazon_Forest,2025-04-02T20:21:00,2025-04-02T20:22:00,2.00
52,Amazon_Forest,2025-04-03T08:23:00,2025-04-03T08:24:00,2.00
52,Amazon_Forest,2025-04-03T20:20:00,2025-04-03T20:22:00,3.00
52,Amazon_Forest,2025-04-04T08:22:00,2025-04-04T08:24:00,3.00
52,Amazon_Forest,2025-04-04T20:20:00,2025-04-04T20:21:00,2.00
52,Amazon_Forest,2025-04-05T08:21:00,2025-04-05T08:23:00,3.00
52,Amazon_Forest,2025-04-06T08:22:00,2025-04-06T08:22:00,1.00
52,Amazon_Forest,2025-04-09T18:40:00,2025-04-09T18:40:00,1.00
52,Amazon_Forest,2025-04-10T18:39:00,2025-04-10T18:40:00,2.00
52,Amazon_Forest,2025-04-11T06:40:00,2025-04-11T06:42:00,3.00
52,Amazon_Forest,2025-04-11T18:38:00,2025-04-11T18:40:00,3.00
52,Amazon_Forest,2025-04-12T06:39:00,2025-04-12T06:41:00,3.00
52,Amazon_Forest,2025-04-12T18:38:00,2025-04-12T18:39:00,2.00
53,Amazon_Forest,2025-03-30T09:53:00,2025-03-30T09:54:00,2.00
53,Amazon_Forest,2025-04-03T20:11:00,2025-04-03T20:12:00,2.00
53,Amazon_Forest,2025-04-04T08:12:00,2025-04-04T08:13:00,2.00
53,Amazon_Forest,2025-04-04T20:10:00,2025-04-04T20:12:00,3.00
53,Amazon_Forest,2025-04-05T08:11:00,2025-04-05T08:13:00,3.00
53,Amazon_Forest,2025-04-05T20:10:00,2025-04-05T20:11:00,2.00
53,Amazon_Forest,2025-04-06T08:11:00,2025-04-06T08:13:00,3.00
53,Amazon_Forest,2025-04-10T18:29:00,2025-04-10T18:30:00,2.00
53,Amazon_Forest,2025-04-11T06:31:00,2025-04-11T06:31:00,1.00
53,Amazon_Forest,2025-04-11T18:28:00,2025-04-11T18:30:00,3.00
53,Amazon_Forest,2025-04-12T06:30:00,2025-04-12T06:31:00,2.00
53,Amazon_Forest,2025-04-12T18:28:00,2025-04-12T18:29:00,2.00
54,Amazon_Forest,2025-03-30T09:43:00,2025-03-30T09:45:00,3.00
54,Amazon_Forest,2025-03-30T21:42:00,2025-03-30T21:42:00,1.00
54,Amazon_Forest,2025-03-31T09:43:00,2025-03-31T09:44:00,2.00
54,Amazon_Forest,2025-04-04T20:00:00,2025-04-04T20:02:00,3.00
54,Amazon_Forest,2025-04-05T08:02:00,2025-04-05T08:03:00,2.00
54,Amazon_Forest,2025-04-05T20:00:00,2025-04-05T20:01:00,2.00
54,Amazon_Forest,2025-04-06T08:01:00,2025-04-06T08:03:00,3.00
54,Amazon_Forest,2025-04-06T19:59:00,2025-04-06T20:00:00,2.00
54,Amazon_Forest,2025-04-07T08:01:00,2025-04-07T08:02:00,2.00
54,Amazon_Forest,2025-04-11T18:19:00,2025-04-11T18:20:00,2.00
54,Amazon_Forest,2025-04-12T06:20:00,2025-04-12T06:21:00,2.00
54,Amazon_Forest,2025-04-12T18:18:00,2025-04-12T18:20:00,3.00
55,Amazon_Forest,2025-03-30T09:33:00,2025-03-30T09:35:00,3.00
55,Amazon_Forest,2025-03-30T21:31:00,2025-03-30T21:33:00,3.00
55,Amazon_Forest,2025-03-31T09:33:00,2025-03-31T09:34:00,2.00
55,Amazon_Forest,2025-04-04T19:51:00,2025-04-04T19:51:00,1.00
55,Amazon_Forest,2025-04-05T07:53:00,2025-04-05T07:53:00,1.00
55,Amazon_Forest,2025-04-05T19:50:00,2025-04-05T19:52:00,3.00
55,Amazon_Forest,2025-04-06T07:51:00,2025-04-06T07:53:00,3.00
55,Amazon_Forest,2025-04-06T19:49:00,2025-04-06T19:51:00,3.00
55,Amazon_Forest,2025-04-07T07:51:00,2025-04-07T07:53:00,3.00
55,Amazon_Forest,2025-04-07T19:49:00,2025-04-07T19:50:00,2.00
55,Amazon_Forest,2025-04-08T07:51:00,2025-04-08T07:51:00,1.00
55,Amazon_Forest,2025-04-12T18:08:00,2025-04-12T18:10:00,3.00
56,Amazon_Forest,2025-03-30T09:24:00,2025-03-30T09:25:00,2.00
56,Amazon_Forest,2025-03-30T21:21:00,2025-03-30T21:23:00,3.00
56,Amazon_Forest,2025-03-31T09:23:00,2025-03-31T09:25:00,3.00
56,Amazon_Forest,2025-03-31T21:21:00,2025-03-31T21:22:00,2.00
56,Amazon_Forest,2025-04-01T09:22:00,2025-04-01T09:24:00,3.00
56,Amazon_Forest,2025-04-05T19:41:00,2025-04-05T19:41:00,1.00
56,Amazon_Forest,2025-04-06T07:42:00,2025-04-06T07:43:00,2.00
56,Amazon_Forest,2025-04-06T19:39:00,2025-04-06T19:41:00,3.00
56,Amazon_Forest,2025-04-07T07:41:00,2025-04-07T07:43:00,3.00
56,Amazon_Forest,2025-04-07T19:39:00,2025-04-07T19:41:00,3.00
56,Amazon_Forest,2025-04-08T07:40:00,2025-04-08T07:42:00,3.00
56,Amazon_Forest,2025-04-12T17:59:00,2025-04-12T17:59:00,1.00
57,Amazon_Forest,2025-03-30T21:12:00,2025-03-30T21:13:00,2.00
57,Amazon_Forest,2025-03-31T09:13:00,2025-03-31T09:15:00,3.00
57,Amazon_Forest,2025-03-31T21:11:00,2025-03-31T21:13:00,3.00
57,Amazon_Forest,2025-04-01T09:12:00,2025-04-01T09:14:00,3.00
57,Amazon_Forest,2025-04-01T21:11:00,2025-04-01T21:12:00,2.00
57,Amazon_Forest,2025-04-02T09:12:00,2025-04-02T09:13:00,2.00
57,Amazon_Forest,2025-04-06T19:30:00,2025-04-06T19:31:00,2.00
57,Amazon_Forest,2025-04-07T07:31:00,2025-04-07T07:33:00,3.00
57,Amazon_Forest,2025-04-07T19:29:00,2025-04-07T19:31:00,3.00
57,Amazon_Forest,2025-04-08T07:31:00,2025-04-08T07:32:00,2.00
57,Amazon_Forest,2025-04-08T19:29:00,2025-04-08T19:30:00,2.00
57,Amazon_Forest,2025-04-09T07:30:00,2025-04-09T07:32:00,3.00
58,Amazon_Forest,2025-03-30T21:02:00,2025-03-30T21:03:00,2.00
58,Amazon_Forest,2025-03-31T09:04:00,2025-03-31T09:04:00,1.00
58,Amazon_Forest,2025-03-31T21:01:00,2025-03-31T21:03:00,3.00
58,Amazon_Forest,2025-04-01T09:03:00,2025-04-01T09:04:00,2.00
58,Amazon_Forest,2025-04-01T21:01:00,2025-04-01T21:02:00,2.00
58,Amazon_Forest,2025-04-02T09:02:00,2025-04-02T09:04:00,3.00
58,Amazon_Forest,2025-04-02T21:01:00,2025-04-02T21:01:00,1.00
58,Amazon_Forest,2025-04-03T09:02:00,2025-04-03T09:03:00,2.00
58,Amazon_Forest,2025-04-07T19:19:00,2025-04-07T19:21:00,3.00
58,Amazon_Forest,2025-04-08T07:21:00,2025-04-08T07:22:00,2.00
58,Amazon_Forest,2025-04-08T19:19:00,2025-04-08T19:21:00,3.00
58,Amazon_Forest,2025-04-09T07:20:00,2025-04-09T07:22:00,3.00
58,Amazon_Forest,2025-04-09T19:19:00,2025-04-09T19:19:00,1.00
58,Amazon_Forest,2025-04-10T07:20:00,2025-04-10T07:21:00,2.00
59,Amazon_Forest,2025-03-31T20:52:00,2025-03-31T20:53:00,2.00
59,Amazon_Forest,2025-04-01T08:53:00,2025-04-01T08:54:00,2.00
59,Amazon_Forest,2025-04-01T20:51:00,2025-04-01T20:53:00,3.00
59,Amazon_Forest,2025-04-02T08:52:00,2025-04-02T08:54:00,3.00
59,Amazon_Forest,2025-04-02T20:50:00,2025-04-02T20:52:00,3.00
59,Amazon_Forest,2025-04-03T08:52:00,2025-04-03T08:53:00,2.00
59,Amazon_Forest,2025-04-07T19:10:00,2025-04-07T19:11:00,2.00
59,Amazon_Forest,2025-04-08T07:12:00,2025-04-08T07:12:00,1.00
59,Amazon_Forest,2025-04-08T19:09:00,2025-04-08T19:11:00,3.00
59,Amazon_Forest,2025-04-09T07:10:00,2025-04-09T07:12:00,3.00
59,Amazon_Forest,2025-04-09T19:08:00,2025-04-09T19:10:00,3.00
59,Amazon_Forest,2025-04-10T07:10:00,2025-04-10T07:12:00,3.00
59,Amazon_Forest,2025-04-10T19:09:00,2025-04-10T19:09:00,1.00
59,Amazon_Forest,2025-04-11T07:10:00,2025-04-11T07:10:00,1.00
60,Amazon_Forest,2025-03-30T22:18:00,2025-03-30T22:20:00,3.00
60,Amazon_Forest,2025-03-31T10:20:00,2025-03-31T10:21:00,2.00
60,Amazon_Forest,2025-03-31T22:18:00,2025-03-31T22:19:00,2.00
60,Amazon_Forest,2025-04-01T10:19:00,2025-04-01T10:21:00,3.00
60,Amazon_Forest,2025-04-01T22:17:00,2025-04-01T22:19:00,3.00
60,Amazon_Forest,2025-04-02T10:19:00,2025-04-02T10:20:00,2.00
60,Amazon_Forest,2025-04-06T20:37:00,2025-04-06T20:38:00,2.00
60,Amazon_Forest,2025-04-07T08:38:00,2025-04-07T08:39:00,2.00
60,Amazon_Forest,2025-04-07T20:36:00,2025-04-07T20:38:00,3.00
60,Amazon_Forest,2025-04-08T08:37:00,2025-04-08T08:39:00,3.00
60,Amazon_Forest,2025-04-08T20:35:00,2025-04-08T20:37:00,3.00
60,Amazon_Forest,2025-04-09T08:37:00,2025-04-09T08:38:00,2.00
60,Amazon_Forest,2025-04-10T08:37:00,2025-04-10T08:37:00,1.00
61,Amazon_Forest,2025-03-31T22:08:00,2025-03-31T22:10:00,3.00
61,Amazon_Forest,2025-04-01T10:09:00,2025-04-01T10:11:00,3.00
61,Amazon_Forest,2025-04-01T22:07:00,2025-04-01T22:09:00,3.00
61,Amazon_Forest,2025-04-02T10:09:00,2025-04-02T10:11:00,3.00
61,Amazon_Forest,2025-04-02T22:07:00,2025-04-02T22:08:00,2.00
61,Amazon_Forest,2025-04-03T10:08:00,2025-04-03T10:10:00,3.00
61,Amazon_Forest,2025-04-07T20:26:00,2025-04-07T20:27:00,2.00
61,Amazon_Forest,2025-04-08T08:28:00,2025-04-08T08:29:00,2.00
61,Amazon_Forest,2025-04-08T20:25:00,2025-04-08T20:27:00,3.00
61,Amazon_Forest,2025-04-09T08:27:00,2025-04-09T08:29:00,3.00
61,Amazon_Forest,2025-04-09T20:25:00,2025-04-09T20:26:00,2.00
61,Amazon_Forest,2025-04-10T08:26:00,2025-04-10T08:28:00,3.00
62,Amazon_Forest,2025-03-31T21:59:00,2025-03-31T21:59:00,1.00
62,Amazon_Forest,2025-04-01T21:58:00,2025-04-01T21:59:00,2.00
62,Amazon_Forest,2025-04-02T09:59:00,2025-04-02T10:01:00,3.00
62,Amazon_Forest,2025-04-02T21:57:00,2025-04-02T21:59:00,3.00
62,Amazon_Forest,2025-04-03T09:58:00,2025-04-03T10:00:00,3.00
62,Amazon_Forest,2025-04-03T21:57:00,2025-04-03T21:57:00,1.00
62,Amazon_Forest,2025-04-04T09:58:00,2025-04-04T09:59:00,2.00
62,Amazon_Forest,2025-04-08T20:16:00,2025-04-08T20:17:00,2.00
62,Amazon_Forest,2025-04-09T08:17:00,2025-04-09T08:19:00,3.00
62,Amazon_Forest,2025-04-09T20:15:00,2025-04-09T20:17:00,3.00
62,Amazon_Forest,2025-04-10T08:16:00,2025-04-10T08:18:00,3.00
62,Amazon_Forest,2025-04-10T20:15:00,2025-04-10T20:16:00,2.00
62,Amazon_Forest,2025-04-11T08:16:00,2025-04-11T08:17:00,2.00
63,Amazon_Forest,2025-04-01T21:48:00,2025-04-01T21:49:00,2.00
63,Amazon_Forest,2025-04-02T09:50:00,2025-04-02T09:50:00,1.00
63,Amazon_Forest,2025-04-02T21:47:00,2025-04-02T21:49:00,3.00
63,Amazon_Forest,2025-04-03T09:49:00,2025-04-03T09:50:00,2.00
63,Amazon_Forest,2025-04-03T21:47:00,2025-04-03T21:48:00,2.00
63,Amazon_Forest,2025-04-04T09:48:00,2025-04-04T09:50:00,3.00
63,Amazon_Forest,2025-04-08T20:07:00,2025-04-08T20:07:00,1.00
63,Amazon_Forest,2025-04-09T20:05:00,2025-04-09T20:07:00,3.00
63,Amazon_Forest,2025-04-10T08:07:00,2025-04-10T08:08:00,2.00
63,Amazon_Forest,2025-04-10T20:05:00,2025-04-10T20:06:00,2.00
63,Amazon_Forest,2025-04-11T08:06:00,2025-04-11T08:08:00,3.00
63,Amazon_Forest,2025-04-11T20:05:00,2025-04-11T20:05:00,1.00
63,Amazon_Forest,2025-04-12T08:06:00,2025-04-12T08:07:00,2.00
64,Amazon_Forest,2025-04-02T21:38:00,2025-04-02T21:39:00,2.00
64,Amazon_Forest,2025-04-03T09:39:00,2025-04-03T09:40:00,2.00
64,Amazon_Forest,2025-04-03T21:37:00,2025-04-03T21:39:00,3.00
64,Amazon_Forest,2025-04-04T09:38:00,2025-04-04T09:40:00,3.00
64,Amazon_Forest,2025-04-04T21:36:00,2025-04-04T21:38:00,3.00
64,Amazon_Forest,2025-04-05T09:38:00,2025-04-05T09:39:00,2.00
64,Amazon_Forest,2025-04-09T19:56:00,2025-04-09T19:57:00,2.00
64,Amazon_Forest,2025-04-10T07:57:00,2025-04-10T07:58:00,2.00
64,Amazon_Forest,2025-04-10T19:55:00,2025-04-10T19:57:00,3.00
64,Amazon_Forest,2025-04-11T07:56:00,2025-04-11T07:58:00,3.00
64,Amazon_Forest,2025-04-11T19:54:00,2025-04-11T19:56:00,3.00
64,Amazon_Forest,2025-04-12T07:56:00,2025-04-12T07:57:00,2.00
65,Amazon_Forest,2025-03-30T11:10:00,2025-03-30T11:10:00,1.00
65,Amazon_Forest,2025-04-03T21:27:00,2025-04-03T21:29:00,3.00
65,Amazon_Forest,2025-04-04T09:29:00,2025-04-04T09:30:00,2.00
65,Amazon_Forest,2025-04-04T21:26:00,2025-04-04T21:28:00,3.00
65,Amazon_Forest,2025-04-05T09:28:00,2025-04-05T09:30:00,3.00
65,Amazon_Forest,2025-04-05T21:26:00,2025-04-05T21:27:00,2.00
65,Amazon_Forest,2025-04-06T09:28:00,2025-04-06T09:29:00,2.00
65,Amazon_Forest,2025-04-10T19:45:00,2025-04-10T19:47:00,3.00
65,Amazon_Forest,2025-04-11T07:47:00,2025-04-11T07:48:00,2.00
65,Amazon_Forest,2025-04-11T19:44:00,2025-04-11T19:46:00,3.00
65,Amazon_Forest,2025-04-12T07:46:00,2025-04-12T07:48:00,3.00
65,Amazon_Forest,2025-04-12T19:44:00,2025-04-12T19:45:00,2.00
66,Amazon_Forest,2025-03-30T11:00:00,2025-03-30T11:01:00,2.00
66,Amazon_Forest,2025-04-03T21:18:00,2025-04-03T21:18:00,1.00
66,Amazon_Forest,2025-04-04T09:19:00,2025-04-04T09:20:00,2.00
66,Amazon_Forest,2025-04-04T21:17:00,2025-04-04T21:18:00,2.00
66,Amazon_Forest,2025-04-05T09:18:00,2025-04-05T09:20:00,3.00
66,Amazon_Forest,2025-04-05T21:16:00,2025-04-05T21:18:00,3.00
66,Amazon_Forest,2025-04-06T09:17:00,2025-04-06T09:19:00,3.00
66,Amazon_Forest,2025-04-06T21:16:00,2025-04-06T21:16:00,1.00
66,Amazon_Forest,2025-04-07T09:18:00,2025-04-07T09:18:00,1.00
66,Amazon_Forest,2025-04-11T19:35:00,2025-04-11T19:36:00,2.00
66,Amazon_Forest,2025-04-12T07:36:00,2025-04-12T07:38:00,3.00
66,Amazon_Forest,2025-04-12T19:34:00,2025-04-12T19:36:00,3.00
67,Amazon_Forest,2025-03-30T10:50:00,2025-03-30T10:51:00,2.00
67,Amazon_Forest,2025-03-30T22:48:00,2025-03-30T22:49:00,2.00
67,Amazon_Forest,2025-03-31T10:49:00,2025-03-31T10:51:00,3.00
67,Amazon_Forest,2025-04-04T21:07:00,2025-04-04T21:08:00,2.00
67,Amazon_Forest,2025-04-05T09:09:00,2025-04-05T09:10:00,2.00
67,Amazon_Forest,2025-04-05T21:06:00,2025-04-05T21:08:00,3.00
67,Amazon_Forest,2025-04-06T09:08:00,2025-04-06T09:09:00,2.00
67,Amazon_Forest,2025-04-06T21:06:00,2025-04-06T21:07:00,2.00
67,Amazon_Forest,2025-04-07T09:07:00,2025-04-07T09:09:00,3.00
67,Amazon_Forest,2025-04-11T19:26:00,2025-04-11T19:26:00,1.00
67,Amazon_Forest,2025-04-12T07:27:00,2025-04-12T07:27:00,1.00
67,Amazon_Forest,2025-04-12T19:24:00,2025-04-12T19:26:00,3.00
68,Amazon_Forest,2025-03-30T10:40:00,2025-03-30T10:42:00,3.00
68,Amazon_Forest,2025-03-30T22:38:00,2025-03-30T22:40:00,3.00
68,Amazon_Forest,2025-03-31T10:39:00,2025-03-31T10:41:00,3.00
68,Amazon_Forest,2025-03-31T22:38:00,2025-03-31T22:38:00,1.00
68,Amazon_Forest,2025-04-01T10:39:00,2025-04-01T10:40:00,2.00
68,Amazon_Forest,2025-04-05T20:57:00,2025-04-05T20:58:00,2.00
68,Amazon_Forest,2025-04-06T08:58:00,2025-04-06T08:59:00,2.00
68,Amazon_Forest,2025-04-06T20:56:00,2025-04-06T20:58:00,3.00
68,Amazon_Forest,2025-04-07T08:57:00,2025-04-07T08:59:00,3.00
68,Amazon_Forest,2025-04-07T20:56:00,2025-04-07T20:57:00,2.00
68,Amazon_Forest,2025-04-08T08:57:00,2025-04-08T08:58:00,2.00
68,Amazon_Forest,2025-04-12T19:15:00,2025-04-12T19:16:00,2.00
69,Amazon_Forest,2025-03-30T10:31:00,2025-03-30T10:31:00,1.00
69,Amazon_Forest,2025-03-30T22:28:00,2025-03-30T22:30:00,3.00
69,Amazon_Forest,2025-03-31T10:29:00,2025-03-31T10:31:00,3.00
69,Amazon_Forest,2025-03-31T22:28:00,2025-03-31T22:29:00,2.00
69,Amazon_Forest,2025-04-01T10:29:00,2025-04-01T10:31:00,3.00
69,Amazon_Forest,2025-04-02T10:29:00,2025-04-02T10:29:00,1.00
69,Amazon_Forest,2025-04-06T20:46:00,2025-04-06T20:48:00,3.00
69,Amazon_Forest,2025-04-07T08:48:00,2025-04-07T08:49:00,2.00
69,Amazon_Forest,2025-04-07T20:45:00,2025-04-07T20:47:00,3.00
69,Amazon_Forest,2025-04-08T08:47:00,2025-04-08T08:49:00,3.00
69,Amazon_Forest,2025-04-08T20:45:00,2025-04-08T20:46:00,2.00
69,Amazon_Forest,2025-04-09T08:47:00,2025-04-09T08:48:00,2.00
70,Amazon_Forest,2025-03-30T11:56:00,2025-03-30T11:58:00,3.00
70,Amazon_Forest,2025-03-30T23:54:00,2025-03-30T23:56:00,3.00
70,Amazon_Forest,2025-03-31T11:56:00,2025-03-31T11:57:00,2.00
70,Amazon_Forest,2025-04-04T22:14:00,2025-04-04T22:14:00,1.00
70,Amazon_Forest,2025-04-05T10:16:00,2025-04-05T10:16:00,1.00
70,Amazon_Forest,2025-04-05T22:13:00,2025-04-05T22:15:00,3.00
70,Amazon_Forest,2025-04-06T10:14:00,2025-04-06T10:16:00,3.00
70,Amazon_Forest,2025-04-06T22:12:00,2025-04-06T22:14:00,3.00
70,Amazon_Forest,2025-04-07T10:14:00,2025-04-07T10:15:00,2.00
70,Amazon_Forest,2025-04-07T22:12:00,2025-04-07T22:13:00,2.00
70,Amazon_Forest,2025-04-08T10:14:00,2025-04-08T10:14:00,1.00
70,Amazon_Forest,2025-04-12T20:31:00,2025-04-12T20:33:00,3.00
71,Amazon_Forest,2025-03-30T11:47:00,2025-03-30T11:48:00,2.00
71,Amazon_Forest,2025-03-30T23:44:00,2025-03-30T23:46:00,3.00
71,Amazon_Forest,2025-03-31T11:46:00,2025-03-31T11:48:00,3.00
71,Amazon_Forest,2025-03-31T23:44:00,2025-03-31T23:45:00,2.00
71,Amazon_Forest,2025-04-01T11:45:00,2025-04-01T11:47:00,3.00
71,Amazon_Forest,2025-04-05T22:03:00,2025-04-05T22:04:00,2.00
71,Amazon_Forest,2025-04-06T10:05:00,2025-04-06T10:06:00,2.00
71,Amazon_Forest,2025-04-06T22:02:00,2025-04-06T22:04:00,3.00
71,Amazon_Forest,2025-04-07T10:04:00,2025-04-07T10:06:00,3.00
71,Amazon_Forest,2025-04-07T22:02:00,2025-04-07T22:04:00,3.00
71,Amazon_Forest,2025-04-08T10:03:00,2025-04-08T10:05:00,3.00
71,Amazon_Forest,2025-04-12T20:22:00,2025-04-12T20:22:00,1.00
72,Amazon_Forest,2025-03-30T23:35:00,2025-03-30T23:36:00,2.00
72,Amazon_Forest,2025-03-31T11:36:00,2025-03-31T11:38:00,3.00
72,Amazon_Forest,2025-03-31T23:34:00,2025-03-31T23:36:00,3.00
72,Amazon_Forest,2025-04-01T11:35:00,2025-04-01T11:37:00,3.00
72,Amazon_Forest,2025-04-01T23:34:00,2025-04-01T23:35:00,2.00
72,Amazon_Forest,2025-04-02T11:35:00,2025-04-02T11:36:00,2.00
72,Amazon_Forest,2025-04-06T21:53:00,2025-04-06T21:54:00,2.00
72,Amazon_Forest,2025-04-07T09:54:00,2025-04-07T09:56:00,3.00
72,Amazon_Forest,2025-04-07T21:52:00,2025-04-07T21:54:00,3.00
72,Amazon_Forest,2025-04-08T09:53:00,2025-04-08T09:55:00,3.00
72,Amazon_Forest,2025-04-08T21:52:00,2025-04-08T21:53:00,2.00
72,Amazon_Forest,2025-04-09T09:53:00,2025-04-09T09:55:00,3.00
73,Amazon_Forest,2025-03-30T23:25:00,2025-03-30T23:26:00,2.00
73,Amazon_Forest,2025-03-31T11:27:00,2025-03-31T11:27:00,1.00
73,Amazon_Forest,2025-03-31T23:24:00,2025-03-31T23:26:00,3.00
73,Amazon_Forest,2025-04-01T11:26:00,2025-04-01T11:27:00,2.00
73,Amazon_Forest,2025-04-01T23:24:00,2025-04-01T23:25:00,2.00
73,Amazon_Forest,2025-04-02T11:25:00,2025-04-02T11:27:00,3.00
73,Amazon_Forest,2025-04-02T23:24:00,2025-04-02T23:24:00,1.00
73,Amazon_Forest,2025-04-03T11:25:00,2025-04-03T11:26:00,2.00
73,Amazon_Forest,2025-04-07T21:42:00,2025-04-07T21:44:00,3.00
73,Amazon_Forest,2025-04-08T09:44:00,2025-04-08T09:45:00,2.00
73,Amazon_Forest,2025-04-08T21:42:00,2025-04-08T21:44:00,3.00
73,Amazon_Forest,2025-04-09T09:43:00,2025-04-09T09:45:00,3.00
73,Amazon_Forest,2025-04-09T21:42:00,2025-04-09T21:42:00,1.00
73,Amazon_Forest,2025-04-10T09:43:00,2025-04-10T09:44:00,2.00
74,Amazon_Forest,2025-03-31T23:15:00,2025-03-31T23:16:00,2.00
74,Amazon_Forest,2025-04-01T11:16:00,2025-04-01T11:17:00,2.00
74,Amazon_Forest,2025-04-01T23:14:00,2025-04-01T23:16:00,3.00
74,Amazon_Forest,2025-04-02T11:15:00,2025-04-02T11:17:00,3.00
74,Amazon_Forest,2025-04-02T23:13:00,2025-04-02T23:15:00,3.00
74,Amazon_Forest,2025-04-03T11:15:00,2025-04-03T11:16:00,2.00
74,Amazon_Forest,2025-04-07T21:33:00,2025-04-07T21:34:00,2.00
74,Amazon_Forest,2025-04-08T09:35:00,2025-04-08T09:35:00,1.00
74,Amazon_Forest,2025-04-08T21:32:00,2025-04-08T21:34:00,3.00
74,Amazon_Forest,2025-04-09T09:33:00,2025-04-09T09:35:00,3.00
74,Amazon_Forest,2025-04-09T21:31:00,2025-04-09T21:33:00,3.00
74,Amazon_Forest,2025-04-10T09:33:00,2025-04-10T09:35:00,3.00
74,Amazon_Forest,2025-04-10T21:32:00,2025-04-10T21:32:00,1.00
74,Amazon_Forest,2025-04-11T09:33:00,2025-04-11T09:33:00,1.00
75,Amazon_Forest,2025-04-01T23:04:00,2025-04-01T23:06:00,3.00
75,Amazon_Forest,2025-04-02T11:06:00,2025-04-02T11:07:00,2.00
75,Amazon_Forest,2025-04-02T23:03:00,2025-04-02T23:05:00,3.00
75,Amazon_Forest,2025-04-03T11:05:00,2025-04-03T11:07:00,3.00
75,Amazon_Forest,2025-04-03T23:03:00,2025-04-03T23:04:00,2.00
75,Amazon_Forest,2025-04-04T11:05:00,2025-04-04T11:06:00,2.00
75,Amazon_Forest,2025-04-08T21:23:00,2025-04-08T21:24:00,2.00
75,Amazon_Forest,2025-04-09T09:24:00,2025-04-09T09:25:00,2.00
75,Amazon_Forest,2025-04-09T21:22:00,2025-04-09T21:23:00,2.00
75,Amazon_Forest,2025-04-10T09:23:00,2025-04-10T09:25:00,3.00
75,Amazon_Forest,2025-04-10T21:21:00,2025-04-10T21:23:00,3.00
75,Amazon_Forest,2025-04-11T09:23:00,2025-04-11T09:24:00,2.00
76,Amazon_Forest,2025-04-01T22:55:00,2025-04-01T22:55:00,1.00
76,Amazon_Forest,2025-04-02T22:54:00,2025-04-02T22:55:00,2.00
76,Amazon_Forest,2025-04-03T10:55:00,2025-04-03T10:57:00,3.00
76,Amazon_Forest,2025-04-03T22:53:00,2025-04-03T22:55:00,3.00
76,Amazon_Forest,2025-04-04T10:55:00,2025-04-04T10:56:00,2.00
76,Amazon_Forest,2025-04-04T22:53:00,2025-04-04T22:54:00,2.00
76,Amazon_Forest,2025-04-05T10:54:00,2025-04-05T10:55:00,2.00
76,Amazon_Forest,2025-04-09T21:12:00,2025-04-09T21:13:00,2.00
76,Amazon_Forest,2025-04-10T09:13:00,2025-04-10T09:15:00,3.00
76,Amazon_Forest,2025-04-10T21:11:00,2025-04-10T21:13:00,3.00
76,Amazon_Forest,2025-04-11T09:13:00,2025-04-11T09:14:00,2.00
