comm_windows_California.csv

sat_id,ground_station,window_start,window_end,duration_min
0,California,2025-03-30T07:01:00,2025-03-30T07:03:00,3.00
0,California,2025-03-31T07:01:00,2025-03-31T07:02:00,2.00
0,California,2025-03-31T19:21:00,2025-03-31T19:22:00,2.00
0,California,2025-04-01T07:01:00,2025-04-01T07:01:00,1.00
0,California,2025-04-01T19:20:00,2025-04-01T19:22:00,3.00
0,California,2025-04-02T19:19:00,2025-04-02T19:21:00,3.00
0,California,2025-04-03T19:19:00,2025-04-03T19:21:00,3.00
0,California,2025-04-04T19:19:00,2025-04-04T19:20:00,2.00
0,California,2025-04-05T19:19:00,2025-04-05T19:20:00,2.00
0,California,2025-04-07T05:22:00,2025-04-07T05:23:00,2.00
0,California,2025-04-08T05:21:00,2025-04-08T05:23:00,3.00
0,California,2025-04-09T05:21:00,2025-04-09T05:23:00,3.00
0,California,2025-04-10T05:21:00,2025-04-10T05:22:00,2.00
0,California,2025-04-11T05:20:00,2025-04-11T05:22:00,3.00
0,California,2025-04-11T17:40:00,2025-04-11T17:41:00,2.00
0,California,2025-04-12T05:21:00,2025-04-12T05:21:00,1.00
0,California,2025-04-12T17:39:00,2025-04-12T17:41:00,3.00
1,California,2025-03-30T06:51:00,2025-03-30T06:53:00,3.00
1,California,2025-03-31T06:51:00,2025-03-31T06:53:00,3.00
1,California,2025-04-01T06:51:00,2025-04-01T06:52:00,2.00
1,California,2025-04-01T19:11:00,2025-04-01T19:11:00,1.00
1,California,2025-04-02T06:51:00,2025-04-02T06:51:00,1.00
1,California,2025-04-02T19:10:00,2025-04-02T19:11:00,2.00
1,California,2025-04-03T19:09:00,2025-04-03T19:11:00,3.00
1,California,2025-04-04T19:09:00,2025-04-04T19:11:00,3.00
1,California,2025-04-05T19:09:00,2025-04-05T19:10:00,2.00
1,California,2025-04-06T19:09:00,2025-04-06T19:10:00,2.00
1,California,2025-04-08T05:12:00,2025-04-08T05:13:00,2.00
1,California,2025-04-09T05:11:00,2025-04-09T05:13:00,3.00
1,California,2025-04-10T05:11:00,2025-04-10T05:13:00,3.00
1,California,2025-04-11T05:10:00,2025-04-11T05:12:00,3.00
1,California,2025-04-12T05:10:00,2025-04-12T05:12:00,3.00
1,California,2025-04-12T17:30:00,2025-04-12T17:31:00,2.00
2,California,2025-03-30T06:42:00,2025-03-30T06:43:00,2.00
2,California,2025-03-31T06:41:00,2025-03-31T06:43:00,3.00
2,California,2025-04-01T06:41:00,2025-04-01T06:43:00,3.00
2,California,2025-04-02T06:41:00,2025-04-02T06:42:00,2.00
2,California,2025-04-02T19:01:00,2025-04-02T19:01:00,1.00
2,California,2025-04-03T06:41:00,2025-04-03T06:41:00,1.00
2,California,2025-04-03T19:00:00,2025-04-03T19:01:00,2.00
2,California,2025-04-04T18:59:00,2025-04-04T19:01:00,3.00
2,California,2025-04-05T18:59:00,2025-04-05T19:01:00,3.00
2,California,2025-04-06T18:59:00,2025-04-06T19:00:00,2.00
2,California,2025-04-07T18:59:00,2025-04-07T19:00:00,2.00
2,California,2025-04-09T05:02:00,2025-04-09T05:03:00,2.00
2,California,2025-04-10T05:01:00,2025-04-10T05:03:00,3.00
2,California,2025-04-11T05:01:00,2025-04-11T05:03:00,3.00
2,California,2025-04-12T05:00:00,2025-04-12T05:02:00,3.00
3,California,2025-03-30T06:33:00,2025-03-30T06:33:00,1.00
3,California,2025-03-31T06:32:00,2025-03-31T06:33:00,2.00
3,California,2025-04-01T06:31:00,2025-04-01T06:33:00,3.00
3,California,2025-04-02T06:31:00,2025-04-02T06:33:00,3.00
3,California,2025-04-03T06:31:00,2025-04-03T06:32:00,2.00
3,California,2025-04-03T18:51:00,2025-04-03T18:51:00,1.00
3,California,2025-04-04T06:31:00,2025-04-04T06:32:00,2.00
3,California,2025-04-04T18:50:00,2025-04-04T18:51:00,2.00
3,California,2025-04-05T18:49:00,2025-04-05T18:51:00,3.00
3,California,2025-04-06T18:49:00,2025-04-06T18:51:00,3.00
3,California,2025-04-07T18:49:00,2025-04-07T18:50:00,2.00
3,California,2025-04-08T18:49:00,2025-04-08T18:50:00,2.00
3,California,2025-04-10T04:52:00,2025-04-10T04:53:00,2.00
3,California,2025-04-11T04:51:00,2025-04-11T04:53:00,3.00
3,California,2025-04-12T04:51:00,2025-04-12T04:53:00,3.00
4,California,2025-03-31T06:23:00,2025-03-31T06:23:00,1.00
4,California,2025-04-01T06:22:00,2025-04-01T06:23:00,2.00
4,California,2025-04-02T06:21:00,2025-04-02T06:23:00,3.00
4,California,2025-04-03T06:21:00,2025-04-03T06:23:00,3.00
4,California,2025-04-04T06:21:00,2025-04-04T06:22:00,2.00
4,California,2025-04-04T18:41:00,2025-04-04T18:41:00,1.00
4,California,2025-04-05T06:21:00,2025-04-05T06:22:00,2.00
4,California,2025-04-05T18:40:00,2025-04-05T18:41:00,2.00
4,California,2025-04-06T18:39:00,2025-04-06T18:41:00,3.00
4,California,2025-04-07T18:39:00,2025-04-07T18:41:00,3.00
4,California,2025-04-08T18:39:00,2025-04-08T18:40:00,2.00
4,California,2025-04-09T18:39:00,2025-04-09T18:40:00,2.00
4,California,2025-04-11T04:42:00,2025-04-11T04:42:00,1.00
4,California,2025-04-12T04:41:00,2025-04-12T04:43:00,3.00
5,California,2025-03-30T20:09:00,2025-03-30T20:10:00,2.00
5,California,2025-04-01T06:13:00,2025-04-01T06:13:00,1.00
5,California,2025-04-02T06:12:00,2025-04-02T06:13:00,2.00
5,California,2025-04-03T06:11:00,2025-04-03T06:13:00,3.00
5,California,2025-04-04T06:11:00,2025-04-04T06:13:00,3.00
5,California,2025-04-05T06:11:00,2025-04-05T06:12:00,2.00
5,California,2025-04-05T18:31:00,2025-04-05T18:31:00,1.00
5,California,2025-04-06T06:11:00,2025-04-06T06:12:00,2.00
5,California,2025-04-06T18:30:00,2025-04-06T18:31:00,2.00
5,California,2025-04-07T18:29:00,2025-04-07T18:31:00,3.00
5,California,2025-04-08T18:29:00,2025-04-08T18:31:00,3.00
5,California,2025-04-09T18:29:00,2025-04-09T18:30:00,2.00
5,California,2025-04-10T18:29:00,2025-04-10T18:30:00,2.00
5,California,2025-04-12T04:32:00,2025-04-12T04:32:00,1.00
6,California,2025-03-30T19:59:00,2025-03-30T20:01:00,3.00
6,California,2025-03-31T19:59:00,2025-03-31T20:00:00,2.00
6,California,2025-04-02T06:03:00,2025-04-02T06:03:00,1.00
6,California,2025-04-03T06:02:00,2025-04-03T06:03:00,2.00
6,California,2025-04-04T06:01:00,2025-04-04T06:03:00,3.00
6,California,2025-04-05T06:01:00,2025-04-05T06:03:00,3.00
6,California,2025-04-06T06:01:00,2025-04-06T06:02:00,2.00
6,California,2025-04-06T18:21:00,2025-04-06T18:21:00,1.00
6,California,2025-04-07T06:01:00,2025-04-07T06:02:00,2.00
6,California,2025-04-07T18:20:00,2025-04-07T18:21:00,2.00
6,California,2025-04-08T18:19:00,2025-04-08T18:21:00,3.00
6,California,2025-04-09T18:19:00,2025-04-09T18:21:00,3.00
6,California,2025-04-10T18:19:00,2025-04-10T18:20:00,2.00
6,California,2025-04-11T18:19:00,2025-04-11T18:20:00,2.00
6,California,2025-04-12T18:19:00,2025-04-12T18:19:00,1.00
7,California,2025-03-30T19:50:00,2025-03-30T19:51:00,2.00
7,California,2025-03-31T19:49:00,2025-03-31T19:51:00,3.00
7,California,2025-04-01T19:49:00,2025-04-01T19:50:00,2.00
7,California,2025-04-03T05:53:00,2025-04-03T05:53:00,1.00
7,California,2025-04-04T05:52:00,2025-04-04T05:53:00,2.00
7,California,2025-04-05T05:51:00,2025-04-05T05:53:00,3.00
7,California,2025-04-06T05:51:00,2025-04-06T05:53:00,3.00
7,California,2025-04-07T05:51:00,2025-04-07T05:52:00,2.00
7,California,2025-04-07T18:11:00,2025-04-07T18:11:00,1.00
7,California,2025-04-08T05:51:00,2025-04-08T05:52:00,2.00
7,California,2025-04-08T18:10:00,2025-04-08T18:11:00,2.00
7,California,2025-04-09T18:09:00,2025-04-09T18:11:00,3.00
7,California,2025-04-10T18:09:00,2025-04-10T18:11:00,3.00
7,California,2025-04-11T18:09:00,2025-04-11T18:10:00,2.00
7,California,2025-04-12T18:09:00,2025-04-12T18:10:00,2.00
8,California,2025-03-30T19:40:00,2025-03-30T19:42:00,3.00
8,California,2025-03-31T19:39:00,2025-03-31T19:41:00,3.00
8,California,2025-04-01T19:39:00,2025-04-01T19:41:00,3.00
8,California,2025-04-02T19:39:00,2025-04-02T19:40:00,2.00
8,California,2025-04-03T19:39:00,2025-04-03T19:39:00,1.00
8,California,2025-04-04T05:43:00,2025-04-04T05:43:00,1.00
8,California,2025-04-05T05:42:00,2025-04-05T05:43:00,2.00
8,California,2025-04-06T05:41:00,2025-04-06T05:43:00,3.00
8,California,2025-04-07T05:41:00,2025-04-07T05:43:00,3.00
8,California,2025-04-08T05:41:00,2025-04-08T05:42:00,2.00
8,California,2025-04-09T05:41:00,2025-04-09T05:42:00,2.00
8,California,2025-04-09T18:00:00,2025-04-09T18:01:00,2.00
8,California,2025-04-10T05:41:00,2025-04-10T05:41:00,1.00
8,California,2025-04-10T17:59:00,2025-04-10T18:01:00,3.00
8,California,2025-04-11T17:59:00,2025-04-11T18:01:00,3.00
8,California,2025-04-12T17:59:00,2025-04-12T18:00:00,2.00
9,California,2025-03-30T07:11:00,2025-03-30T07:12:00,2.00
9,California,2025-03-30T19:31:00,2025-03-30T19:32:00,2.00
9,California,2025-03-31T07:11:00,2025-03-31T07:11:00,1.00
9,California,2025-03-31T19:30:00,2025-03-31T19:32:00,3.00
9,California,2025-04-01T19:29:00,2025-04-01T19:31:00,3.00
9,California,2025-04-02T19:29:00,2025-04-02T19:31:00,3.00
9,California,2025-04-03T19:29:00,2025-04-03T19:30:00,2.00
9,California,2025-04-04T19:29:00,2025-04-04T19:29:00,1.00
9,California,2025-04-06T05:32:00,2025-04-06T05:33:00,2.00
9,California,2025-04-07T05:31:00,2025-04-07T05:33:00,3.00
9,California,2025-04-08T05:31:00,2025-04-08T05:33:00,3.00
9,California,2025-04-09T05:31:00,2025-04-09T05:32:00,2.00
9,California,2025-04-10T05:30:00,2025-04-10T05:32:00,3.00
9,California,2025-04-10T17:50:00,2025-04-10T17:51:00,2.00
9,California,2025-04-11T05:31:00,2025-04-11T05:31:00,1.00
9,California,2025-04-11T17:49:00,2025-04-11T17:51:00,3.00
9,California,2025-04-12T17:49:00,2025-04-12T17:51:00,3.00
10,California,2025-03-30T20:56:00,2025-03-30T20:58:00,3.00
10,California,2025-03-31T20:56:00,2025-03-31T20:58:00,3.00
10,California,2025-04-01T20:56:00,2025-04-01T20:57:00,2.00
10,California,2025-04-02T20:56:00,2025-04-02T20:56:00,1.00
10,California,2025-04-04T06:59:00,2025-04-04T06:59:00,1.00
10,California,2025-04-05T06:58:00,2025-04-05T07:00:00,3.00
10,California,2025-04-06T06:58:00,2025-04-06T06:59:00,2.00
10,California,2025-04-07T06:57:00,2025-04-07T06:59:00,3.00
10,California,2025-04-08T06:57:00,2025-04-08T06:59:00,3.00
10,California,2025-04-08T19:17:00,2025-04-08T19:17:00,1.00
10,California,2025-04-09T06:57:00,2025-04-09T06:58:00,2.00
10,California,2025-04-09T19:16:00,2025-04-09T19:18:00,3.00
10,California,2025-04-10T19:16:00,2025-04-10T19:17:00,2.00
10,California,2025-04-11T19:15:00,2025-04-11T19:17:00,3.00
10,California,2025-04-12T19:15:00,2025-04-12T19:17:00,3.00
11,California,2025-03-30T08:28:00,2025-03-30T08:28:00,1.00
11,California,2025-03-30T20:47:00,2025-03-30T20:48:00,2.00
11,California,2025-03-31T20:46:00,2025-03-31T20:48:00,3.00
11,California,2025-04-01T20:46:00,2025-04-01T20:48:00,3.00
11,California,2025-04-02T20:46:00,2025-04-02T20:47:00,2.00
11,California,2025-04-03T20:46:00,2025-04-03T20:46:00,1.00
11,California,2025-04-05T06:49:00,2025-04-05T06:49:00,1.00
11,California,2025-04-06T06:48:00,2025-04-06T06:50:00,3.00
11,California,2025-04-07T06:48:00,2025-04-07T06:49:00,2.00
11,California,2025-04-08T06:47:00,2025-04-08T06:49:00,3.00
11,California,2025-04-09T06:47:00,2025-04-09T06:49:00,3.00
11,California,2025-04-09T19:07:00,2025-04-09T19:07:00,1.00
11,California,2025-04-10T06:47:00,2025-04-10T06:48:00,2.00
11,California,2025-04-10T19:06:00,2025-04-10T19:08:00,3.00
11,California,2025-04-11T19:06:00,2025-04-11T19:07:00,2.00
11,California,2025-04-12T19:05:00,2025-04-12T19:07:00,3.00
12,California,2025-03-30T08:18:00,2025-03-30T08:19:00,2.00
12,California,2025-03-30T20:38:00,2025-03-30T20:38:00,1.00
12,California,2025-03-31T08:18:00,2025-03-31T08:18:00,1.00
12,California,2025-03-31T20:37:00,2025-03-31T20:38:00,2.00
12,California,2025-04-01T20:36:00,2025-04-01T20:38:00,3.00
12,California,2025-04-02T20:36:00,2025-04-02T20:38:00,3.00
12,California,2025-04-03T20:36:00,2025-04-03T20:37:00,2.00
12,California,2025-04-04T20:36:00,2025-04-04T20:37:00,2.00
12,California,2025-04-06T06:39:00,2025-04-06T06:39:00,1.00
12,California,2025-04-07T06:38:00,2025-04-07T06:39:00,2.00
12,California,2025-04-08T06:38:00,2025-04-08T06:39:00,2.00
12,California,2025-04-09T06:37:00,2025-04-09T06:39:00,3.00
12,California,2025-04-10T06:37:00,2025-04-10T06:39:00,3.00
12,California,2025-04-10T18:57:00,2025-04-10T18:57:00,1.00
12,California,2025-04-11T06:37:00,2025-04-11T06:38:00,2.00
12,California,2025-04-11T18:56:00,2025-04-11T18:57:00,2.00
12,California,2025-04-12T18:56:00,2025-04-12T18:57:00,2.00
13,California,2025-03-30T08:08:00,2025-03-30T08:10:00,3.00
13,California,2025-03-31T08:07:00,2025-03-31T08:09:00,3.00
13,California,2025-03-31T20:28:00,2025-03-31T20:28:00,1.00
13,California,2025-04-01T08:07:00,2025-04-01T08:08:00,2.00
13,California,2025-04-01T20:27:00,2025-04-01T20:28:00,2.00
13,California,2025-04-02T20:26:00,2025-04-02T20:28:00,3.00
13,California,2025-04-03T20:26:00,2025-04-03T20:28:00,3.00
13,California,2025-04-04T20:26:00,2025-04-04T20:27:00,2.00
13,California,2025-04-05T20:26:00,2025-04-05T20:27:00,2.00
13,California,2025-04-07T06:29:00,2025-04-07T06:29:00,1.00
13,California,2025-04-08T06:28:00,2025-04-08T06:29:00,2.00
13,California,2025-04-09T06:28:00,2025-04-09T06:29:00,2.00
13,California,2025-04-10T06:27:00,2025-04-10T06:29:00,3.00
13,California,2025-04-11T06:27:00,2025-04-11T06:29:00,3.00
13,California,2025-04-11T18:47:00,2025-04-11T18:47:00,1.00
13,California,2025-04-12T06:27:00,2025-04-12T06:28:00,2.00
13,California,2025-04-12T18:46:00,2025-04-12T18:47:00,2.00
14,California,2025-03-30T07:58:00,2025-03-30T08:00:00,3.00
14,California,2025-03-31T07:58:00,2025-03-31T08:00:00,3.00
14,California,2025-04-01T07:57:00,2025-04-01T07:59:00,3.00
14,California,2025-04-01T20:18:00,2025-04-01T20:18:00,1.00
14,California,2025-04-02T07:57:00,2025-04-02T07:58:00,2.00
14,California,2025-04-02T20:17:00,2025-04-02T20:18:00,2.00
14,California,2025-04-03T20:16:00,2025-04-03T20:18:00,3.00
14,California,2025-04-04T20:16:00,2025-04-04T20:18:00,3.00
14,California,2025-04-05T20:15:00,2025-04-05T20:17:00,3.00
14,California,2025-04-06T20:15:00,2025-04-06T20:17:00,3.00
14,California,2025-04-08T06:19:00,2025-04-08T06:19:00,1.00
14,California,2025-04-09T06:18:00,2025-04-09T06:19:00,2.00
14,California,2025-04-10T06:18:00,2025-04-10T06:19:00,2.00
14,California,2025-04-11T06:17:00,2025-04-11T06:19:00,3.00
14,California,2025-04-12T06:17:00,2025-04-12T06:19:00,3.00
15,California,2025-03-30T07:49:00,2025-03-30T07:50:00,2.00
15,California,2025-03-31T07:48:00,2025-03-31T07:50:00,3.00
15,California,2025-04-01T07:48:00,2025-04-01T07:50:00,3.00
15,California,2025-04-02T07:47:00,2025-04-02T07:49:00,3.00
15,California,2025-04-03T07:47:00,2025-04-03T07:48:00,2.00
15,California,2025-04-03T20:07:00,2025-04-03T20:08:00,2.00
15,California,2025-04-04T20:06:00,2025-04-04T20:08:00,3.00
15,California,2025-04-05T20:06:00,2025-04-05T20:08:00,3.00
15,California,2025-04-06T20:05:00,2025-04-06T20:07:00,3.00
15,California,2025-04-07T20:05:00,2025-04-07T20:07:00,3.00
15,California,2025-04-08T20:06:00,2025-04-08T20:06:00,1.00
15,California,2025-04-09T06:09:00,2025-04-09T06:09:00,1.00
15,California,2025-04-10T06:08:00,2025-04-10T06:09:00,2.00
15,California,2025-04-11T06:08:00,2025-04-11T06:09:00,2.00
15,California,2025-04-12T06:07:00,2025-04-12T06:09:00,3.00
16,California,2025-03-31T07:39:00,2025-03-31T07:40:00,2.00
16,California,2025-04-01T07:38:00,2025-04-01T07:40:00,3.00
16,California,2025-04-02T07:38:00,2025-04-02T07:39:00,2.00
16,California,2025-04-03T07:37:00,2025-04-03T07:39:00,3.00
16,California,2025-04-04T07:37:00,2025-04-04T07:38:00,2.00
16,California,2025-04-04T19:57:00,2025-04-04T19:58:00,2.00
16,California,2025-04-05T19:56:00,2025-04-05T19:58:00,3.00
16,California,2025-04-06T19:56:00,2025-04-06T19:58:00,3.00
16,California,2025-04-07T19:55:00,2025-04-07T19:57:00,3.00
16,California,2025-04-08T19:55:00,2025-04-08T19:57:00,3.00
16,California,2025-04-09T19:56:00,2025-04-09T19:56:00,1.00
16,California,2025-04-11T05:58:00,2025-04-11T05:59:00,2.00
16,California,2025-04-12T05:58:00,2025-04-12T05:59:00,2.00
17,California,2025-03-30T21:26:00,2025-03-30T21:26:00,1.00
17,California,2025-04-01T07:29:00,2025-04-01T07:30:00,2.00
17,California,2025-04-02T07:28:00,2025-04-02T07:30:00,3.00
17,California,2025-04-03T07:28:00,2025-04-03T07:29:00,2.00
17,California,2025-04-04T07:27:00,2025-04-04T07:29:00,3.00
17,California,2025-04-05T07:27:00,2025-04-05T07:28:00,2.00
17,California,2025-04-05T19:47:00,2025-04-05T19:48:00,2.00
17,California,2025-04-06T07:27:00,2025-04-06T07:28:00,2.00
17,California,2025-04-06T19:46:00,2025-04-06T19:48:00,3.00
17,California,2025-04-07T19:46:00,2025-04-07T19:48:00,3.00
17,California,2025-04-08T19:45:00,2025-04-08T19:47:00,3.00
17,California,2025-04-09T19:45:00,2025-04-09T19:47:00,3.00
17,California,2025-04-10T19:45:00,2025-04-10T19:46:00,2.00
17,California,2025-04-12T05:48:00,2025-04-12T05:49:00,2.00
18,California,2025-03-30T21:16:00,2025-03-30T21:17:00,2.00
18,California,2025-03-31T21:16:00,2025-03-31T21:16:00,1.00
18,California,2025-04-02T07:19:00,2025-04-02T07:20:00,2.00
18,California,2025-04-03T07:18:00,2025-04-03T07:20:00,3.00
18,California,2025-04-04T07:18:00,2025-04-04T07:19:00,2.00
18,California,2025-04-05T07:17:00,2025-04-05T07:19:00,3.00
18,California,2025-04-06T07:17:00,2025-04-06T07:19:00,3.00
18,California,2025-04-06T19:37:00,2025-04-06T19:38:00,2.00
18,California,2025-04-07T07:17:00,2025-04-07T07:18:00,2.00
18,California,2025-04-07T19:36:00,2025-04-07T19:38:00,3.00
18,California,2025-04-08T19:36:00,2025-04-08T19:37:00,2.00
18,California,2025-04-09T19:35:00,2025-04-09T19:37:00,3.00
18,California,2025-04-10T19:35:00,2025-04-10T19:37:00,3.00
18,California,2025-04-11T19:35:00,2025-04-11T19:36:00,2.00
19,California,2025-03-30T21:06:00,2025-03-30T21:08:00,3.00
19,California,2025-03-31T21:06:00,2025-03-31T21:07:00,2.00
19,California,2025-04-01T21:06:00,2025-04-01T21:06:00,1.00
19,California,2025-04-03T07:09:00,2025-04-03T07:10:00,2.00
19,California,2025-04-04T07:08:00,2025-04-04T07:10:00,3.00
19,California,2025-04-05T07:08:00,2025-04-05T07:09:00,2.00
19,California,2025-04-06T07:07:00,2025-04-06T07:09:00,3.00
19,California,2025-04-07T07:07:00,2025-04-07T07:09:00,3.00
19,California,2025-04-07T19:27:00,2025-04-07T19:28:00,2.00
19,California,2025-04-08T07:07:00,2025-04-08T07:08:00,2.00
19,California,2025-04-08T19:26:00,2025-04-08T19:28:00,3.00
19,California,2025-04-09T19:26:00,2025-04-09T19:27:00,2.00
19,California,2025-04-10T19:25:00,2025-04-10T19:27:00,3.00
19,California,2025-04-11T19:25:00,2025-04-11T19:27:00,3.00
19,California,2025-04-12T19:25:00,2025-04-12T19:26:00,2.00
20,California,2025-03-30T08:35:00,2025-03-30T08:37:00,3.00
20,California,2025-03-30T22:32:00,2025-03-30T22:33:00,2.00
20,California,2025-03-31T08:35:00,2025-03-31T08:36:00,2.00
20,California,2025-03-31T22:31:00,2025-03-31T22:33:00,3.00
20,California,2025-04-01T08:34:00,2025-04-01T08:35:00,2.00
20,California,2025-04-01T22:31:00,2025-04-01T22:32:00,2.00
20,California,2025-04-05T06:54:00,2025-04-05T06:55:00,2.00
20,California,2025-04-05T20:51:00,2025-04-05T20:51:00,1.00
20,California,2025-04-06T06:53:00,2025-04-06T06:55:00,3.00
20,California,2025-04-06T20:50:00,2025-04-06T20:51:00,2.00
20,California,2025-04-07T06:53:00,2025-04-07T06:54:00,2.00
20,California,2025-04-07T20:49:00,2025-04-07T20:51:00,3.00
20,California,2025-04-08T06:52:00,2025-04-08T06:54:00,3.00
20,California,2025-04-08T20:49:00,2025-04-08T20:50:00,2.00
20,California,2025-04-09T20:49:00,2025-04-09T20:49:00,1.00
21,California,2025-03-30T08:26:00,2025-03-30T08:27:00,2.00
21,California,2025-03-30T22:22:00,2025-03-30T22:23:00,2.00
21,California,2025-03-31T08:25:00,2025-03-31T08:27:00,3.00
21,California,2025-03-31T22:21:00,2025-03-31T22:23:00,3.00
21,California,2025-04-01T08:24:00,2025-04-01T08:26:00,3.00
21,California,2025-04-01T22:21:00,2025-04-01T22:23:00,3.00
21,California,2025-04-02T08:24:00,2025-04-02T08:25:00,2.00
21,California,2025-04-02T22:21:00,2025-04-02T22:22:00,2.00
21,California,2025-04-06T06:44:00,2025-04-06T06:45:00,2.00
21,California,2025-04-06T20:41:00,2025-04-06T20:41:00,1.00
21,California,2025-04-07T06:43:00,2025-04-07T06:45:00,3.00
21,California,2025-04-07T20:39:00,2025-04-07T20:41:00,3.00
21,California,2025-04-08T06:42:00,2025-04-08T06:44:00,3.00
21,California,2025-04-08T20:39:00,2025-04-08T20:41:00,3.00
21,California,2025-04-09T06:42:00,2025-04-09T06:43:00,2.00
21,California,2025-04-09T20:39:00,2025-04-09T20:40:00,2.00
22,California,2025-03-30T08:16:00,2025-03-30T08:17:00,2.00
22,California,2025-03-30T22:13:00,2025-03-30T22:13:00,1.00
22,California,2025-03-31T08:15:00,2025-03-31T08:17:00,3.00
22,California,2025-03-31T22:12:00,2025-03-31T22:13:00,2.00
22,California,2025-04-01T08:14:00,2025-04-01T08:16:00,3.00
22,California,2025-04-01T22:11:00,2025-04-01T22:13:00,3.00
22,California,2025-04-02T08:14:00,2025-04-02T08:16:00,3.00
22,California,2025-04-02T22:11:00,2025-04-02T22:12:00,2.00
22,California,2025-04-03T08:14:00,2025-04-03T08:14:00,1.00
22,California,2025-04-03T22:11:00,2025-04-03T22:11:00,1.00
22,California,2025-04-07T06:33:00,2025-04-07T06:35:00,3.00
22,California,2025-04-07T20:30:00,2025-04-07T20:31:00,2.00
22,California,2025-04-08T06:32:00,2025-04-08T06:34:00,3.00
22,California,2025-04-08T20:29:00,2025-04-08T20:31:00,3.00
22,California,2025-04-09T06:32:00,2025-04-09T06:34:00,3.00
22,California,2025-04-09T20:28:00,2025-04-09T20:30:00,3.00
22,California,2025-04-10T06:32:00,2025-04-10T06:33:00,2.00
22,California,2025-04-10T20:28:00,2025-04-10T20:29:00,2.00
23,California,2025-03-31T08:06:00,2025-03-31T08:06:00,1.00
23,California,2025-03-31T22:02:00,2025-03-31T22:03:00,2.00
23,California,2025-04-01T08:05:00,2025-04-01T08:06:00,2.00
23,California,2025-04-01T22:01:00,2025-04-01T22:03:00,3.00
23,California,2025-04-02T08:04:00,2025-04-02T08:06:00,3.00
23,California,2025-04-02T22:01:00,2025-04-02T22:02:00,2.00
23,California,2025-04-03T08:04:00,2025-04-03T08:05:00,2.00
23,California,2025-04-03T22:00:00,2025-04-03T22:02:00,3.00
23,California,2025-04-07T06:24:00,2025-04-07T06:24:00,1.00
23,California,2025-04-08T06:23:00,2025-04-08T06:24:00,2.00
23,California,2025-04-08T20:19:00,2025-04-08T20:21:00,3.00
23,California,2025-04-09T06:22:00,2025-04-09T06:24:00,3.00
23,California,2025-04-09T20:19:00,2025-04-09T20:21:00,3.00
23,California,2025-04-10T06:22:00,2025-04-10T06:23:00,2.00
23,California,2025-04-10T20:18:00,2025-04-10T20:20:00,3.00
23,California,2025-04-11T06:22:00,2025-04-11T06:22:00,1.00
23,California,2025-04-11T20:18:00,2025-04-11T20:19:00,2.00
24,California,2025-04-01T07:55:00,2025-04-01T07:56:00,2.00
24,California,2025-04-01T21:52:00,2025-04-01T21:53:00,2.00
24,California,2025-04-02T07:54:00,2025-04-02T07:56:00,3.00
24,California,2025-04-02T21:51:00,2025-04-02T21:53:00,3.00
24,California,2025-04-03T07:54:00,2025-04-03T07:55:00,2.00
24,California,2025-04-03T21:50:00,2025-04-03T21:52:00,3.00
24,California,2025-04-04T07:54:00,2025-04-04T07:55:00,2.00
24,California,2025-04-04T21:50:00,2025-04-04T21:51:00,2.00
24,California,2025-04-08T06:13:00,2025-04-08T06:14:00,2.00
24,California,2025-04-08T20:10:00,2025-04-08T20:11:00,2.00
24,California,2025-04-09T06:12:00,2025-04-09T06:14:00,3.00
24,California,2025-04-09T20:09:00,2025-04-09T20:11:00,3.00
24,California,2025-04-10T06:12:00,2025-04-10T06:14:00,3.00
24,California,2025-04-10T20:08:00,2025-04-10T20:10:00,3.00
24,California,2025-04-11T06:11:00,2025-04-11T06:13:00,3.00
24,California,2025-04-11T20:08:00,2025-04-11T20:09:00,2.00
24,California,2025-04-12T20:08:00,2025-04-12T20:08:00,1.00
25,California,2025-04-02T07:45:00,2025-04-02T07:46:00,2.00
25,California,2025-04-02T21:41:00,2025-04-02T21:43:00,3.00
25,California,2025-04-03T07:44:00,2025-04-03T07:46:00,3.00
25,California,2025-04-03T21:40:00,2025-04-03T21:42:00,3.00
25,California,2025-04-04T07:43:00,2025-04-04T07:45:00,3.00
25,California,2025-04-04T21:40:00,2025-04-04T21:42:00,3.00
25,California,2025-04-05T07:43:00,2025-04-05T07:44:00,2.00
25,California,2025-04-05T21:40:00,2025-04-05T21:41:00,2.00
25,California,2025-04-09T06:03:00,2025-04-09T06:04:00,2.00
25,California,2025-04-09T20:00:00,2025-04-09T20:00:00,1.00
25,California,2025-04-10T06:02:00,2025-04-10T06:04:00,3.00
25,California,2025-04-10T19:59:00,2025-04-10T20:00:00,2.00
25,California,2025-04-11T06:01:00,2025-04-11T06:03:00,3.00
25,California,2025-04-11T19:58:00,2025-04-11T20:00:00,3.00
25,California,2025-04-12T06:01:00,2025-04-12T06:02:00,2.00
25,California,2025-04-12T19:58:00,2025-04-12T19:59:00,2.00
26,California,2025-04-02T07:35:00,2025-04-02T07:36:00,2.00
26,California,2025-04-02T21:32:00,2025-04-02T21:32:00,1.00
26,California,2025-04-03T07:34:00,2025-04-03T07:36:00,3.00
26,California,2025-04-03T21:31:00,2025-04-03T21:32:00,2.00
26,California,2025-04-04T07:34:00,2025-04-04T07:35:00,2.00
26,California,2025-04-04T21:30:00,2025-04-04T21:32:00,3.00
26,California,2025-04-05T07:33:00,2025-04-05T07:35:00,3.00
26,California,2025-04-05T21:30:00,2025-04-05T21:31:00,2.00
26,California,2025-04-06T07:33:00,2025-04-06T07:33:00,1.00
26,California,2025-04-06T21:30:00,2025-04-06T21:30:00,1.00
26,California,2025-04-10T05:52:00,2025-04-10T05:54:00,3.00
26,California,2025-04-10T19:49:00,2025-04-10T19:50:00,2.00
26,California,2025-04-11T05:52:00,2025-04-11T05:53:00,2.00
26,California,2025-04-11T19:48:00,2025-04-11T19:50:00,3.00
26,California,2025-04-12T05:51:00,2025-04-12T05:53:00,3.00
26,California,2025-04-12T19:48:00,2025-04-12T19:49:00,2.00
27,California,2025-03-30T09:05:00,2025-03-30T09:06:00,2.00
27,California,2025-03-30T23:02:00,2025-03-30T23:03:00,2.00
27,California,2025-04-03T07:25:00,2025-04-03T07:26:00,2.00
27,California,2025-04-03T21:21:00,2025-04-03T21:22:00,2.00
27,California,2025-04-04T07:24:00,2025-04-04T07:26:00,3.00
27,California,2025-04-04T21:20:00,2025-04-04T21:22:00,3.00
27,California,2025-04-05T07:23:00,2025-04-05T07:25:00,3.00
27,California,2025-04-05T21:20:00,2025-04-05T21:22:00,3.00
27,California,2025-04-06T07:23:00,2025-04-06T07:24:00,2.00
27,California,2025-04-06T21:19:00,2025-04-06T21:21:00,3.00
27,California,2025-04-10T05:43:00,2025-04-10T05:43:00,1.00
27,California,2025-04-10T19:40:00,2025-04-10T19:40:00,1.00
27,California,2025-04-11T05:42:00,2025-04-11T05:43:00,2.00
27,California,2025-04-11T19:39:00,2025-04-11T19:40:00,2.00
27,California,2025-04-12T05:41:00,2025-04-12T05:43:00,3.00
27,California,2025-04-12T19:38:00,2025-04-12T19:40:00,3.00
28,California,2025-03-30T08:55:00,2025-03-30T08:56:00,2.00
28,California,2025-03-30T22:51:00,2025-03-30T22:53:00,3.00
28,California,2025-03-31T08:55:00,2025-03-31T08:55:00,1.00
28,California,2025-03-31T22:51:00,2025-03-31T22:52:00,2.00
28,California,2025-04-04T07:14:00,2025-04-04T07:15:00,2.00
28,California,2025-04-04T21:11:00,2025-04-04T21:12:00,2.00
28,California,2025-04-05T07:13:00,2025-04-05T07:15:00,3.00
28,California,2025-04-05T21:10:00,2025-04-05T21:12:00,3.00
28,California,2025-04-06T07:13:00,2025-04-06T07:15:00,3.00
28,California,2025-04-06T21:09:00,2025-04-06T21:11:00,3.00
28,California,2025-04-07T07:13:00,2025-04-07T07:14:00,2.00
28,California,2025-04-07T21:09:00,2025-04-07T21:10:00,2.00
28,California,2025-04-11T05:32:00,2025-04-11T05:33:00,2.00
28,California,2025-04-11T19:29:00,2025-04-11T19:30:00,2.00
28,California,2025-04-12T05:31:00,2025-04-12T05:33:00,3.00
28,California,2025-04-12T19:28:00,2025-04-12T19:30:00,3.00
29,California,2025-03-30T08:45:00,2025-03-30T08:47:00,3.00
29,California,2025-03-30T22:41:00,2025-03-30T22:43:00,3.00
29,California,2025-03-31T08:45:00,2025-03-31T08:46:00,2.00
29,California,2025-03-31T22:41:00,2025-03-31T22:43:00,3.00
29,California,2025-04-01T22:41:00,2025-04-01T22:41:00,1.00
29,California,2025-04-04T07:05:00,2025-04-04T07:05:00,1.00
29,California,2025-04-05T07:04:00,2025-04-05T07:05:00,2.00
29,California,2025-04-05T21:00:00,2025-04-05T21:02:00,3.00
29,California,2025-04-06T07:03:00,2025-04-06T07:05:00,3.00
29,California,2025-04-06T21:00:00,2025-04-06T21:01:00,2.00
29,California,2025-04-07T07:03:00,2025-04-07T07:04:00,2.00
29,California,2025-04-07T20:59:00,2025-04-07T21:01:00,3.00
29,California,2025-04-08T07:03:00,2025-04-08T07:03:00,1.00
29,California,2025-04-08T20:59:00,2025-04-08T21:00:00,2.00
29,California,2025-04-12T05:22:00,2025-04-12T05:23:00,2.00
29,California,2025-04-12T19:19:00,2025-04-12T19:20:00,2.00
30,California,2025-03-30T00:08:00,2025-03-30T00:10:00,3.00
30,California,2025-03-30T10:11:00,2025-03-30T10:13:00,3.00
30,California,2025-03-31T00:08:00,2025-03-31T00:09:00,2.00
30,California,2025-04-03T08:32:00,2025-04-03T08:32:00,1.00
30,California,2025-04-04T08:30:00,2025-04-04T08:32:00,3.00
30,California,2025-04-04T22:27:00,2025-04-04T22:29:00,3.00
30,California,2025-04-05T08:30:00,2025-04-05T08:32:00,3.00
30,California,2025-04-05T22:26:00,2025-04-05T22:28:00,3.00
30,California,2025-04-06T08:29:00,2025-04-06T08:31:00,3.00
30,California,2025-04-06T22:26:00,2025-04-06T22:27:00,2.00
30,California,2025-04-07T08:29:00,2025-04-07T08:30:00,2.00
30,California,2025-04-07T22:26:00,2025-04-07T22:26:00,1.00
30,California,2025-04-11T06:49:00,2025-04-11T06:50:00,2.00
30,California,2025-04-11T20:45:00,2025-04-11T20:46:00,2.00
30,California,2025-04-12T06:48:00,2025-04-12T06:50:00,3.00
30,California,2025-04-12T20:44:00,2025-04-12T20:46:00,3.00
31,California,2025-03-30T00:00:00,2025-03-30T00:00:00,1.00
31,California,2025-03-30T10:01:00,2025-03-30T10:03:00,3.00
31,California,2025-03-30T23:58:00,2025-03-31T00:00:00,3.00
31,California,2025-03-31T10:01:00,2025-03-31T10:02:00,2.00
31,California,2025-03-31T23:58:00,2025-03-31T23:59:00,2.00
31,California,2025-04-04T08:21:00,2025-04-04T08:22:00,2.00
31,California,2025-04-04T22:18:00,2025-04-04T22:18:00,1.00
31,California,2025-04-05T08:20:00,2025-04-05T08:22:00,3.00
31,California,2025-04-05T22:17:00,2025-04-05T22:18:00,2.00
31,California,2025-04-06T08:19:00,2025-04-06T08:21:00,3.00
31,California,2025-04-06T22:16:00,2025-04-06T22:18:00,3.00
31,California,2025-04-07T08:19:00,2025-04-07T08:20:00,2.00
31,California,2025-04-07T22:16:00,2025-04-07T22:17:00,2.00
31,California,2025-04-11T06:39:00,2025-04-11T06:39:00,1.00
31,California,2025-04-12T06:38:00,2025-04-12T06:40:00,3.00
31,California,2025-04-12T20:35:00,2025-04-12T20:36:00,2.00
32,California,2025-03-30T09:52:00,2025-03-30T09:53:00,2.00
32,California,2025-03-30T23:48:00,2025-03-30T23:50:00,3.00
32,California,2025-03-31T09:51:00,2025-03-31T09:53:00,3.00
32,California,2025-03-31T23:48:00,2025-03-31T23:49:00,2.00
32,California,2025-04-01T09:51:00,2025-04-01T09:51:00,1.00
32,California,2025-04-01T23:48:00,2025-04-01T23:48:00,1.00
32,California,2025-04-05T08:10:00,2025-04-05T08:12:00,3.00
32,California,2025-04-05T22:07:00,2025-04-05T22:08:00,2.00
32,California,2025-04-06T08:10:00,2025-04-06T08:11:00,2.00
32,California,2025-04-06T22:06:00,2025-04-06T22:08:00,3.00
32,California,2025-04-07T08:09:00,2025-04-07T08:11:00,3.00
32,California,2025-04-07T22:06:00,2025-04-07T22:07:00,2.00
32,California,2025-04-08T08:09:00,2025-04-08T08:10:00,2.00
32,California,2025-04-08T22:05:00,2025-04-08T22:07:00,3.00
32,California,2025-04-12T06:29:00,2025-04-12T06:29:00,1.00
32,California,2025-04-12T20:26:00,2025-04-12T20:26:00,1.00
33,California,2025-03-30T09:42:00,2025-03-30T09:43:00,2.00
33,California,2025-03-30T23:38:00,2025-03-30T23:40:00,3.00
33,California,2025-03-31T09:41:00,2025-03-31T09:43:00,3.00
33,California,2025-03-31T23:38:00,2025-03-31T23:40:00,3.00
33,California,2025-04-01T09:41:00,2025-04-01T09:42:00,2.00
33,California,2025-04-01T23:37:00,2025-04-01T23:39:00,3.00
33,California,2025-04-02T09:41:00,2025-04-02T09:41:00,1.00
33,California,2025-04-02T23:38:00,2025-04-02T23:38:00,1.00
33,California,2025-04-06T08:00:00,2025-04-06T08:01:00,2.00
33,California,2025-04-06T21:57:00,2025-04-06T21:58:00,2.00
33,California,2025-04-07T07:59:00,2025-04-07T08:01:00,3.00
33,California,2025-04-07T21:56:00,2025-04-07T21:58:00,3.00
33,California,2025-04-08T07:59:00,2025-04-08T08:00:00,2.00
33,California,2025-04-08T21:55:00,2025-04-08T21:57:00,3.00
33,California,2025-04-09T07:59:00,2025-04-09T07:59:00,1.00
33,California,2025-04-09T21:55:00,2025-04-09T21:56:00,2.00
34,California,2025-03-30T09:32:00,2025-03-30T09:33:00,2.00
34,California,2025-03-30T23:29:00,2025-03-30T23:30:00,2.00
34,California,2025-03-31T09:31:00,2025-03-31T09:33:00,3.00
34,California,2025-03-31T23:28:00,2025-03-31T23:30:00,3.00
34,California,2025-04-01T09:31:00,2025-04-01T09:33:00,3.00
34,California,2025-04-01T23:27:00,2025-04-01T23:29:00,3.00
34,California,2025-04-02T09:31:00,2025-04-02T09:32:00,2.00
34,California,2025-04-02T23:27:00,2025-04-02T23:28:00,2.00
34,California,2025-04-06T07:51:00,2025-04-06T07:51:00,1.00
34,California,2025-04-07T07:50:00,2025-04-07T07:51:00,2.00
34,California,2025-04-07T21:46:00,2025-04-07T21:48:00,3.00
34,California,2025-04-08T07:49:00,2025-04-08T07:51:00,3.00
34,California,2025-04-08T21:45:00,2025-04-08T21:47:00,3.00
34,California,2025-04-09T07:48:00,2025-04-09T07:50:00,3.00
34,California,2025-04-09T21:45:00,2025-04-09T21:47:00,3.00
34,California,2025-04-10T21:45:00,2025-04-10T21:45:00,1.00
35,California,2025-03-31T09:22:00,2025-03-31T09:23:00,2.00
35,California,2025-03-31T23:18:00,2025-03-31T23:20:00,3.00
35,California,2025-04-01T09:21:00,2025-04-01T09:23:00,3.00
35,California,2025-04-01T23:18:00,2025-04-01T23:19:00,2.00
35,California,2025-04-02T09:20:00,2025-04-02T09:22:00,3.00
35,California,2025-04-02T23:17:00,2025-04-02T23:19:00,3.00
35,California,2025-04-03T09:20:00,2025-04-03T09:21:00,2.00
35,California,2025-04-03T23:17:00,2025-04-03T23:18:00,2.00
35,California,2025-04-07T07:40:00,2025-04-07T07:41:00,2.00
35,California,2025-04-07T21:37:00,2025-04-07T21:37:00,1.00
35,California,2025-04-08T07:39:00,2025-04-08T07:41:00,3.00
35,California,2025-04-08T21:36:00,2025-04-08T21:37:00,2.00
35,California,2025-04-09T07:38:00,2025-04-09T07:40:00,3.00
35,California,2025-04-09T21:35:00,2025-04-09T21:37:00,3.00
35,California,2025-04-10T07:38:00,2025-04-10T07:39:00,2.00
35,California,2025-04-10T21:35:00,2025-04-10T21:36:00,2.00
36,California,2025-03-31T09:13:00,2025-03-31T09:13:00,1.00
36,California,2025-04-01T09:11:00,2025-04-01T09:13:00,3.00
36,California,2025-04-01T23:08:00,2025-04-01T23:09:00,2.00
36,California,2025-04-02T09:11:00,2025-04-02T09:12:00,2.00
36,California,2025-04-02T23:07:00,2025-04-02T23:09:00,3.00
36,California,2025-04-03T09:10:00,2025-04-03T09:12:00,3.00
36,California,2025-04-03T23:07:00,2025-04-03T23:08:00,2.00
36,California,2025-04-04T09:10:00,2025-04-04T09:11:00,2.00
36,California,2025-04-04T23:07:00,2025-04-04T23:07:00,1.00
36,California,2025-04-08T07:30:00,2025-04-08T07:31:00,2.00
36,California,2025-04-08T21:26:00,2025-04-08T21:27:00,2.00
36,California,2025-04-09T07:29:00,2025-04-09T07:31:00,3.00
36,California,2025-04-09T21:25:00,2025-04-09T21:27:00,3.00
36,California,2025-04-10T07:28:00,2025-04-10T07:30:00,3.00
36,California,2025-04-10T21:25:00,2025-04-10T21:27:00,3.00
36,California,2025-04-11T07:28:00,2025-04-11T07:29:00,2.00
36,California,2025-04-11T21:25:00,2025-04-11T21:26:00,2.00
37,California,2025-04-01T09:02:00,2025-04-01T09:03:00,2.00
37,California,2025-04-01T22:59:00,2025-04-01T22:59:00,1.00
37,California,2025-04-02T09:01:00,2025-04-02T09:03:00,3.00
37,California,2025-04-02T22:58:00,2025-04-02T22:59:00,2.00
37,California,2025-04-03T09:00:00,2025-04-03T09:02:00,3.00
37,California,2025-04-03T22:57:00,2025-04-03T22:59:00,3.00
37,California,2025-04-04T09:00:00,2025-04-04T09:01:00,2.00
37,California,2025-04-04T22:56:00,2025-04-04T22:58:00,3.00
37,California,2025-04-05T22:57:00,2025-04-05T22:57:00,1.00
37,California,2025-04-09T07:19:00,2025-04-09T07:21:00,3.00
37,California,2025-04-09T21:16:00,2025-04-09T21:17:00,2.00
37,California,2025-04-10T07:18:00,2025-04-10T07:20:00,3.00
37,California,2025-04-10T21:15:00,2025-04-10T21:17:00,3.00
37,California,2025-04-11T07:18:00,2025-04-11T07:19:00,2.00
37,California,2025-04-11T21:14:00,2025-04-11T21:16:00,3.00
37,California,2025-04-12T07:18:00,2025-04-12T07:18:00,1.00
37,California,2025-04-12T21:14:00,2025-04-12T21:15:00,2.00
38,California,2025-03-30T00:28:00,2025-03-30T00:29:00,2.00
38,California,2025-04-02T08:51:00,2025-04-02T08:52:00,2.00
38,California,2025-04-02T22:48:00,2025-04-02T22:49:00,2.00
38,California,2025-04-03T08:50:00,2025-04-03T08:52:00,3.00
38,California,2025-04-03T22:47:00,2025-04-03T22:49:00,3.00
38,California,2025-04-04T08:50:00,2025-04-04T08:52:00,3.00
38,California,2025-04-04T22:46:00,2025-04-04T22:48:00,3.00
38,California,2025-04-05T08:50:00,2025-04-05T08:51:00,2.00
38,California,2025-04-05T22:46:00,2025-04-05T22:47:00,2.00
38,California,2025-04-09T07:10:00,2025-04-09T07:10:00,1.00
38,California,2025-04-09T21:07:00,2025-04-09T21:07:00,1.00
38,California,2025-04-10T07:09:00,2025-04-10T07:10:00,2.00
38,California,2025-04-10T21:05:00,2025-04-10T21:07:00,3.00
38,California,2025-04-11T07:08:00,2025-04-11T07:10:00,3.00
38,California,2025-04-11T21:04:00,2025-04-11T21:06:00,3.00
38,California,2025-04-12T07:08:00,2025-04-12T07:09:00,2.00
38,California,2025-04-12T21:04:00,2025-04-12T21:06:00,3.00
39,California,2025-03-30T00:18:00,2025-03-30T00:20:00,3.00
39,California,2025-03-30T10:22:00,2025-03-30T10:22:00,1.00
39,California,2025-03-31T00:18:00,2025-03-31T00:19:00,2.00
39,California,2025-04-03T08:41:00,2025-04-03T08:42:00,2.00
39,California,2025-04-03T22:38:00,2025-04-03T22:39:00,2.00
39,California,2025-04-04T08:40:00,2025-04-04T08:42:00,3.00
39,California,2025-04-04T22:37:00,2025-04-04T22:39:00,3.00
39,California,2025-04-05T08:40:00,2025-04-05T08:41:00,2.00
39,California,2025-04-05T22:36:00,2025-04-05T22:38:00,3.00
39,California,2025-04-06T08:39:00,2025-04-06T08:40:00,2.00
39,California,2025-04-06T22:36:00,2025-04-06T22:37:00,2.00
39,California,2025-04-10T06:59:00,2025-04-10T07:00:00,2.00
39,California,2025-04-10T20:56:00,2025-04-10T20:57:00,2.00
39,California,2025-04-11T06:58:00,2025-04-11T07:00:00,3.00
39,California,2025-04-11T20:55:00,2025-04-11T20:57:00,3.00
39,California,2025-04-12T06:58:00,2025-04-12T06:59:00,2.00
39,California,2025-04-12T20:54:00,2025-04-12T20:56:00,3.00
40,California,2025-03-30T01:45:00,2025-03-30T01:45:00,1.00
40,California,2025-04-01T10:09:00,2025-04-01T10:09:00,1.00
40,California,2025-04-02T10:08:00,2025-04-02T10:09:00,2.00
40,California,2025-04-03T00:04:00,2025-04-03T00:06:00,3.00
40,California,2025-04-03T10:07:00,2025-04-03T10:09:00,3.00
40,California,2025-04-04T00:03:00,2025-04-04T00:05:00,3.00
40,California,2025-04-04T10:06:00,2025-04-04T10:08:00,3.00
40,California,2025-04-05T00:03:00,2025-04-05T00:05:00,3.00
40,California,2025-04-05T10:06:00,2025-04-05T10:07:00,2.00
40,California,2025-04-06T00:03:00,2025-04-06T00:04:00,2.00
40,California,2025-04-09T08:26:00,2025-04-09T08:27:00,2.00
40,California,2025-04-09T22:23:00,2025-04-09T22:23:00,1.00
40,California,2025-04-10T08:25:00,2025-04-10T08:27:00,3.00
40,California,2025-04-10T22:21:00,2025-04-10T22:23:00,3.00
40,California,2025-04-11T08:24:00,2025-04-11T08:26:00,3.00
40,California,2025-04-11T22:21:00,2025-04-11T22:23:00,3.00
40,California,2025-04-12T08:24:00,2025-04-12T08:25:00,2.00
40,California,2025-04-12T22:21:00,2025-04-12T22:22:00,2.00
41,California,2025-03-30T01:35:00,2025-03-30T01:36:00,2.00
41,California,2025-04-02T09:58:00,2025-04-02T09:59:00,2.00
41,California,2025-04-02T23:55:00,2025-04-02T23:55:00,1.00
41,California,2025-04-03T09:57:00,2025-04-03T09:59:00,3.00
41,California,2025-04-03T23:54:00,2025-04-03T23:55:00,2.00
41,California,2025-04-04T09:56:00,2025-04-04T09:58:00,3.00
41,California,2025-04-04T23:53:00,2025-04-04T23:55:00,3.00
41,California,2025-04-05T09:56:00,2025-04-05T09:58:00,3.00
41,California,2025-04-05T23:53:00,2025-04-05T23:54:00,2.00
41,California,2025-04-06T09:56:00,2025-04-06T09:56:00,1.00
41,California,2025-04-06T23:53:00,2025-04-06T23:53:00,1.00
41,California,2025-04-10T08:15:00,2025-04-10T08:17:00,3.00
41,California,2025-04-10T22:12:00,2025-04-10T22:13:00,2.00
41,California,2025-04-11T08:15:00,2025-04-11T08:16:00,2.00
41,California,2025-04-11T22:11:00,2025-04-11T22:13:00,3.00
41,California,2025-04-12T08:14:00,2025-04-12T08:16:00,3.00
41,California,2025-04-12T22:11:00,2025-04-12T22:12:00,2.00
42,California,2025-03-30T01:25:00,2025-03-30T01:26:00,2.00
42,California,2025-03-30T11:28:00,2025-03-30T11:29:00,2.00
42,California,2025-03-31T01:25:00,2025-03-31T01:25:00,1.00
42,California,2025-04-03T09:48:00,2025-04-03T09:49:00,2.00
42,California,2025-04-03T23:44:00,2025-04-03T23:45:00,2.00
42,California,2025-04-04T09:47:00,2025-04-04T09:48:00,2.00
42,California,2025-04-04T23:43:00,2025-04-04T23:45:00,3.00
42,California,2025-04-05T09:46:00,2025-04-05T09:48:00,3.00
42,California,2025-04-05T23:43:00,2025-04-05T23:45:00,3.00
42,California,2025-04-06T09:46:00,2025-04-06T09:47:00,2.00
42,California,2025-04-06T23:42:00,2025-04-06T23:44:00,3.00
42,California,2025-04-10T08:06:00,2025-04-10T08:06:00,1.00
42,California,2025-04-10T22:03:00,2025-04-10T22:03:00,1.00
42,California,2025-04-11T08:05:00,2025-04-11T08:06:00,2.00
42,California,2025-04-11T22:01:00,2025-04-11T22:03:00,3.00
42,California,2025-04-12T08:04:00,2025-04-12T08:06:00,3.00
42,California,2025-04-12T22:01:00,2025-04-12T22:03:00,3.00
43,California,2025-03-30T01:15:00,2025-03-30T01:17:00,3.00
43,California,2025-03-30T11:18:00,2025-03-30T11:19:00,2.00
43,California,2025-03-31T01:14:00,2025-03-31T01:16:00,3.00
43,California,2025-03-31T11:18:00,2025-03-31T11:18:00,1.00
43,California,2025-04-01T01:14:00,2025-04-01T01:15:00,2.00
43,California,2025-04-04T09:37:00,2025-04-04T09:38:00,2.00
43,California,2025-04-04T23:34:00,2025-04-04T23:35:00,2.00
43,California,2025-04-05T09:36:00,2025-04-05T09:38:00,3.00
43,California,2025-04-05T23:33:00,2025-04-05T23:35:00,3.00
43,California,2025-04-06T09:36:00,2025-04-06T09:38:00,3.00
43,California,2025-04-06T23:32:00,2025-04-06T23:34:00,3.00
43,California,2025-04-07T09:36:00,2025-04-07T09:37:00,2.00
43,California,2025-04-07T23:32:00,2025-04-07T23:33:00,2.00
43,California,2025-04-11T07:55:00,2025-04-11T07:56:00,2.00
43,California,2025-04-11T21:52:00,2025-04-11T21:53:00,2.00
43,California,2025-04-12T07:54:00,2025-04-12T07:56:00,3.00
43,California,2025-04-12T21:51:00,2025-04-12T21:53:00,3.00
44,California,2025-03-30T01:05:00,2025-03-30T01:07:00,3.00
44,California,2025-03-30T11:08:00,2025-03-30T11:10:00,3.00
44,California,2025-03-31T01:04:00,2025-03-31T01:06:00,3.00
44,California,2025-03-31T11:08:00,2025-03-31T11:09:00,2.00
44,California,2025-04-01T01:04:00,2025-04-01T01:06:00,3.00
44,California,2025-04-04T09:28:00,2025-04-04T09:28:00,1.00
44,California,2025-04-05T09:27:00,2025-04-05T09:28:00,2.00
44,California,2025-04-05T23:23:00,2025-04-05T23:25:00,3.00
44,California,2025-04-06T09:26:00,2025-04-06T09:28:00,3.00
44,California,2025-04-06T23:22:00,2025-04-06T23:24:00,3.00
44,California,2025-04-07T09:25:00,2025-04-07T09:27:00,3.00
44,California,2025-04-07T23:22:00,2025-04-07T23:24:00,3.00
44,California,2025-04-08T09:26:00,2025-04-08T09:26:00,1.00
44,California,2025-04-08T23:22:00,2025-04-08T23:23:00,2.00
44,California,2025-04-12T07:45:00,2025-04-12T07:46:00,2.00
44,California,2025-04-12T21:42:00,2025-04-12T21:43:00,2.00
45,California,2025-03-30T00:56:00,2025-03-30T00:57:00,2.00
45,California,2025-03-30T10:58:00,2025-03-30T11:00:00,3.00
45,California,2025-03-31T00:55:00,2025-03-31T00:56:00,2.00
45,California,2025-03-31T10:58:00,2025-03-31T10:59:00,2.00
45,California,2025-04-01T00:54:00,2025-04-01T00:56:00,3.00
45,California,2025-04-01T10:57:00,2025-04-01T10:58:00,2.00
45,California,2025-04-02T00:54:00,2025-04-02T00:55:00,2.00
45,California,2025-04-05T09:17:00,2025-04-05T09:18:00,2.00
45,California,2025-04-05T23:14:00,2025-04-05T23:14:00,1.00
45,California,2025-04-06T09:16:00,2025-04-06T09:18:00,3.00
45,California,2025-04-06T23:13:00,2025-04-06T23:14:00,2.00
45,California,2025-04-07T09:16:00,2025-04-07T09:17:00,2.00
45,California,2025-04-07T23:12:00,2025-04-07T23:14:00,3.00
45,California,2025-04-08T09:15:00,2025-04-08T09:17:00,3.00
45,California,2025-04-08T23:12:00,2025-04-08T23:13:00,2.00
45,California,2025-04-09T23:12:00,2025-04-09T23:12:00,1.00
46,California,2025-03-30T10:49:00,2025-03-30T10:50:00,2.00
46,California,2025-03-31T00:45:00,2025-03-31T00:46:00,2.00
46,California,2025-03-31T10:48:00,2025-03-31T10:50:00,3.00
46,California,2025-04-01T00:44:00,2025-04-01T00:46:00,3.00
46,California,2025-04-01T10:47:00,2025-04-01T10:49:00,3.00
46,California,2025-04-02T00:44:00,2025-04-02T00:46:00,3.00
46,California,2025-04-02T10:47:00,2025-04-02T10:48:00,2.00
46,California,2025-04-03T00:44:00,2025-04-03T00:45:00,2.00
46,California,2025-04-06T09:07:00,2025-04-06T09:08:00,2.00
46,California,2025-04-06T23:03:00,2025-04-06T23:04:00,2.00
46,California,2025-04-07T09:06:00,2025-04-07T09:08:00,3.00
46,California,2025-04-07T23:02:00,2025-04-07T23:04:00,3.00
46,California,2025-04-08T09:05:00,2025-04-08T09:07:00,3.00
46,California,2025-04-08T23:02:00,2025-04-08T23:04:00,3.00
46,California,2025-04-09T09:05:00,2025-04-09T09:06:00,2.00
46,California,2025-04-09T23:02:00,2025-04-09T23:03:00,2.00
47,California,2025-03-30T10:39:00,2025-03-30T10:40:00,2.00
47,California,2025-03-31T00:36:00,2025-03-31T00:36:00,1.00
47,California,2025-03-31T10:38:00,2025-03-31T10:40:00,3.00
47,California,2025-04-01T00:35:00,2025-04-01T00:36:00,2.00
47,California,2025-04-01T10:37:00,2025-04-01T10:39:00,3.00
47,California,2025-04-02T00:34:00,2025-04-02T00:36:00,3.00
47,California,2025-04-02T10:37:00,2025-04-02T10:38:00,2.00
47,California,2025-04-03T00:33:00,2025-04-03T00:35:00,3.00
47,California,2025-04-03T10:37:00,2025-04-03T10:37:00,1.00
47,California,2025-04-04T00:34:00,2025-04-04T00:34:00,1.00
47,California,2025-04-07T08:56:00,2025-04-07T08:58:00,3.00
47,California,2025-04-07T22:53:00,2025-04-07T22:54:00,2.00
47,California,2025-04-08T08:55:00,2025-04-08T08:57:00,3.00
47,California,2025-04-08T22:52:00,2025-04-08T22:54:00,3.00
47,California,2025-04-09T08:55:00,2025-04-09T08:57:00,3.00
47,California,2025-04-09T22:51:00,2025-04-09T22:53:00,3.00
47,California,2025-04-10T08:55:00,2025-04-10T08:56:00,2.00
47,California,2025-04-10T22:51:00,2025-04-10T22:52:00,2.00
48,California,2025-03-31T10:29:00,2025-03-31T10:29:00,1.00
48,California,2025-04-01T00:25:00,2025-04-01T00:26:00,2.00
48,California,2025-04-01T10:28:00,2025-04-01T10:29:00,2.00
48,California,2025-04-02T00:24:00,2025-04-02T00:26:00,3.00
48,California,2025-04-02T10:27:00,2025-04-02T10:29:00,3.00
48,California,2025-04-03T00:24:00,2025-04-03T00:25:00,2.00
48,California,2025-04-03T10:27:00,2025-04-03T10:28:00,2.00
48,California,2025-04-04T00:23:00,2025-04-04T00:25:00,3.00
48,California,2025-04-07T08:47:00,2025-04-07T08:47:00,1.00
48,California,2025-04-08T08:46:00,2025-04-08T08:47:00,2.00
48,California,2025-04-08T22:42:00,2025-04-08T22:44:00,3.00
48,California,2025-04-09T08:45:00,2025-04-09T08:47:00,3.00
48,California,2025-04-09T22:42:00,2025-04-09T22:43:00,2.00
48,California,2025-04-10T08:45:00,2025-04-10T08:46:00,2.00
48,California,2025-04-10T22:41:00,2025-04-10T22:43:00,3.00
48,California,2025-04-11T08:45:00,2025-04-11T08:45:00,1.00
48,California,2025-04-11T22:41:00,2025-04-11T22:42:00,2.00
49,California,2025-04-01T10:18:00,2025-04-01T10:19:00,2.00
49,California,2025-04-02T00:15:00,2025-04-02T00:16:00,2.00
49,California,2025-04-02T10:17:00,2025-04-02T10:19:00,3.00
49,California,2025-04-03T00:14:00,2025-04-03T00:16:00,3.00
49,California,2025-04-03T10:17:00,2025-04-03T10:18:00,2.00
49,California,2025-04-04T00:13:00,2025-04-04T00:15:00,3.00
49,California,2025-04-04T10:16:00,2025-04-04T10:17:00,2.00
49,California,2025-04-05T00:13:00,2025-04-05T00:14:00,2.00
49,California,2025-04-08T08:36:00,2025-04-08T08:37:00,2.00
49,California,2025-04-08T22:33:00,2025-04-08T22:34:00,2.00
49,California,2025-04-09T08:35:00,2025-04-09T08:37:00,3.00
49,California,2025-04-09T22:32:00,2025-04-09T22:34:00,3.00
49,California,2025-04-10T08:35:00,2025-04-10T08:37:00,3.00
49,California,2025-04-10T22:31:00,2025-04-10T22:33:00,3.00
49,California,2025-04-11T08:34:00,2025-04-11T08:36:00,3.00
49,California,2025-04-11T22:31:00,2025-04-11T22:32:00,2.00
49,California,2025-04-12T22:31:00,2025-04-12T22:31:00,1.00
50,California,2025-03-31T11:45:00,2025-03-31T11:46:00,2.00
50,California,2025-04-01T01:41:00,2025-04-01T01:43:00,3.00
50,California,2025-04-01T11:44:00,2025-04-01T11:46:00,3.00
50,California,2025-04-02T01:41:00,2025-04-02T01:42:00,2.00
50,California,2025-04-02T11:43:00,2025-04-02T11:45:00,3.00
50,California,2025-04-03T01:40:00,2025-04-03T01:42:00,3.00
50,California,2025-04-03T11:43:00,2025-04-03T11:44:00,2.00
50,California,2025-04-04T01:40:00,2025-04-04T01:41:00,2.00
50,California,2025-04-07T10:03:00,2025-04-07T10:04:00,2.00
50,California,2025-04-08T00:00:00,2025-04-08T00:00:00,1.00
50,California,2025-04-08T10:02:00,2025-04-08T10:04:00,3.00
50,California,2025-04-08T23:59:00,2025-04-09T00:00:00,2.00
50,California,2025-04-09T10:01:00,2025-04-09T10:03:00,3.00
50,California,2025-04-09T23:58:00,2025-04-10T00:00:00,3.00
50,California,2025-04-10T10:01:00,2025-04-10T10:02:00,2.00
50,California,2025-04-10T23:58:00,2025-04-10T23:59:00,2.00
51,California,2025-03-31T11:36:00,2025-03-31T11:36:00,1.00
51,California,2025-04-01T11:34:00,2025-04-01T11:36:00,3.00
51,California,2025-04-02T01:31:00,2025-04-02T01:32:00,2.00
51,California,2025-04-02T11:34:00,2025-04-02T11:35:00,2.00
51,California,2025-04-03T01:30:00,2025-04-03T01:32:00,3.00
51,California,2025-04-03T11:33:00,2025-04-03T11:35:00,3.00
51,California,2025-04-04T01:30:00,2025-04-04T01:31:00,2.00
51,California,2025-04-04T11:33:00,2025-04-04T11:33:00,1.00
51,California,2025-04-05T01:30:00,2025-04-05T01:30:00,1.00
51,California,2025-04-08T09:53:00,2025-04-08T09:54:00,2.00
51,California,2025-04-08T23:49:00,2025-04-08T23:50:00,2.00
51,California,2025-04-09T09:52:00,2025-04-09T09:53:00,2.00
51,California,2025-04-09T23:48:00,2025-04-09T23:50:00,3.00
51,California,2025-04-10T09:51:00,2025-04-10T09:53:00,3.00
51,California,2025-04-10T23:48:00,2025-04-10T23:49:00,2.00
51,California,2025-04-11T09:51:00,2025-04-11T09:52:00,2.00
51,California,2025-04-11T23:47:00,2025-04-11T23:49:00,3.00
52,California,2025-04-01T11:25:00,2025-04-01T11:26:00,2.00
52,California,2025-04-02T01:22:00,2025-04-02T01:22:00,1.00
52,California,2025-04-02T11:24:00,2025-04-02T11:26:00,3.00
52,California,2025-04-03T01:20:00,2025-04-03T01:22:00,3.00
52,California,2025-04-03T11:23:00,2025-04-03T11:25:00,3.00
52,California,2025-04-04T01:20:00,2025-04-04T01:22:00,3.00
52,California,2025-04-04T11:23:00,2025-04-04T11:24:00,2.00
52,California,2025-04-05T01:19:00,2025-04-05T01:21:00,3.00
52,California,2025-04-08T09:43:00,2025-04-08T09:43:00,1.00
52,California,2025-04-09T09:42:00,2025-04-09T09:44:00,3.00
52,California,2025-04-09T23:39:00,2025-04-09T23:40:00,2.00
52,California,2025-04-10T09:41:00,2025-04-10T09:43:00,3.00
52,California,2025-04-10T23:38:00,2025-04-10T23:40:00,3.00
52,California,2025-04-11T09:41:00,2025-04-11T09:42:00,2.00
52,California,2025-04-11T23:37:00,2025-04-11T23:39:00,3.00
52,California,2025-04-12T09:41:00,2025-04-12T09:41:00,1.00
52,California,2025-04-12T23:37:00,2025-04-12T23:38:00,2.00
53,California,2025-03-30T02:51:00,2025-03-30T02:52:00,2.00
53,California,2025-04-02T11:14:00,2025-04-02T11:15:00,2.00
53,California,2025-04-03T01:11:00,2025-04-03T01:12:00,2.00
53,California,2025-04-03T11:13:00,2025-04-03T11:15:00,3.00
53,California,2025-04-04T01:10:00,2025-04-04T01:12:00,3.00
53,California,2025-04-04T11:13:00,2025-04-04T11:15:00,3.00
53,California,2025-04-05T01:09:00,2025-04-05T01:11:00,3.00
53,California,2025-04-05T11:13:00,2025-04-05T11:14:00,2.00
53,California,2025-04-06T01:09:00,2025-04-06T01:10:00,2.00
53,California,2025-04-09T09:33:00,2025-04-09T09:33:00,1.00
53,California,2025-04-09T23:29:00,2025-04-09T23:30:00,2.00
53,California,2025-04-10T09:32:00,2025-04-10T09:33:00,2.00
53,California,2025-04-10T23:28:00,2025-04-10T23:30:00,3.00
53,California,2025-04-11T09:31:00,2025-04-11T09:33:00,3.00
53,California,2025-04-11T23:27:00,2025-04-11T23:29:00,3.00
53,California,2025-04-12T09:31:00,2025-04-12T09:32:00,2.00
53,California,2025-04-12T23:27:00,2025-04-12T23:29:00,3.00
54,California,2025-03-30T02:41:00,2025-03-30T02:43:00,3.00
54,California,2025-03-30T12:45:00,2025-03-30T12:45:00,1.00
54,California,2025-03-31T02:41:00,2025-03-31T02:41:00,1.00
54,California,2025-04-03T11:04:00,2025-04-03T11:05:00,2.00
54,California,2025-04-04T01:01:00,2025-04-04T01:02:00,2.00
54,California,2025-04-04T11:03:00,2025-04-04T11:05:00,3.00
54,California,2025-04-05T01:00:00,2025-04-05T01:01:00,2.00
54,California,2025-04-05T11:03:00,2025-04-05T11:04:00,2.00
54,California,2025-04-06T00:59:00,2025-04-06T01:01:00,3.00
54,California,2025-04-06T11:02:00,2025-04-06T11:03:00,2.00
54,California,2025-04-07T00:59:00,2025-04-07T01:00:00,2.00
54,California,2025-04-10T09:22:00,2025-04-10T09:23:00,2.00
54,California,2025-04-10T23:19:00,2025-04-10T23:20:00,2.00
54,California,2025-04-11T09:21:00,2025-04-11T09:23:00,3.00
54,California,2025-04-11T23:18:00,2025-04-11T23:19:00,2.00
54,California,2025-04-12T09:21:00,2025-04-12T09:22:00,2.00
54,California,2025-04-12T23:17:00,2025-04-12T23:19:00,3.00
55,California,2025-03-30T02:31:00,2025-03-30T02:33:00,3.00
55,California,2025-03-30T12:34:00,2025-03-30T12:36:00,3.00
55,California,2025-03-31T02:31:00,2025-03-31T02:32:00,2.00
55,California,2025-04-03T10:55:00,2025-04-03T10:55:00,1.00
55,California,2025-04-04T00:51:00,2025-04-04T00:51:00,1.00
55,California,2025-04-04T10:53:00,2025-04-04T10:55:00,3.00
55,California,2025-04-05T00:50:00,2025-04-05T00:52:00,3.00
55,California,2025-04-05T10:53:00,2025-04-05T10:55:00,3.00
55,California,2025-04-06T00:49:00,2025-04-06T00:51:00,3.00
55,California,2025-04-06T10:52:00,2025-04-06T10:54:00,3.00
55,California,2025-04-07T00:49:00,2025-04-07T00:50:00,2.00
55,California,2025-04-07T10:52:00,2025-04-07T10:52:00,1.00
55,California,2025-04-08T00:49:00,2025-04-08T00:49:00,1.00
55,California,2025-04-11T09:12:00,2025-04-11T09:13:00,2.00
55,California,2025-04-11T23:08:00,2025-04-11T23:09:00,2.00
55,California,2025-04-12T09:11:00,2025-04-12T09:13:00,3.00
55,California,2025-04-12T23:07:00,2025-04-12T23:09:00,3.00
56,California,2025-03-30T02:21:00,2025-03-30T02:23:00,3.00
56,California,2025-03-30T12:24:00,2025-03-30T12:26:00,3.00
56,California,2025-03-31T02:21:00,2025-03-31T02:23:00,3.00
56,California,2025-03-31T12:24:00,2025-03-31T12:25:00,2.00
56,California,2025-04-01T02:21:00,2025-04-01T02:22:00,2.00
56,California,2025-04-04T10:44:00,2025-04-04T10:45:00,2.00
56,California,2025-04-05T00:41:00,2025-04-05T00:41:00,1.00
56,California,2025-04-05T10:43:00,2025-04-05T10:45:00,3.00
56,California,2025-04-06T00:40:00,2025-04-06T00:41:00,2.00
56,California,2025-04-06T10:42:00,2025-04-06T10:44:00,3.00
56,California,2025-04-07T00:39:00,2025-04-07T00:41:00,3.00
56,California,2025-04-07T10:42:00,2025-04-07T10:43:00,2.00
56,California,2025-04-08T00:39:00,2025-04-08T00:40:00,2.00
56,California,2025-04-11T09:02:00,2025-04-11T09:02:00,1.00
56,California,2025-04-11T22:59:00,2025-04-11T22:59:00,1.00
56,California,2025-04-12T09:01:00,2025-04-12T09:03:00,3.00
56,California,2025-04-12T22:58:00,2025-04-12T22:59:00,2.00
57,California,2025-03-30T02:12:00,2025-03-30T02:13:00,2.00
57,California,2025-03-30T12:14:00,2025-03-30T12:16:00,3.00
57,California,2025-03-31T02:11:00,2025-03-31T02:13:00,3.00
57,California,2025-03-31T12:14:00,2025-03-31T12:16:00,3.00
57,California,2025-04-01T02:11:00,2025-04-01T02:12:00,2.00
57,California,2025-04-01T12:14:00,2025-04-01T12:14:00,1.00
57,California,2025-04-02T02:11:00,2025-04-02T02:11:00,1.00
57,California,2025-04-05T10:33:00,2025-04-05T10:35:00,3.00
57,California,2025-04-06T00:30:00,2025-04-06T00:31:00,2.00
57,California,2025-04-06T10:33:00,2025-04-06T10:34:00,2.00
57,California,2025-04-07T00:29:00,2025-04-07T00:31:00,3.00
57,California,2025-04-07T10:32:00,2025-04-07T10:34:00,3.00
57,California,2025-04-08T00:29:00,2025-04-08T00:30:00,2.00
57,California,2025-04-08T10:32:00,2025-04-08T10:33:00,2.00
57,California,2025-04-09T00:28:00,2025-04-09T00:29:00,2.00
57,California,2025-04-12T08:52:00,2025-04-12T08:52:00,1.00
57,California,2025-04-12T22:48:00,2025-04-12T22:49:00,2.00
58,California,2025-03-30T02:03:00,2025-03-30T02:03:00,1.00
58,California,2025-03-30T12:05:00,2025-03-30T12:06:00,2.00
58,California,2025-03-31T02:01:00,2025-03-31T02:03:00,3.00
58,California,2025-03-31T12:04:00,2025-03-31T12:06:00,3.00
58,California,2025-04-01T02:01:00,2025-04-01T02:03:00,3.00
58,California,2025-04-01T12:04:00,2025-04-01T12:05:00,2.00
58,California,2025-04-02T02:00:00,2025-04-02T02:02:00,3.00
58,California,2025-04-06T10:23:00,2025-04-06T10:24:00,2.00
58,California,2025-04-07T00:20:00,2025-04-07T00:21:00,2.00
58,California,2025-04-07T10:22:00,2025-04-07T10:24:00,3.00
58,California,2025-04-08T00:19:00,2025-04-08T00:21:00,3.00
58,California,2025-04-08T10:22:00,2025-04-08T10:23:00,2.00
58,California,2025-04-09T00:18:00,2025-04-09T00:20:00,3.00
58,California,2025-04-09T10:22:00,2025-04-09T10:22:00,1.00
58,California,2025-04-10T00:18:00,2025-04-10T00:19:00,2.00
59,California,2025-03-30T11:55:00,2025-03-30T11:56:00,2.00
59,California,2025-03-31T01:52:00,2025-03-31T01:53:00,2.00
59,California,2025-03-31T11:54:00,2025-03-31T11:56:00,3.00
59,California,2025-04-01T01:51:00,2025-04-01T01:53:00,3.00
59,California,2025-04-01T11:54:00,2025-04-01T11:56:00,3.00
59,California,2025-04-02T01:50:00,2025-04-02T01:52:00,3.00
59,California,2025-04-02T11:53:00,2025-04-02T11:55:00,3.00
59,California,2025-04-03T01:50:00,2025-04-03T01:51:00,2.00
59,California,2025-04-06T10:14:00,2025-04-06T10:14:00,1.00
59,California,2025-04-07T00:10:00,2025-04-07T00:10:00,1.00
59,California,2025-04-07T10:12:00,2025-04-07T10:14:00,3.00
59,California,2025-04-08T00:09:00,2025-04-08T00:11:00,3.00
59,California,2025-04-08T10:12:00,2025-04-08T10:14:00,3.00
59,California,2025-04-09T00:08:00,2025-04-09T00:10:00,3.00
59,California,2025-04-09T10:11:00,2025-04-09T10:13:00,3.00
59,California,2025-04-10T00:08:00,2025-04-10T00:10:00,3.00
59,California,2025-04-11T00:08:00,2025-04-11T00:08:00,1.00
60,California,2025-03-30T03:19:00,2025-03-30T03:20:00,2.00
60,California,2025-03-30T13:21:00,2025-03-30T13:23:00,3.00
60,California,2025-03-31T03:18:00,2025-03-31T03:19:00,2.00
60,California,2025-03-31T13:21:00,2025-03-31T13:22:00,2.00
60,California,2025-04-01T03:17:00,2025-04-01T03:19:00,3.00
60,California,2025-04-01T13:20:00,2025-04-01T13:21:00,2.00
60,California,2025-04-02T03:17:00,2025-04-02T03:18:00,2.00
60,California,2025-04-05T11:40:00,2025-04-05T11:41:00,2.00
60,California,2025-04-06T01:37:00,2025-04-06T01:37:00,1.00
60,California,2025-04-06T11:39:00,2025-04-06T11:41:00,3.00
60,California,2025-04-07T01:36:00,2025-04-07T01:37:00,2.00
60,California,2025-04-07T11:39:00,2025-04-07T11:40:00,2.00
60,California,2025-04-08T01:35:00,2025-04-08T01:37:00,3.00
60,California,2025-04-08T11:38:00,2025-04-08T11:40:00,3.00
60,California,2025-04-09T01:35:00,2025-04-09T01:36:00,2.00
60,California,2025-04-10T01:35:00,2025-04-10T01:35:00,1.00
61,California,2025-03-30T13:11:00,2025-03-30T13:13:00,3.00
61,California,2025-03-31T03:08:00,2025-03-31T03:09:00,2.00
61,California,2025-03-31T13:11:00,2025-03-31T13:13:00,3.00
61,California,2025-04-01T03:07:00,2025-04-01T03:09:00,3.00
61,California,2025-04-01T13:10:00,2025-04-01T13:12:00,3.00
61,California,2025-04-02T03:07:00,2025-04-02T03:08:00,2.00
61,California,2025-04-02T13:10:00,2025-04-02T13:11:00,2.00
61,California,2025-04-03T03:07:00,2025-04-03T03:07:00,1.00
61,California,2025-04-06T11:30:00,2025-04-06T11:31:00,2.00
61,California,2025-04-07T01:26:00,2025-04-07T01:27:00,2.00
61,California,2025-04-07T11:29:00,2025-04-07T11:31:00,3.00
61,California,2025-04-08T01:25:00,2025-04-08T01:27:00,3.00
61,California,2025-04-08T11:28:00,2025-04-08T11:30:00,3.00
61,California,2025-04-09T01:25:00,2025-04-09T01:27:00,3.00
61,California,2025-04-09T11:28:00,2025-04-09T11:29:00,2.00
61,California,2025-04-10T01:25:00,2025-04-10T01:26:00,2.00
62,California,2025-03-30T13:02:00,2025-03-30T13:03:00,2.00
